<?xml version="1.0" encoding="UTF-8"?>
<GeocodeResponse>
 <status>OK</status>
 <result>
  <type>route</type>
  <formatted_address>Rossatz, 3602 Rossatz, Austria</formatted_address>
  <address_component>
   <long_name>Rossatz</long_name>
   <short_name>Rossatz</short_name>
   <type>route</type>
  </address_component>
  <address_component>
   <long_name>Rossatz</long_name>
   <short_name>Rossatz</short_name>
   <type>locality</type>
   <type>political</type>
  </address_component>
  <address_component>
   <long_name>Gemeinde Rossatz-Arnsdorf</long_name>
   <short_name>Gemeinde Rossatz-Arnsdorf</short_name>
   <type>administrative_area_level_3</type>
   <type>political</type>
  </address_component>
  <address_component>
   <long_name>Krems-Land</long_name>
   <short_name>Krems-Land</short_name>
   <type>administrative_area_level_2</type>
   <type>political</type>
  </address_component>
  <address_component>
   <long_name>Niederösterreich</long_name>
   <short_name>Niederösterreich</short_name>
   <type>administrative_area_level_1</type>
   <type>political</type>
  </address_component>
  <address_component>
   <long_name>Austria</long_name>
   <short_name>AT</short_name>
   <type>country</type>
   <type>political</type>
  </address_component>
  <address_component>
   <long_name>3602</long_name>
   <short_name>3602</short_name>
   <type>postal_code</type>
  </address_component>
  <geometry>
   <location>
    <lat>48.3971432</lat>
    <lng>15.5028128</lng>
   </location>
   <location_type>GEOMETRIC_CENTER</location_type>
   <viewport>
    <southwest>
     <lat>48.3861300</lat>
     <lng>15.4859337</lng>
    </southwest>
    <northeast>
     <lat>48.4001039</lat>
     <lng>15.5116745</lng>
    </northeast>
   </viewport>
   <bounds>
    <southwest>
     <lat>48.3861300</lat>
     <lng>15.4859337</lng>
    </southwest>
    <northeast>
     <lat>48.4001039</lat>
     <lng>15.5116745</lng>
    </northeast>
   </bounds>
  </geometry>
  <partial_match>true</partial_match>
  <place_id>ChIJY9btCq2IckcRkI04Esb8hmM</place_id>
 </result>
 <result>
  <type>administrative_area_level_3</type>
  <type>political</type>
  <formatted_address>Gemeinde Rossatz-Arnsdorf, Austria</formatted_address>
  <address_component>
   <long_name>Gemeinde Rossatz-Arnsdorf</long_name>
   <short_name>Gemeinde Rossatz-Arnsdorf</short_name>
   <type>administrative_area_level_3</type>
   <type>political</type>
  </address_component>
  <address_component>
   <long_name>Krems-Land</long_name>
   <short_name>Krems-Land</short_name>
   <type>administrative_area_level_2</type>
   <type>political</type>
  </address_component>
  <address_component>
   <long_name>Niederösterreich</long_name>
   <short_name>Niederösterreich</short_name>
   <type>administrative_area_level_1</type>
   <type>political</type>
  </address_component>
  <address_component>
   <long_name>Austria</long_name>
   <short_name>AT</short_name>
   <type>country</type>
   <type>political</type>
  </address_component>
  <geometry>
   <location>
    <lat>48.3518433</lat>
    <lng>15.4442797</lng>
   </location>
   <location_type>APPROXIMATE</location_type>
   <viewport>
    <southwest>
     <lat>48.3229300</lat>
     <lng>15.4066201</lng>
    </southwest>
    <northeast>
     <lat>48.4061800</lat>
     <lng>15.5316900</lng>
    </northeast>
   </viewport>
   <bounds>
    <southwest>
     <lat>48.3229300</lat>
     <lng>15.4066201</lng>
    </southwest>
    <northeast>
     <lat>48.4061800</lat>
     <lng>15.5316900</lng>
    </northeast>
   </bounds>
  </geometry>
  <partial_match>true</partial_match>
  <place_id>ChIJhVBZ3oWIckcR8-cnPjBI-04</place_id>
 </result>
</GeocodeResponse>
