<?xml version="1.0" encoding="UTF-8"?>
<GeocodeResponse>
 <status>OK</status>
 <result>
  <type>natural_feature</type>
  <type>establishment</type>
  <formatted_address>Mödling, Austria</formatted_address>
  <address_component>
   <long_name>Mödling</long_name>
   <short_name>Mödling</short_name>
   <type>natural_feature</type>
   <type>establishment</type>
  </address_component>
  <address_component>
   <long_name>Mödling</long_name>
   <short_name>Mödling</short_name>
   <type>administrative_area_level_2</type>
   <type>political</type>
  </address_component>
  <address_component>
   <long_name>Niederösterreich</long_name>
   <short_name>Niederösterreich</short_name>
   <type>administrative_area_level_1</type>
   <type>political</type>
  </address_component>
  <address_component>
   <long_name>Austria</long_name>
   <short_name>AT</short_name>
   <type>country</type>
   <type>political</type>
  </address_component>
  <geometry>
   <location>
    <lat>48.0618962</lat>
    <lng>16.1844120</lng>
   </location>
   <location_type>APPROXIMATE</location_type>
   <viewport>
    <southwest>
     <lat>48.0544385</lat>
     <lng>16.1684046</lng>
    </southwest>
    <northeast>
     <lat>48.0693528</lat>
     <lng>16.2004194</lng>
    </northeast>
   </viewport>
   <bounds>
    <southwest>
     <lat>48.0589585</lat>
     <lng>16.1794199</lng>
    </southwest>
    <northeast>
     <lat>48.0648340</lat>
     <lng>16.1894041</lng>
    </northeast>
   </bounds>
  </geometry>
  <place_id>ChIJC10Z1CilbUcRGSHSc5D0coM</place_id>
 </result>
 <result>
  <type>administrative_area_level_3</type>
  <type>political</type>
  <formatted_address>Wienerwald, Austria</formatted_address>
  <address_component>
   <long_name>Wienerwald</long_name>
   <short_name>Wienerwald</short_name>
   <type>administrative_area_level_3</type>
   <type>political</type>
  </address_component>
  <address_component>
   <long_name>Mödling</long_name>
   <short_name>Mödling</short_name>
   <type>administrative_area_level_2</type>
   <type>political</type>
  </address_component>
  <address_component>
   <long_name>Niederösterreich</long_name>
   <short_name>Niederösterreich</short_name>
   <type>administrative_area_level_1</type>
   <type>political</type>
  </address_component>
  <address_component>
   <long_name>Austria</long_name>
   <short_name>AT</short_name>
   <type>country</type>
   <type>political</type>
  </address_component>
  <geometry>
   <location>
    <lat>48.0969764</lat>
    <lng>16.0980093</lng>
   </location>
   <location_type>APPROXIMATE</location_type>
   <viewport>
    <southwest>
     <lat>48.0613499</lat>
     <lng>16.0394801</lng>
    </southwest>
    <northeast>
     <lat>48.1329100</lat>
     <lng>16.1797398</lng>
    </northeast>
   </viewport>
   <bounds>
    <southwest>
     <lat>48.0613499</lat>
     <lng>16.0394801</lng>
    </southwest>
    <northeast>
     <lat>48.1329100</lat>
     <lng>16.1797398</lng>
    </northeast>
   </bounds>
  </geometry>
  <place_id>ChIJ97CUAXujbUcR6XGETlyvJZ0</place_id>
 </result>
</GeocodeResponse>
