<?xml version="1.0" encoding="UTF-8"?>
<GeocodeResponse>
 <status>OK</status>
 <result>
  <type>route</type>
  <formatted_address>Mostviertelstraße, 3100 St. Pölten, Austria</formatted_address>
  <address_component>
   <long_name>Mostviertelstraße</long_name>
   <short_name>Mostviertelstraße</short_name>
   <type>route</type>
  </address_component>
  <address_component>
   <long_name>Sankt Pölten</long_name>
   <short_name>St. Pölten</short_name>
   <type>locality</type>
   <type>political</type>
  </address_component>
  <address_component>
   <long_name>Sankt Pölten</long_name>
   <short_name>St. Pölten</short_name>
   <type>administrative_area_level_2</type>
   <type>political</type>
  </address_component>
  <address_component>
   <long_name>Niederösterreich</long_name>
   <short_name>Niederösterreich</short_name>
   <type>administrative_area_level_1</type>
   <type>political</type>
  </address_component>
  <address_component>
   <long_name>Austria</long_name>
   <short_name>AT</short_name>
   <type>country</type>
   <type>political</type>
  </address_component>
  <address_component>
   <long_name>3100</long_name>
   <short_name>3100</short_name>
   <type>postal_code</type>
  </address_component>
  <geometry>
   <location>
    <lat>48.2270593</lat>
    <lng>15.6776753</lng>
   </location>
   <location_type>GEOMETRIC_CENTER</location_type>
   <viewport>
    <southwest>
     <lat>48.2257316</lat>
     <lng>15.6769943</lng>
    </southwest>
    <northeast>
     <lat>48.2284296</lat>
     <lng>15.6800275</lng>
    </northeast>
   </viewport>
   <bounds>
    <southwest>
     <lat>48.2262191</lat>
     <lng>15.6769943</lng>
    </southwest>
    <northeast>
     <lat>48.2279421</lat>
     <lng>15.6800275</lng>
    </northeast>
   </bounds>
  </geometry>
  <partial_match>true</partial_match>
  <place_id>ChIJ58Vn3cGAbUcRaxd5-HxKll8</place_id>
 </result>
 <result>
  <type>route</type>
  <formatted_address>Mostviertelpl., 3362 Öhling, Austria</formatted_address>
  <address_component>
   <long_name>Mostviertelplatz</long_name>
   <short_name>Mostviertelpl.</short_name>
   <type>route</type>
  </address_component>
  <address_component>
   <long_name>Öhling</long_name>
   <short_name>Öhling</short_name>
   <type>locality</type>
   <type>political</type>
  </address_component>
  <address_component>
   <long_name>Gemeinde Oed-Oehling</long_name>
   <short_name>Gemeinde Oed-Oehling</short_name>
   <type>administrative_area_level_3</type>
   <type>political</type>
  </address_component>
  <address_component>
   <long_name>Amstetten</long_name>
   <short_name>Amstetten</short_name>
   <type>administrative_area_level_2</type>
   <type>political</type>
  </address_component>
  <address_component>
   <long_name>Niederösterreich</long_name>
   <short_name>Niederösterreich</short_name>
   <type>administrative_area_level_1</type>
   <type>political</type>
  </address_component>
  <address_component>
   <long_name>Austria</long_name>
   <short_name>AT</short_name>
   <type>country</type>
   <type>political</type>
  </address_component>
  <address_component>
   <long_name>3362</long_name>
   <short_name>3362</short_name>
   <type>postal_code</type>
  </address_component>
  <geometry>
   <location>
    <lat>48.1016378</lat>
    <lng>14.7990628</lng>
   </location>
   <location_type>GEOMETRIC_CENTER</location_type>
   <viewport>
    <southwest>
     <lat>48.1003647</lat>
     <lng>14.7978552</lng>
    </southwest>
    <northeast>
     <lat>48.1030626</lat>
     <lng>14.8005531</lng>
    </northeast>
   </viewport>
   <bounds>
    <southwest>
     <lat>48.1014350</lat>
     <lng>14.7987736</lng>
    </southwest>
    <northeast>
     <lat>48.1019923</lat>
     <lng>14.7996347</lng>
    </northeast>
   </bounds>
  </geometry>
  <partial_match>true</partial_match>
  <place_id>ChIJWfLRuPJJckcRA9j2wCfG65w</place_id>
 </result>
 <result>
  <type>route</type>
  <formatted_address>Landesklinikum Mostviertel, Amstetten, Austria</formatted_address>
  <address_component>
   <long_name>Landesklinikum Mostviertel</long_name>
   <short_name>Landesklinikum Mostviertel</short_name>
   <type>route</type>
  </address_component>
  <address_component>
   <long_name>Amstetten</long_name>
   <short_name>Amstetten</short_name>
   <type>locality</type>
   <type>political</type>
  </address_component>
  <address_component>
   <long_name>Gemeinde Amstetten</long_name>
   <short_name>Gemeinde Amstetten</short_name>
   <type>administrative_area_level_3</type>
   <type>political</type>
  </address_component>
  <address_component>
   <long_name>Amstetten</long_name>
   <short_name>Amstetten</short_name>
   <type>administrative_area_level_2</type>
   <type>political</type>
  </address_component>
  <address_component>
   <long_name>Niederösterreich</long_name>
   <short_name>Niederösterreich</short_name>
   <type>administrative_area_level_1</type>
   <type>political</type>
  </address_component>
  <address_component>
   <long_name>Austria</long_name>
   <short_name>AT</short_name>
   <type>country</type>
   <type>political</type>
  </address_component>
  <geometry>
   <location>
    <lat>48.0920955</lat>
    <lng>14.8052168</lng>
   </location>
   <location_type>GEOMETRIC_CENTER</location_type>
   <viewport>
    <southwest>
     <lat>48.0872075</lat>
     <lng>14.7998540</lng>
    </southwest>
    <northeast>
     <lat>48.0968499</lat>
     <lng>14.8100580</lng>
    </northeast>
   </viewport>
   <bounds>
    <southwest>
     <lat>48.0872075</lat>
     <lng>14.7998540</lng>
    </southwest>
    <northeast>
     <lat>48.0968499</lat>
     <lng>14.8100580</lng>
    </northeast>
   </bounds>
  </geometry>
  <partial_match>true</partial_match>
  <place_id>ChIJc3TPJ-ZJckcRSkywmvhOfuc</place_id>
 </result>
</GeocodeResponse>
