<?xml version="1.0" encoding="UTF-8"?>
<GeocodeResponse>
 <status>OK</status>
 <result>
  <type>neighborhood</type>
  <type>political</type>
  <formatted_address>Währing, Vienna, Austria</formatted_address>
  <address_component>
   <long_name>Währing</long_name>
   <short_name>Währing</short_name>
   <type>neighborhood</type>
   <type>political</type>
  </address_component>
  <address_component>
   <long_name>Währing</long_name>
   <short_name>Währing</short_name>
   <type>sublocality_level_1</type>
   <type>sublocality</type>
   <type>political</type>
  </address_component>
  <address_component>
   <long_name>Vienna</long_name>
   <short_name>Vienna</short_name>
   <type>locality</type>
   <type>political</type>
  </address_component>
  <address_component>
   <long_name>Vienna</long_name>
   <short_name>Vienna</short_name>
   <type>administrative_area_level_1</type>
   <type>political</type>
  </address_component>
  <address_component>
   <long_name>Austria</long_name>
   <short_name>AT</short_name>
   <type>country</type>
   <type>political</type>
  </address_component>
  <geometry>
   <location>
    <lat>48.2222972</lat>
    <lng>16.3416676</lng>
   </location>
   <location_type>APPROXIMATE</location_type>
   <viewport>
    <southwest>
     <lat>48.2164440</lat>
     <lng>16.3070529</lng>
    </southwest>
    <northeast>
     <lat>48.2472860</lat>
     <lng>16.3544860</lng>
    </northeast>
   </viewport>
   <bounds>
    <southwest>
     <lat>48.2164440</lat>
     <lng>16.3070529</lng>
    </southwest>
    <northeast>
     <lat>48.2472860</lat>
     <lng>16.3544860</lng>
    </northeast>
   </bounds>
  </geometry>
  <place_id>ChIJ674K1H4IbUcRG7VxLmKFU14</place_id>
 </result>
 <result>
  <type>sublocality_level_1</type>
  <type>sublocality</type>
  <type>political</type>
  <formatted_address>Währing, 1180 Vienna, Austria</formatted_address>
  <address_component>
   <long_name>Währing</long_name>
   <short_name>Währing</short_name>
   <type>sublocality_level_1</type>
   <type>sublocality</type>
   <type>political</type>
  </address_component>
  <address_component>
   <long_name>Vienna</long_name>
   <short_name>Vienna</short_name>
   <type>locality</type>
   <type>political</type>
  </address_component>
  <address_component>
   <long_name>Vienna</long_name>
   <short_name>Vienna</short_name>
   <type>administrative_area_level_1</type>
   <type>political</type>
  </address_component>
  <address_component>
   <long_name>Austria</long_name>
   <short_name>AT</short_name>
   <type>country</type>
   <type>political</type>
  </address_component>
  <address_component>
   <long_name>1180</long_name>
   <short_name>1180</short_name>
   <type>postal_code</type>
  </address_component>
  <geometry>
   <location>
    <lat>48.2318973</lat>
    <lng>16.3286096</lng>
   </location>
   <location_type>APPROXIMATE</location_type>
   <viewport>
    <southwest>
     <lat>48.2171514</lat>
     <lng>16.2845980</lng>
    </southwest>
    <northeast>
     <lat>48.2508646</lat>
     <lng>16.3538603</lng>
    </northeast>
   </viewport>
   <bounds>
    <southwest>
     <lat>48.2171514</lat>
     <lng>16.2845980</lng>
    </southwest>
    <northeast>
     <lat>48.2508646</lat>
     <lng>16.3538603</lng>
    </northeast>
   </bounds>
  </geometry>
  <place_id>ChIJzV33nkYGbUcR9jUA-zdGQWQ</place_id>
 </result>
</GeocodeResponse>
