<?xml version="1.0" encoding="UTF-8"?>
<GeocodeResponse>
 <status>OK</status>
 <result>
  <type>route</type>
  <formatted_address>Humber Bridge, East Riding of Yorkshire, UK</formatted_address>
  <address_component>
   <long_name>Humber Bridge</long_name>
   <short_name>Humber Bridge</short_name>
   <type>route</type>
  </address_component>
  <address_component>
   <long_name>East Riding of Yorkshire</long_name>
   <short_name>East Riding of Yorkshire</short_name>
   <type>administrative_area_level_2</type>
   <type>political</type>
  </address_component>
  <address_component>
   <long_name>United Kingdom</long_name>
   <short_name>GB</short_name>
   <type>country</type>
   <type>political</type>
  </address_component>
  <geometry>
   <location>
    <lat>53.7193701</lat>
    <lng>-0.4514796</lng>
   </location>
   <location_type>GEOMETRIC_CENTER</location_type>
   <viewport>
    <southwest>
     <lat>53.7127613</lat>
     <lng>-0.4573024</lng>
    </southwest>
    <northeast>
     <lat>53.7250179</lat>
     <lng>-0.4505150</lng>
    </northeast>
   </viewport>
   <bounds>
    <southwest>
     <lat>53.7127613</lat>
     <lng>-0.4573024</lng>
    </southwest>
    <northeast>
     <lat>53.7250179</lat>
     <lng>-0.4505150</lng>
    </northeast>
   </bounds>
  </geometry>
  <partial_match>true</partial_match>
  <place_id>ChIJt_jUe_nqeEgRYIo-dTIs2Mc</place_id>
 </result>
 <result>
  <type>route</type>
  <formatted_address>Humber Ln, Patrington, Hull, East Riding of Yorkshire HU12 0PJ, UK</formatted_address>
  <address_component>
   <long_name>Humber Lane</long_name>
   <short_name>Humber Ln</short_name>
   <type>route</type>
  </address_component>
  <address_component>
   <long_name>Patrington</long_name>
   <short_name>Patrington</short_name>
   <type>locality</type>
   <type>political</type>
  </address_component>
  <address_component>
   <long_name>Hull</long_name>
   <short_name>Hull</short_name>
   <type>postal_town</type>
  </address_component>
  <address_component>
   <long_name>East Riding of Yorkshire</long_name>
   <short_name>East Riding of Yorkshire</short_name>
   <type>administrative_area_level_2</type>
   <type>political</type>
  </address_component>
  <address_component>
   <long_name>United Kingdom</long_name>
   <short_name>GB</short_name>
   <type>country</type>
   <type>political</type>
  </address_component>
  <address_component>
   <long_name>HU12 0PJ</long_name>
   <short_name>HU12 0PJ</short_name>
   <type>postal_code</type>
  </address_component>
  <geometry>
   <location>
    <lat>53.6824084</lat>
    <lng>-0.0161070</lng>
   </location>
   <location_type>GEOMETRIC_CENTER</location_type>
   <viewport>
    <southwest>
     <lat>53.6811235</lat>
     <lng>-0.0176707</lng>
    </southwest>
    <northeast>
     <lat>53.6838560</lat>
     <lng>-0.0149727</lng>
    </northeast>
   </viewport>
   <bounds>
    <southwest>
     <lat>53.6811235</lat>
     <lng>-0.0168188</lng>
    </southwest>
    <northeast>
     <lat>53.6838560</lat>
     <lng>-0.0158246</lng>
    </northeast>
   </bounds>
  </geometry>
  <partial_match>true</partial_match>
  <place_id>ChIJbyDbfjqeeEgRyHfIKVz9MFo</place_id>
 </result>
 <result>
  <type>route</type>
  <formatted_address>Humber Rd, Immingham DN40, UK</formatted_address>
  <address_component>
   <long_name>Humber Road</long_name>
   <short_name>Humber Rd</short_name>
   <type>route</type>
  </address_component>
  <address_component>
   <long_name>Immingham</long_name>
   <short_name>Immingham</short_name>
   <type>postal_town</type>
  </address_component>
  <address_component>
   <long_name>United Kingdom</long_name>
   <short_name>GB</short_name>
   <type>country</type>
   <type>political</type>
  </address_component>
  <address_component>
   <long_name>DN40</long_name>
   <short_name>DN40</short_name>
   <type>postal_code</type>
   <type>postal_code_prefix</type>
  </address_component>
  <geometry>
   <location>
    <lat>53.6325008</lat>
    <lng>-0.2196844</lng>
   </location>
   <location_type>GEOMETRIC_CENTER</location_type>
   <viewport>
    <southwest>
     <lat>53.6323852</lat>
     <lng>-0.2307845</lng>
    </southwest>
    <northeast>
     <lat>53.6370268</lat>
     <lng>-0.2064387</lng>
    </northeast>
   </viewport>
   <bounds>
    <southwest>
     <lat>53.6323852</lat>
     <lng>-0.2307845</lng>
    </southwest>
    <northeast>
     <lat>53.6370268</lat>
     <lng>-0.2064387</lng>
    </northeast>
   </bounds>
  </geometry>
  <partial_match>true</partial_match>
  <place_id>ChIJcW_3vsOQeEgR7k0fn4ZlG9s</place_id>
 </result>
 <result>
  <type>route</type>
  <formatted_address>Humber Cres, Brough, East Riding of Yorkshire HU15 1BP, UK</formatted_address>
  <address_component>
   <long_name>Humber Crescent</long_name>
   <short_name>Humber Cres</short_name>
   <type>route</type>
  </address_component>
  <address_component>
   <long_name>Brough</long_name>
   <short_name>Brough</short_name>
   <type>locality</type>
   <type>political</type>
  </address_component>
  <address_component>
   <long_name>Brough</long_name>
   <short_name>Brough</short_name>
   <type>postal_town</type>
  </address_component>
  <address_component>
   <long_name>East Riding of Yorkshire</long_name>
   <short_name>East Riding of Yorkshire</short_name>
   <type>administrative_area_level_2</type>
   <type>political</type>
  </address_component>
  <address_component>
   <long_name>United Kingdom</long_name>
   <short_name>GB</short_name>
   <type>country</type>
   <type>political</type>
  </address_component>
  <address_component>
   <long_name>HU15 1BP</long_name>
   <short_name>HU15 1BP</short_name>
   <type>postal_code</type>
  </address_component>
  <geometry>
   <location>
    <lat>53.7300183</lat>
    <lng>-0.5637626</lng>
   </location>
   <location_type>GEOMETRIC_CENTER</location_type>
   <viewport>
    <southwest>
     <lat>53.7286250</lat>
     <lng>-0.5649682</lng>
    </southwest>
    <northeast>
     <lat>53.7313229</lat>
     <lng>-0.5622702</lng>
    </northeast>
   </viewport>
   <bounds>
    <southwest>
     <lat>53.7298012</lat>
     <lng>-0.5648654</lng>
    </southwest>
    <northeast>
     <lat>53.7301467</lat>
     <lng>-0.5623730</lng>
    </northeast>
   </bounds>
  </geometry>
  <partial_match>true</partial_match>
  <place_id>ChIJ_3GqoSzoeEgRdqZfer00O88</place_id>
 </result>
 <result>
  <type>route</type>
  <formatted_address>Humber Ln, Welwick, Hull, East Riding of Yorkshire HU12 0SA, UK</formatted_address>
  <address_component>
   <long_name>Humber Lane</long_name>
   <short_name>Humber Ln</short_name>
   <type>route</type>
  </address_component>
  <address_component>
   <long_name>Welwick</long_name>
   <short_name>Welwick</short_name>
   <type>locality</type>
   <type>political</type>
  </address_component>
  <address_component>
   <long_name>Hull</long_name>
   <short_name>Hull</short_name>
   <type>postal_town</type>
  </address_component>
  <address_component>
   <long_name>East Riding of Yorkshire</long_name>
   <short_name>East Riding of Yorkshire</short_name>
   <type>administrative_area_level_2</type>
   <type>political</type>
  </address_component>
  <address_component>
   <long_name>United Kingdom</long_name>
   <short_name>GB</short_name>
   <type>country</type>
   <type>political</type>
  </address_component>
  <address_component>
   <long_name>HU12 0SA</long_name>
   <short_name>HU12 0SA</short_name>
   <type>postal_code</type>
  </address_component>
  <geometry>
   <location>
    <lat>53.6657572</lat>
    <lng>0.0318505</lng>
   </location>
   <location_type>GEOMETRIC_CENTER</location_type>
   <viewport>
    <southwest>
     <lat>53.6633906</lat>
     <lng>0.0305412</lng>
    </southwest>
    <northeast>
     <lat>53.6681520</lat>
     <lng>0.0332391</lng>
    </northeast>
   </viewport>
   <bounds>
    <southwest>
     <lat>53.6633906</lat>
     <lng>0.0311955</lng>
    </southwest>
    <northeast>
     <lat>53.6681520</lat>
     <lng>0.0325848</lng>
    </northeast>
   </bounds>
  </geometry>
  <partial_match>true</partial_match>
  <place_id>ChIJufDUAsQg1kcRFvPqwGcpZys</place_id>
 </result>
 <result>
  <type>route</type>
  <formatted_address>Humber Rd, North Ferriby, East Riding of Yorkshire HU14, UK</formatted_address>
  <address_component>
   <long_name>Humber Road</long_name>
   <short_name>Humber Rd</short_name>
   <type>route</type>
  </address_component>
  <address_component>
   <long_name>North Ferriby</long_name>
   <short_name>North Ferriby</short_name>
   <type>locality</type>
   <type>political</type>
  </address_component>
  <address_component>
   <long_name>North Ferriby</long_name>
   <short_name>North Ferriby</short_name>
   <type>postal_town</type>
  </address_component>
  <address_component>
   <long_name>East Riding of Yorkshire</long_name>
   <short_name>East Riding of Yorkshire</short_name>
   <type>administrative_area_level_2</type>
   <type>political</type>
  </address_component>
  <address_component>
   <long_name>United Kingdom</long_name>
   <short_name>GB</short_name>
   <type>country</type>
   <type>political</type>
  </address_component>
  <address_component>
   <long_name>HU14</long_name>
   <short_name>HU14</short_name>
   <type>postal_code</type>
   <type>postal_code_prefix</type>
  </address_component>
  <geometry>
   <location>
    <lat>53.7152942</lat>
    <lng>-0.5079854</lng>
   </location>
   <location_type>GEOMETRIC_CENTER</location_type>
   <viewport>
    <southwest>
     <lat>53.7136395</lat>
     <lng>-0.5090834</lng>
    </southwest>
    <northeast>
     <lat>53.7167811</lat>
     <lng>-0.5063854</lng>
    </northeast>
   </viewport>
   <bounds>
    <southwest>
     <lat>53.7136395</lat>
     <lng>-0.5089181</lng>
    </southwest>
    <northeast>
     <lat>53.7167811</lat>
     <lng>-0.5065507</lng>
    </northeast>
   </bounds>
  </geometry>
  <partial_match>true</partial_match>
  <place_id>ChIJxwdwmR_qeEgRTleNxKQZ5KI</place_id>
 </result>
 <result>
  <type>route</type>
  <formatted_address>Humber Ln, Hull, East Riding of Yorkshire HU12, UK</formatted_address>
  <address_component>
   <long_name>Humber Lane</long_name>
   <short_name>Humber Ln</short_name>
   <type>route</type>
  </address_component>
  <address_component>
   <long_name>Hull</long_name>
   <short_name>Hull</short_name>
   <type>postal_town</type>
  </address_component>
  <address_component>
   <long_name>East Riding of Yorkshire</long_name>
   <short_name>East Riding of Yorkshire</short_name>
   <type>administrative_area_level_2</type>
   <type>political</type>
  </address_component>
  <address_component>
   <long_name>United Kingdom</long_name>
   <short_name>GB</short_name>
   <type>country</type>
   <type>political</type>
  </address_component>
  <address_component>
   <long_name>HU12</long_name>
   <short_name>HU12</short_name>
   <type>postal_code</type>
   <type>postal_code_prefix</type>
  </address_component>
  <geometry>
   <location>
    <lat>53.6474386</lat>
    <lng>0.0720114</lng>
   </location>
   <location_type>GEOMETRIC_CENTER</location_type>
   <viewport>
    <southwest>
     <lat>53.6434616</lat>
     <lng>0.0696925</lng>
    </southwest>
    <northeast>
     <lat>53.6515657</lat>
     <lng>0.0736796</lng>
    </northeast>
   </viewport>
   <bounds>
    <southwest>
     <lat>53.6434616</lat>
     <lng>0.0696925</lng>
    </southwest>
    <northeast>
     <lat>53.6515657</lat>
     <lng>0.0736796</lng>
    </northeast>
   </bounds>
  </geometry>
  <partial_match>true</partial_match>
  <place_id>ChIJTTX06csm1kcRHpQShbQFjRQ</place_id>
 </result>
 <result>
  <type>route</type>
  <formatted_address>Humber St, York, East Riding of Yorkshire YO43 3JF, UK</formatted_address>
  <address_component>
   <long_name>Humber Street</long_name>
   <short_name>Humber St</short_name>
   <type>route</type>
  </address_component>
  <address_component>
   <long_name>York</long_name>
   <short_name>York</short_name>
   <type>postal_town</type>
  </address_component>
  <address_component>
   <long_name>East Riding of Yorkshire</long_name>
   <short_name>East Riding of Yorkshire</short_name>
   <type>administrative_area_level_2</type>
   <type>political</type>
  </address_component>
  <address_component>
   <long_name>United Kingdom</long_name>
   <short_name>GB</short_name>
   <type>country</type>
   <type>political</type>
  </address_component>
  <address_component>
   <long_name>YO43 3JF</long_name>
   <short_name>YO43 3JF</short_name>
   <type>postal_code</type>
  </address_component>
  <geometry>
   <location>
    <lat>53.8664551</lat>
    <lng>-0.6524849</lng>
   </location>
   <location_type>GEOMETRIC_CENTER</location_type>
   <viewport>
    <southwest>
     <lat>53.8644233</lat>
     <lng>-0.6537486</lng>
    </southwest>
    <northeast>
     <lat>53.8681822</lat>
     <lng>-0.6509893</lng>
    </northeast>
   </viewport>
   <bounds>
    <southwest>
     <lat>53.8644233</lat>
     <lng>-0.6537486</lng>
    </southwest>
    <northeast>
     <lat>53.8681822</lat>
     <lng>-0.6509893</lng>
    </northeast>
   </bounds>
  </geometry>
  <partial_match>true</partial_match>
  <place_id>ChIJj8uwieLaeEgRTUFhbQih0Jo</place_id>
 </result>
 <result>
  <type>route</type>
  <formatted_address>Humber St, Goole, East Riding of Yorkshire DN14 5UJ, UK</formatted_address>
  <address_component>
   <long_name>Humber Street</long_name>
   <short_name>Humber St</short_name>
   <type>route</type>
  </address_component>
  <address_component>
   <long_name>Goole</long_name>
   <short_name>Goole</short_name>
   <type>locality</type>
   <type>political</type>
  </address_component>
  <address_component>
   <long_name>Goole</long_name>
   <short_name>Goole</short_name>
   <type>postal_town</type>
  </address_component>
  <address_component>
   <long_name>East Riding of Yorkshire</long_name>
   <short_name>East Riding of Yorkshire</short_name>
   <type>administrative_area_level_2</type>
   <type>political</type>
  </address_component>
  <address_component>
   <long_name>United Kingdom</long_name>
   <short_name>GB</short_name>
   <type>country</type>
   <type>political</type>
  </address_component>
  <address_component>
   <long_name>DN14 5UJ</long_name>
   <short_name>DN14 5UJ</short_name>
   <type>postal_code</type>
  </address_component>
  <geometry>
   <location>
    <lat>53.6940862</lat>
    <lng>-0.8660601</lng>
   </location>
   <location_type>GEOMETRIC_CENTER</location_type>
   <viewport>
    <southwest>
     <lat>53.6926188</lat>
     <lng>-0.8675849</lng>
    </southwest>
    <northeast>
     <lat>53.6953167</lat>
     <lng>-0.8648870</lng>
    </northeast>
   </viewport>
   <bounds>
    <southwest>
     <lat>53.6932376</lat>
     <lng>-0.8669271</lng>
    </southwest>
    <northeast>
     <lat>53.6946979</lat>
     <lng>-0.8655448</lng>
    </northeast>
   </bounds>
  </geometry>
  <partial_match>true</partial_match>
  <place_id>ChIJCR9isKsfeUgRZ9h28_AONeI</place_id>
 </result>
 <result>
  <type>route</type>
  <formatted_address>Humber Ct, Carcroft, Doncaster, South Yorkshire DN6 8SF, UK</formatted_address>
  <address_component>
   <long_name>Humber Court</long_name>
   <short_name>Humber Ct</short_name>
   <type>route</type>
  </address_component>
  <address_component>
   <long_name>Carcroft</long_name>
   <short_name>Carcroft</short_name>
   <type>locality</type>
   <type>political</type>
  </address_component>
  <address_component>
   <long_name>Doncaster</long_name>
   <short_name>Doncaster</short_name>
   <type>postal_town</type>
  </address_component>
  <address_component>
   <long_name>South Yorkshire</long_name>
   <short_name>South Yorkshire</short_name>
   <type>administrative_area_level_2</type>
   <type>political</type>
  </address_component>
  <address_component>
   <long_name>United Kingdom</long_name>
   <short_name>GB</short_name>
   <type>country</type>
   <type>political</type>
  </address_component>
  <address_component>
   <long_name>DN6 8SF</long_name>
   <short_name>DN6 8SF</short_name>
   <type>postal_code</type>
  </address_component>
  <geometry>
   <location>
    <lat>53.5841946</lat>
    <lng>-1.1955799</lng>
   </location>
   <location_type>GEOMETRIC_CENTER</location_type>
   <viewport>
    <southwest>
     <lat>53.5827931</lat>
     <lng>-1.1969247</lng>
    </southwest>
    <northeast>
     <lat>53.5854911</lat>
     <lng>-1.1942268</lng>
    </northeast>
   </viewport>
   <bounds>
    <southwest>
     <lat>53.5839026</lat>
     <lng>-1.1962574</lng>
    </southwest>
    <northeast>
     <lat>53.5843816</lat>
     <lng>-1.1948941</lng>
    </northeast>
   </bounds>
  </geometry>
  <partial_match>true</partial_match>
  <place_id>ChIJN8xe-OsSeUgRsT5gvEuZvV0</place_id>
 </result>
</GeocodeResponse>
