<?xml version="1.0" encoding="UTF-8"?>
<GeocodeResponse>
 <status>OK</status>
 <result>
  <type>route</type>
  <formatted_address>Huntingdonshire Dr, Durham, County Durham DH1 2DL, UK</formatted_address>
  <address_component>
   <long_name>Huntingdonshire Drive</long_name>
   <short_name>Huntingdonshire Dr</short_name>
   <type>route</type>
  </address_component>
  <address_component>
   <long_name>Durham</long_name>
   <short_name>Durham</short_name>
   <type>locality</type>
   <type>political</type>
  </address_component>
  <address_component>
   <long_name>Durham</long_name>
   <short_name>Durham</short_name>
   <type>postal_town</type>
  </address_component>
  <address_component>
   <long_name>County Durham</long_name>
   <short_name>County Durham</short_name>
   <type>administrative_area_level_2</type>
   <type>political</type>
  </address_component>
  <address_component>
   <long_name>United Kingdom</long_name>
   <short_name>GB</short_name>
   <type>country</type>
   <type>political</type>
  </address_component>
  <address_component>
   <long_name>DH1 2DL</long_name>
   <short_name>DH1 2DL</short_name>
   <type>postal_code</type>
  </address_component>
  <geometry>
   <location>
    <lat>54.7831132</lat>
    <lng>-1.5241328</lng>
   </location>
   <location_type>GEOMETRIC_CENTER</location_type>
   <viewport>
    <southwest>
     <lat>54.7817216</lat>
     <lng>-1.5254695</lng>
    </southwest>
    <northeast>
     <lat>54.7844196</lat>
     <lng>-1.5227716</lng>
    </northeast>
   </viewport>
   <bounds>
    <southwest>
     <lat>54.7828235</lat>
     <lng>-1.5244003</lng>
    </southwest>
    <northeast>
     <lat>54.7833177</lat>
     <lng>-1.5238408</lng>
    </northeast>
   </bounds>
  </geometry>
  <partial_match>true</partial_match>
  <place_id>ChIJSy5esl19fkgRsWAT57YFeiM</place_id>
 </result>
 <result>
  <type>route</type>
  <formatted_address>Huntingdonshire Cl, Wokingham, Wokingham RG41 3BB, UK</formatted_address>
  <address_component>
   <long_name>Huntingdonshire Close</long_name>
   <short_name>Huntingdonshire Cl</short_name>
   <type>route</type>
  </address_component>
  <address_component>
   <long_name>Wokingham</long_name>
   <short_name>Wokingham</short_name>
   <type>locality</type>
   <type>political</type>
  </address_component>
  <address_component>
   <long_name>Wokingham</long_name>
   <short_name>Wokingham</short_name>
   <type>postal_town</type>
  </address_component>
  <address_component>
   <long_name>Wokingham</long_name>
   <short_name>Wokingham</short_name>
   <type>administrative_area_level_2</type>
   <type>political</type>
  </address_component>
  <address_component>
   <long_name>United Kingdom</long_name>
   <short_name>GB</short_name>
   <type>country</type>
   <type>political</type>
  </address_component>
  <address_component>
   <long_name>RG41 3BB</long_name>
   <short_name>RG41 3BB</short_name>
   <type>postal_code</type>
  </address_component>
  <geometry>
   <location>
    <lat>51.4116455</lat>
    <lng>-0.8656061</lng>
   </location>
   <location_type>GEOMETRIC_CENTER</location_type>
   <viewport>
    <southwest>
     <lat>51.4104291</lat>
     <lng>-0.8668841</lng>
    </southwest>
    <northeast>
     <lat>51.4131270</lat>
     <lng>-0.8641861</lng>
    </northeast>
   </viewport>
   <bounds>
    <southwest>
     <lat>51.4115572</lat>
     <lng>-0.8656339</lng>
    </southwest>
    <northeast>
     <lat>51.4119989</lat>
     <lng>-0.8654363</lng>
    </northeast>
   </bounds>
  </geometry>
  <partial_match>true</partial_match>
  <place_id>ChIJCU2TS-mDdkgRkzyshnAStUM</place_id>
 </result>
 <result>
  <type>locality</type>
  <type>political</type>
  <formatted_address>Huntingdon, Huntingdon, Cambridgeshire, UK</formatted_address>
  <address_component>
   <long_name>Huntingdon</long_name>
   <short_name>Huntingdon</short_name>
   <type>locality</type>
   <type>political</type>
  </address_component>
  <address_component>
   <long_name>Huntingdon</long_name>
   <short_name>Huntingdon</short_name>
   <type>postal_town</type>
  </address_component>
  <address_component>
   <long_name>Huntingdon</long_name>
   <short_name>Huntingdon</short_name>
   <type>administrative_area_level_4</type>
   <type>political</type>
  </address_component>
  <address_component>
   <long_name>Huntingdonshire District</long_name>
   <short_name>Huntingdonshire District</short_name>
   <type>administrative_area_level_3</type>
   <type>political</type>
  </address_component>
  <address_component>
   <long_name>Cambridgeshire</long_name>
   <short_name>Cambridgeshire</short_name>
   <type>administrative_area_level_2</type>
   <type>political</type>
  </address_component>
  <address_component>
   <long_name>England</long_name>
   <short_name>England</short_name>
   <type>administrative_area_level_1</type>
   <type>political</type>
  </address_component>
  <address_component>
   <long_name>United Kingdom</long_name>
   <short_name>GB</short_name>
   <type>country</type>
   <type>political</type>
  </address_component>
  <geometry>
   <location>
    <lat>52.3314600</lat>
    <lng>-0.1825520</lng>
   </location>
   <location_type>APPROXIMATE</location_type>
   <viewport>
    <southwest>
     <lat>52.3246435</lat>
     <lng>-0.2168027</lng>
    </southwest>
    <northeast>
     <lat>52.3575263</lat>
     <lng>-0.1641905</lng>
    </northeast>
   </viewport>
   <bounds>
    <southwest>
     <lat>52.3246435</lat>
     <lng>-0.2168027</lng>
    </southwest>
    <northeast>
     <lat>52.3575263</lat>
     <lng>-0.1641905</lng>
    </northeast>
   </bounds>
  </geometry>
  <partial_match>true</partial_match>
  <place_id>ChIJQaigHdkJ2EcR0a0u1aziyQg</place_id>
 </result>
 <result>
  <type>route</type>
  <formatted_address>Huntingdon Rd, Cambridge, Cambridgeshire CB23, UK</formatted_address>
  <address_component>
   <long_name>Huntingdon Road</long_name>
   <short_name>Huntingdon Rd</short_name>
   <type>route</type>
  </address_component>
  <address_component>
   <long_name>Cambridge</long_name>
   <short_name>Cambridge</short_name>
   <type>postal_town</type>
  </address_component>
  <address_component>
   <long_name>Cambridgeshire</long_name>
   <short_name>Cambridgeshire</short_name>
   <type>administrative_area_level_2</type>
   <type>political</type>
  </address_component>
  <address_component>
   <long_name>United Kingdom</long_name>
   <short_name>GB</short_name>
   <type>country</type>
   <type>political</type>
  </address_component>
  <address_component>
   <long_name>CB23</long_name>
   <short_name>CB23</short_name>
   <type>postal_code</type>
   <type>postal_code_prefix</type>
  </address_component>
  <geometry>
   <location>
    <lat>52.2618840</lat>
    <lng>0.0131218</lng>
   </location>
   <location_type>GEOMETRIC_CENTER</location_type>
   <viewport>
    <southwest>
     <lat>52.2139333</lat>
     <lng>-0.0896037</lng>
    </southwest>
    <northeast>
     <lat>52.3033220</lat>
     <lng>0.1106936</lng>
    </northeast>
   </viewport>
   <bounds>
    <southwest>
     <lat>52.2139333</lat>
     <lng>-0.0896037</lng>
    </southwest>
    <northeast>
     <lat>52.3033220</lat>
     <lng>0.1106936</lng>
    </northeast>
   </bounds>
  </geometry>
  <partial_match>true</partial_match>
  <place_id>ChIJ8zdVvxl22EcRMSYyJCCwZ2Y</place_id>
 </result>
 <result>
  <type>route</type>
  <formatted_address>Huntingdon St, Nottingham, Nottingham, Nottinghamshire, UK</formatted_address>
  <address_component>
   <long_name>Huntingdon Street</long_name>
   <short_name>Huntingdon St</short_name>
   <type>route</type>
  </address_component>
  <address_component>
   <long_name>Nottingham</long_name>
   <short_name>Nottingham</short_name>
   <type>locality</type>
   <type>political</type>
  </address_component>
  <address_component>
   <long_name>Nottingham</long_name>
   <short_name>Nottingham</short_name>
   <type>postal_town</type>
  </address_component>
  <address_component>
   <long_name>Nottinghamshire</long_name>
   <short_name>Nottinghamshire</short_name>
   <type>administrative_area_level_2</type>
   <type>political</type>
  </address_component>
  <address_component>
   <long_name>United Kingdom</long_name>
   <short_name>GB</short_name>
   <type>country</type>
   <type>political</type>
  </address_component>
  <geometry>
   <location>
    <lat>52.9586319</lat>
    <lng>-1.1463725</lng>
   </location>
   <location_type>GEOMETRIC_CENTER</location_type>
   <viewport>
    <southwest>
     <lat>52.9540972</lat>
     <lng>-1.1517335</lng>
    </southwest>
    <northeast>
     <lat>52.9633956</lat>
     <lng>-1.1400399</lng>
    </northeast>
   </viewport>
   <bounds>
    <southwest>
     <lat>52.9540972</lat>
     <lng>-1.1517335</lng>
    </southwest>
    <northeast>
     <lat>52.9633956</lat>
     <lng>-1.1400399</lng>
    </northeast>
   </bounds>
  </geometry>
  <partial_match>true</partial_match>
  <place_id>ChIJ4TB83H7BeUgRyhHJIBVfIWo</place_id>
 </result>
 <result>
  <type>route</type>
  <formatted_address>Huntingdon Rd, Huntingdon, Cambridgeshire, UK</formatted_address>
  <address_component>
   <long_name>Huntingdon Road</long_name>
   <short_name>Huntingdon Rd</short_name>
   <type>route</type>
  </address_component>
  <address_component>
   <long_name>Huntingdon</long_name>
   <short_name>Huntingdon</short_name>
   <type>postal_town</type>
  </address_component>
  <address_component>
   <long_name>Cambridgeshire</long_name>
   <short_name>Cambridgeshire</short_name>
   <type>administrative_area_level_2</type>
   <type>political</type>
  </address_component>
  <address_component>
   <long_name>United Kingdom</long_name>
   <short_name>GB</short_name>
   <type>country</type>
   <type>political</type>
  </address_component>
  <geometry>
   <location>
    <lat>52.3408924</lat>
    <lng>-0.1507538</lng>
   </location>
   <location_type>GEOMETRIC_CENTER</location_type>
   <viewport>
    <southwest>
     <lat>52.3329221</lat>
     <lng>-0.1823969</lng>
    </southwest>
    <northeast>
     <lat>52.3534147</lat>
     <lng>-0.1204698</lng>
    </northeast>
   </viewport>
   <bounds>
    <southwest>
     <lat>52.3329221</lat>
     <lng>-0.1823969</lng>
    </southwest>
    <northeast>
     <lat>52.3534147</lat>
     <lng>-0.1204698</lng>
    </northeast>
   </bounds>
  </geometry>
  <partial_match>true</partial_match>
  <place_id>ChIJx4-wh3Pdd0gRoG0DIwb6ZN8</place_id>
 </result>
 <result>
  <type>route</type>
  <formatted_address>Huntingdon Rd, Saint Neots, Cambridgeshire PE19, UK</formatted_address>
  <address_component>
   <long_name>Huntingdon Road</long_name>
   <short_name>Huntingdon Rd</short_name>
   <type>route</type>
  </address_component>
  <address_component>
   <long_name>Saint Neots</long_name>
   <short_name>Saint Neots</short_name>
   <type>postal_town</type>
  </address_component>
  <address_component>
   <long_name>Cambridgeshire</long_name>
   <short_name>Cambridgeshire</short_name>
   <type>administrative_area_level_2</type>
   <type>political</type>
  </address_component>
  <address_component>
   <long_name>United Kingdom</long_name>
   <short_name>GB</short_name>
   <type>country</type>
   <type>political</type>
  </address_component>
  <address_component>
   <long_name>PE19</long_name>
   <short_name>PE19</short_name>
   <type>postal_code</type>
   <type>postal_code_prefix</type>
  </address_component>
  <geometry>
   <location>
    <lat>52.2391757</lat>
    <lng>-0.2563178</lng>
   </location>
   <location_type>GEOMETRIC_CENTER</location_type>
   <viewport>
    <southwest>
     <lat>52.2292547</lat>
     <lng>-0.2659131</lng>
    </southwest>
    <northeast>
     <lat>52.2462751</lat>
     <lng>-0.2405588</lng>
    </northeast>
   </viewport>
   <bounds>
    <southwest>
     <lat>52.2292547</lat>
     <lng>-0.2659131</lng>
    </southwest>
    <northeast>
     <lat>52.2462751</lat>
     <lng>-0.2405588</lng>
    </northeast>
   </bounds>
  </geometry>
  <partial_match>true</partial_match>
  <place_id>ChIJgQ5R7VHEd0gRtY2tIUMjWsY</place_id>
 </result>
 <result>
  <type>route</type>
  <formatted_address>Huntingdon Rd, Thrapston, Kettering, Northamptonshire NN14 4NG, UK</formatted_address>
  <address_component>
   <long_name>Huntingdon Road</long_name>
   <short_name>Huntingdon Rd</short_name>
   <type>route</type>
  </address_component>
  <address_component>
   <long_name>Thrapston</long_name>
   <short_name>Thrapston</short_name>
   <type>locality</type>
   <type>political</type>
  </address_component>
  <address_component>
   <long_name>Kettering</long_name>
   <short_name>Kettering</short_name>
   <type>postal_town</type>
  </address_component>
  <address_component>
   <long_name>Northamptonshire</long_name>
   <short_name>Northamptonshire</short_name>
   <type>administrative_area_level_2</type>
   <type>political</type>
  </address_component>
  <address_component>
   <long_name>United Kingdom</long_name>
   <short_name>GB</short_name>
   <type>country</type>
   <type>political</type>
  </address_component>
  <address_component>
   <long_name>NN14 4NG</long_name>
   <short_name>NN14 4NG</short_name>
   <type>postal_code</type>
  </address_component>
  <geometry>
   <location>
    <lat>52.3946441</lat>
    <lng>-0.5249199</lng>
   </location>
   <location_type>GEOMETRIC_CENTER</location_type>
   <viewport>
    <southwest>
     <lat>52.3925819</lat>
     <lng>-0.5356592</lng>
    </southwest>
    <northeast>
     <lat>52.3965739</lat>
     <lng>-0.5142951</lng>
    </northeast>
   </viewport>
   <bounds>
    <southwest>
     <lat>52.3925819</lat>
     <lng>-0.5356592</lng>
    </southwest>
    <northeast>
     <lat>52.3965739</lat>
     <lng>-0.5142951</lng>
    </northeast>
   </bounds>
  </geometry>
  <partial_match>true</partial_match>
  <place_id>ChIJY1lIXlCWd0gR1nZKNmI6xBI</place_id>
 </result>
 <result>
  <type>route</type>
  <formatted_address>Huntingdon Ct, Melbourne, Derby, Derbyshire DE73, UK</formatted_address>
  <address_component>
   <long_name>Huntingdon Court</long_name>
   <short_name>Huntingdon Ct</short_name>
   <type>route</type>
  </address_component>
  <address_component>
   <long_name>Melbourne</long_name>
   <short_name>Melbourne</short_name>
   <type>locality</type>
   <type>political</type>
  </address_component>
  <address_component>
   <long_name>Derby</long_name>
   <short_name>Derby</short_name>
   <type>postal_town</type>
  </address_component>
  <address_component>
   <long_name>Derbyshire</long_name>
   <short_name>Derbyshire</short_name>
   <type>administrative_area_level_2</type>
   <type>political</type>
  </address_component>
  <address_component>
   <long_name>United Kingdom</long_name>
   <short_name>GB</short_name>
   <type>country</type>
   <type>political</type>
  </address_component>
  <address_component>
   <long_name>DE73</long_name>
   <short_name>DE73</short_name>
   <type>postal_code</type>
   <type>postal_code_prefix</type>
  </address_component>
  <geometry>
   <location>
    <lat>52.8277115</lat>
    <lng>-1.4233633</lng>
   </location>
   <location_type>GEOMETRIC_CENTER</location_type>
   <viewport>
    <southwest>
     <lat>52.8263600</lat>
     <lng>-1.4247457</lng>
    </southwest>
    <northeast>
     <lat>52.8290579</lat>
     <lng>-1.4220477</lng>
    </northeast>
   </viewport>
   <bounds>
    <southwest>
     <lat>52.8273110</lat>
     <lng>-1.4244548</lng>
    </southwest>
    <northeast>
     <lat>52.8281069</lat>
     <lng>-1.4223386</lng>
    </northeast>
   </bounds>
  </geometry>
  <partial_match>true</partial_match>
  <place_id>ChIJX3KZyeD6eUgR1z2C77Y0Nxo</place_id>
 </result>
 <result>
  <type>administrative_area_level_3</type>
  <type>political</type>
  <formatted_address>Huntingdonshire District, Cambridgeshire, UK</formatted_address>
  <address_component>
   <long_name>Huntingdonshire District</long_name>
   <short_name>Huntingdonshire District</short_name>
   <type>administrative_area_level_3</type>
   <type>political</type>
  </address_component>
  <address_component>
   <long_name>Cambridgeshire</long_name>
   <short_name>Cambridgeshire</short_name>
   <type>administrative_area_level_2</type>
   <type>political</type>
  </address_component>
  <address_component>
   <long_name>England</long_name>
   <short_name>England</short_name>
   <type>administrative_area_level_1</type>
   <type>political</type>
  </address_component>
  <address_component>
   <long_name>United Kingdom</long_name>
   <short_name>GB</short_name>
   <type>country</type>
   <type>political</type>
  </address_component>
  <geometry>
   <location>
    <lat>52.4036809</lat>
    <lng>-0.2428121</lng>
   </location>
   <location_type>APPROXIMATE</location_type>
   <viewport>
    <southwest>
     <lat>52.1587237</lat>
     <lng>-0.4999074</lng>
    </southwest>
    <northeast>
     <lat>52.5832776</lat>
     <lng>0.0514607</lng>
    </northeast>
   </viewport>
   <bounds>
    <southwest>
     <lat>52.1587237</lat>
     <lng>-0.4999074</lng>
    </southwest>
    <northeast>
     <lat>52.5832776</lat>
     <lng>0.0514607</lng>
    </northeast>
   </bounds>
  </geometry>
  <partial_match>true</partial_match>
  <place_id>ChIJRetcqCTod0gRYOPBu6gcDgQ</place_id>
 </result>
</GeocodeResponse>
