<?xml version="1.0" encoding="UTF-8"?>
<GeocodeResponse>
 <status>OK</status>
 <result>
  <type>administrative_area_level_2</type>
  <type>political</type>
  <formatted_address>Central Bedfordshire, UK</formatted_address>
  <address_component>
   <long_name>Central Bedfordshire</long_name>
   <short_name>Central Bedfordshire</short_name>
   <type>administrative_area_level_2</type>
   <type>political</type>
  </address_component>
  <address_component>
   <long_name>England</long_name>
   <short_name>England</short_name>
   <type>administrative_area_level_1</type>
   <type>political</type>
  </address_component>
  <address_component>
   <long_name>United Kingdom</long_name>
   <short_name>GB</short_name>
   <type>country</type>
   <type>political</type>
  </address_component>
  <geometry>
   <location>
    <lat>52.0029744</lat>
    <lng>-0.4651389</lng>
   </location>
   <location_type>APPROXIMATE</location_type>
   <viewport>
    <southwest>
     <lat>51.8050873</lat>
     <lng>-0.7021812</lng>
    </southwest>
    <northeast>
     <lat>52.1909130</lat>
     <lng>-0.1439574</lng>
    </northeast>
   </viewport>
   <bounds>
    <southwest>
     <lat>51.8050873</lat>
     <lng>-0.7021812</lng>
    </southwest>
    <northeast>
     <lat>52.1909130</lat>
     <lng>-0.1439574</lng>
    </northeast>
   </bounds>
  </geometry>
  <partial_match>true</partial_match>
  <place_id>ChIJtzQxDOdKdkgRMKjDu6gcDgM</place_id>
 </result>
 <result>
  <type>political</type>
  <formatted_address>Mid Bedfordshire, Shefford, Central Bedfordshire SG17, UK</formatted_address>
  <address_component>
   <long_name>Mid Bedfordshire</long_name>
   <short_name>Mid Bedfordshire</short_name>
   <type>political</type>
  </address_component>
  <address_component>
   <long_name>Shefford</long_name>
   <short_name>Shefford</short_name>
   <type>postal_town</type>
  </address_component>
  <address_component>
   <long_name>Central Bedfordshire</long_name>
   <short_name>Central Bedfordshire</short_name>
   <type>administrative_area_level_2</type>
   <type>political</type>
  </address_component>
  <address_component>
   <long_name>United Kingdom</long_name>
   <short_name>GB</short_name>
   <type>country</type>
   <type>political</type>
  </address_component>
  <address_component>
   <long_name>SG17</long_name>
   <short_name>SG17</short_name>
   <type>postal_code</type>
   <type>postal_code_prefix</type>
  </address_component>
  <geometry>
   <location>
    <lat>52.0270000</lat>
    <lng>-0.3830000</lng>
   </location>
   <location_type>APPROXIMATE</location_type>
   <viewport>
    <southwest>
     <lat>52.0256510</lat>
     <lng>-0.3843490</lng>
    </southwest>
    <northeast>
     <lat>52.0283490</lat>
     <lng>-0.3816510</lng>
    </northeast>
   </viewport>
  </geometry>
  <place_id>ChIJy7OQ76nKd0gRIAl2BzrTgXE</place_id>
 </result>
 <result>
  <type>route</type>
  <formatted_address>Bedfordshire, Newport Pagnell, Milton Keynes MK16 0FJ, UK</formatted_address>
  <address_component>
   <long_name>Bedfordshire</long_name>
   <short_name>Bedfordshire</short_name>
   <type>route</type>
  </address_component>
  <address_component>
   <long_name>Newport Pagnell</long_name>
   <short_name>Newport Pagnell</short_name>
   <type>postal_town</type>
  </address_component>
  <address_component>
   <long_name>Milton Keynes</long_name>
   <short_name>Milton Keynes</short_name>
   <type>administrative_area_level_2</type>
   <type>political</type>
  </address_component>
  <address_component>
   <long_name>United Kingdom</long_name>
   <short_name>GB</short_name>
   <type>country</type>
   <type>political</type>
  </address_component>
  <address_component>
   <long_name>MK16 0FJ</long_name>
   <short_name>MK16 0FJ</short_name>
   <type>postal_code</type>
  </address_component>
  <geometry>
   <location>
    <lat>52.0765833</lat>
    <lng>-0.6480583</lng>
   </location>
   <location_type>GEOMETRIC_CENTER</location_type>
   <viewport>
    <southwest>
     <lat>52.0736124</lat>
     <lng>-0.6520382</lng>
    </southwest>
    <northeast>
     <lat>52.0827204</lat>
     <lng>-0.6381003</lng>
    </northeast>
   </viewport>
   <bounds>
    <southwest>
     <lat>52.0736124</lat>
     <lng>-0.6520382</lng>
    </southwest>
    <northeast>
     <lat>52.0827204</lat>
     <lng>-0.6381003</lng>
    </northeast>
   </bounds>
  </geometry>
  <partial_match>true</partial_match>
  <place_id>ChIJpVBBVkGsd0gR3EpablX0xRw</place_id>
 </result>
 <result>
  <type>route</type>
  <formatted_address>Central Ave, Shortstown, Bedford, Bedford MK42 0TS, UK</formatted_address>
  <address_component>
   <long_name>Central Avenue</long_name>
   <short_name>Central Ave</short_name>
   <type>route</type>
  </address_component>
  <address_component>
   <long_name>Shortstown</long_name>
   <short_name>Shortstown</short_name>
   <type>locality</type>
   <type>political</type>
  </address_component>
  <address_component>
   <long_name>Bedford</long_name>
   <short_name>Bedford</short_name>
   <type>postal_town</type>
  </address_component>
  <address_component>
   <long_name>Bedford</long_name>
   <short_name>Bedford</short_name>
   <type>administrative_area_level_2</type>
   <type>political</type>
  </address_component>
  <address_component>
   <long_name>United Kingdom</long_name>
   <short_name>GB</short_name>
   <type>country</type>
   <type>political</type>
  </address_component>
  <address_component>
   <long_name>MK42 0TS</long_name>
   <short_name>MK42 0TS</short_name>
   <type>postal_code</type>
  </address_component>
  <geometry>
   <location>
    <lat>52.1105598</lat>
    <lng>-0.4342904</lng>
   </location>
   <location_type>GEOMETRIC_CENTER</location_type>
   <viewport>
    <southwest>
     <lat>52.1091854</lat>
     <lng>-0.4355614</lng>
    </southwest>
    <northeast>
     <lat>52.1118834</lat>
     <lng>-0.4328635</lng>
    </northeast>
   </viewport>
   <bounds>
    <southwest>
     <lat>52.1101794</lat>
     <lng>-0.4352486</lng>
    </southwest>
    <northeast>
     <lat>52.1108894</lat>
     <lng>-0.4331763</lng>
    </northeast>
   </bounds>
  </geometry>
  <partial_match>true</partial_match>
  <place_id>ChIJ-WgvsoC2d0gRSSulrLh5QcA</place_id>
 </result>
</GeocodeResponse>
