<?xml version="1.0" encoding="UTF-8"?>
<GeocodeResponse>
 <status>OK</status>
 <result>
  <type>premise</type>
  <formatted_address>Babergh House, 4 Gt.Cornard, Sudbury, Suffolk CO10 2XA, UK</formatted_address>
  <address_component>
   <long_name>Babergh House</long_name>
   <short_name>Babergh House</short_name>
   <type>premise</type>
  </address_component>
  <address_component>
   <long_name>4</long_name>
   <short_name>4</short_name>
   <type>street_number</type>
  </address_component>
  <address_component>
   <long_name>Gt.Cornard</long_name>
   <short_name>Gt.Cornard</short_name>
   <type>route</type>
  </address_component>
  <address_component>
   <long_name>Sudbury</long_name>
   <short_name>Sudbury</short_name>
   <type>locality</type>
   <type>political</type>
  </address_component>
  <address_component>
   <long_name>Sudbury</long_name>
   <short_name>Sudbury</short_name>
   <type>postal_town</type>
  </address_component>
  <address_component>
   <long_name>Suffolk</long_name>
   <short_name>Suffolk</short_name>
   <type>administrative_area_level_2</type>
   <type>political</type>
  </address_component>
  <address_component>
   <long_name>United Kingdom</long_name>
   <short_name>GB</short_name>
   <type>country</type>
   <type>political</type>
  </address_component>
  <address_component>
   <long_name>CO10 2XA</long_name>
   <short_name>CO10 2XA</short_name>
   <type>postal_code</type>
  </address_component>
  <geometry>
   <location>
    <lat>52.0379043</lat>
    <lng>0.7335269</lng>
   </location>
   <location_type>ROOFTOP</location_type>
   <viewport>
    <southwest>
     <lat>52.0365553</lat>
     <lng>0.7321779</lng>
    </southwest>
    <northeast>
     <lat>52.0392533</lat>
     <lng>0.7348759</lng>
    </northeast>
   </viewport>
  </geometry>
  <partial_match>true</partial_match>
  <place_id>ChIJrZFriXJV2EcR_nX1WtdOJS4</place_id>
 </result>
 <result>
  <type>route</type>
  <formatted_address>Babergh Cl, Acton, Sudbury, Suffolk CO10 0UJ, UK</formatted_address>
  <address_component>
   <long_name>Babergh Close</long_name>
   <short_name>Babergh Cl</short_name>
   <type>route</type>
  </address_component>
  <address_component>
   <long_name>Acton</long_name>
   <short_name>Acton</short_name>
   <type>locality</type>
   <type>political</type>
  </address_component>
  <address_component>
   <long_name>Sudbury</long_name>
   <short_name>Sudbury</short_name>
   <type>postal_town</type>
  </address_component>
  <address_component>
   <long_name>Suffolk</long_name>
   <short_name>Suffolk</short_name>
   <type>administrative_area_level_2</type>
   <type>political</type>
  </address_component>
  <address_component>
   <long_name>United Kingdom</long_name>
   <short_name>GB</short_name>
   <type>country</type>
   <type>political</type>
  </address_component>
  <address_component>
   <long_name>CO10 0UJ</long_name>
   <short_name>CO10 0UJ</short_name>
   <type>postal_code</type>
  </address_component>
  <geometry>
   <location>
    <lat>52.0667306</lat>
    <lng>0.7667660</lng>
   </location>
   <location_type>GEOMETRIC_CENTER</location_type>
   <viewport>
    <southwest>
     <lat>52.0654631</lat>
     <lng>0.7653104</lng>
    </southwest>
    <northeast>
     <lat>52.0681611</lat>
     <lng>0.7680083</lng>
    </northeast>
   </viewport>
   <bounds>
    <southwest>
     <lat>52.0665555</lat>
     <lng>0.7657830</lng>
    </southwest>
    <northeast>
     <lat>52.0670687</lat>
     <lng>0.7675357</lng>
    </northeast>
   </bounds>
  </geometry>
  <partial_match>true</partial_match>
  <place_id>ChIJ45AK9tNU2EcRUzulvvI8gWc</place_id>
 </result>
 <result>
  <type>premise</type>
  <formatted_address>Babergh Hall, Acton Rd, Great Waldingfield, Sudbury, Suffolk CO10 0GJ, UK</formatted_address>
  <address_component>
   <long_name>Babergh Hall</long_name>
   <short_name>Babergh Hall</short_name>
   <type>premise</type>
  </address_component>
  <address_component>
   <long_name>Acton Road</long_name>
   <short_name>Acton Rd</short_name>
   <type>route</type>
  </address_component>
  <address_component>
   <long_name>Great Waldingfield</long_name>
   <short_name>Great Waldingfield</short_name>
   <type>locality</type>
   <type>political</type>
  </address_component>
  <address_component>
   <long_name>Sudbury</long_name>
   <short_name>Sudbury</short_name>
   <type>postal_town</type>
  </address_component>
  <address_component>
   <long_name>Suffolk</long_name>
   <short_name>Suffolk</short_name>
   <type>administrative_area_level_2</type>
   <type>political</type>
  </address_component>
  <address_component>
   <long_name>United Kingdom</long_name>
   <short_name>GB</short_name>
   <type>country</type>
   <type>political</type>
  </address_component>
  <address_component>
   <long_name>CO10 0GJ</long_name>
   <short_name>CO10 0GJ</short_name>
   <type>postal_code</type>
  </address_component>
  <geometry>
   <location>
    <lat>52.0661508</lat>
    <lng>0.7750776</lng>
   </location>
   <location_type>ROOFTOP</location_type>
   <viewport>
    <southwest>
     <lat>52.0648018</lat>
     <lng>0.7737286</lng>
    </southwest>
    <northeast>
     <lat>52.0674998</lat>
     <lng>0.7764266</lng>
    </northeast>
   </viewport>
  </geometry>
  <partial_match>true</partial_match>
  <place_id>ChIJ3Ttygyur2UcRpOS1qd0uwFY</place_id>
 </result>
</GeocodeResponse>
