<?xml version="1.0" encoding="UTF-8"?>
<GeocodeResponse>
 <status>OK</status>
 <result>
  <type>administrative_area_level_3</type>
  <type>political</type>
  <formatted_address>North Kesteven District, Lincolnshire, UK</formatted_address>
  <address_component>
   <long_name>North Kesteven District</long_name>
   <short_name>North Kesteven District</short_name>
   <type>administrative_area_level_3</type>
   <type>political</type>
  </address_component>
  <address_component>
   <long_name>Lincolnshire</long_name>
   <short_name>Lincolnshire</short_name>
   <type>administrative_area_level_2</type>
   <type>political</type>
  </address_component>
  <address_component>
   <long_name>England</long_name>
   <short_name>England</short_name>
   <type>administrative_area_level_1</type>
   <type>political</type>
  </address_component>
  <address_component>
   <long_name>United Kingdom</long_name>
   <short_name>GB</short_name>
   <type>country</type>
   <type>political</type>
  </address_component>
  <geometry>
   <location>
    <lat>53.0880498</lat>
    <lng>-0.4489082</lng>
   </location>
   <location_type>APPROXIMATE</location_type>
   <viewport>
    <southwest>
     <lat>52.8869746</lat>
     <lng>-0.7641436</lng>
    </southwest>
    <northeast>
     <lat>53.2581090</lat>
     <lng>-0.1898970</lng>
    </northeast>
   </viewport>
   <bounds>
    <southwest>
     <lat>52.8869746</lat>
     <lng>-0.7641436</lng>
    </southwest>
    <northeast>
     <lat>53.2581090</lat>
     <lng>-0.1898970</lng>
    </northeast>
   </bounds>
  </geometry>
  <partial_match>true</partial_match>
  <place_id>ChIJk15rzcNAeEgRgOLBu6gcDgQ</place_id>
 </result>
 <result>
  <type>route</type>
  <formatted_address>North Rd, Bourne, Lincolnshire PE10 9AP, UK</formatted_address>
  <address_component>
   <long_name>North Road</long_name>
   <short_name>North Rd</short_name>
   <type>route</type>
  </address_component>
  <address_component>
   <long_name>Bourne</long_name>
   <short_name>Bourne</short_name>
   <type>postal_town</type>
  </address_component>
  <address_component>
   <long_name>Lincolnshire</long_name>
   <short_name>Lincolnshire</short_name>
   <type>administrative_area_level_2</type>
   <type>political</type>
  </address_component>
  <address_component>
   <long_name>United Kingdom</long_name>
   <short_name>GB</short_name>
   <type>country</type>
   <type>political</type>
  </address_component>
  <address_component>
   <long_name>PE10 9AP</long_name>
   <short_name>PE10 9AP</short_name>
   <type>postal_code</type>
  </address_component>
  <geometry>
   <location>
    <lat>52.7792267</lat>
    <lng>-0.3765026</lng>
   </location>
   <location_type>GEOMETRIC_CENTER</location_type>
   <viewport>
    <southwest>
     <lat>52.7716559</lat>
     <lng>-0.3853264</lng>
    </southwest>
    <northeast>
     <lat>52.7854394</lat>
     <lng>-0.3760980</lng>
    </northeast>
   </viewport>
   <bounds>
    <southwest>
     <lat>52.7716559</lat>
     <lng>-0.3853264</lng>
    </southwest>
    <northeast>
     <lat>52.7854394</lat>
     <lng>-0.3760980</lng>
    </northeast>
   </bounds>
  </geometry>
  <partial_match>true</partial_match>
  <place_id>ChIJA8S6wU8feEgRk2n4w-I46nI</place_id>
 </result>
 <result>
  <type>route</type>
  <formatted_address>North St, Bourne, Lincolnshire PE10 9AE, UK</formatted_address>
  <address_component>
   <long_name>North Street</long_name>
   <short_name>North St</short_name>
   <type>route</type>
  </address_component>
  <address_component>
   <long_name>Bourne</long_name>
   <short_name>Bourne</short_name>
   <type>locality</type>
   <type>political</type>
  </address_component>
  <address_component>
   <long_name>Bourne</long_name>
   <short_name>Bourne</short_name>
   <type>postal_town</type>
  </address_component>
  <address_component>
   <long_name>Lincolnshire</long_name>
   <short_name>Lincolnshire</short_name>
   <type>administrative_area_level_2</type>
   <type>political</type>
  </address_component>
  <address_component>
   <long_name>United Kingdom</long_name>
   <short_name>GB</short_name>
   <type>country</type>
   <type>political</type>
  </address_component>
  <address_component>
   <long_name>PE10 9AE</long_name>
   <short_name>PE10 9AE</short_name>
   <type>postal_code</type>
  </address_component>
  <geometry>
   <location>
    <lat>52.7698863</lat>
    <lng>-0.3769870</lng>
   </location>
   <location_type>GEOMETRIC_CENTER</location_type>
   <viewport>
    <southwest>
     <lat>52.7680911</lat>
     <lng>-0.3787936</lng>
    </southwest>
    <northeast>
     <lat>52.7715595</lat>
     <lng>-0.3760957</lng>
    </northeast>
   </viewport>
   <bounds>
    <southwest>
     <lat>52.7680911</lat>
     <lng>-0.3783910</lng>
    </southwest>
    <northeast>
     <lat>52.7715595</lat>
     <lng>-0.3764983</lng>
    </northeast>
   </bounds>
  </geometry>
  <partial_match>true</partial_match>
  <place_id>ChIJ01VNxkMfeEgRkGywdu5OT6c</place_id>
 </result>
 <result>
  <type>route</type>
  <formatted_address>North St, Stamford, Lincolnshire PE9, UK</formatted_address>
  <address_component>
   <long_name>North Street</long_name>
   <short_name>North St</short_name>
   <type>route</type>
  </address_component>
  <address_component>
   <long_name>Stamford</long_name>
   <short_name>Stamford</short_name>
   <type>locality</type>
   <type>political</type>
  </address_component>
  <address_component>
   <long_name>Stamford</long_name>
   <short_name>Stamford</short_name>
   <type>postal_town</type>
  </address_component>
  <address_component>
   <long_name>Lincolnshire</long_name>
   <short_name>Lincolnshire</short_name>
   <type>administrative_area_level_2</type>
   <type>political</type>
  </address_component>
  <address_component>
   <long_name>United Kingdom</long_name>
   <short_name>GB</short_name>
   <type>country</type>
   <type>political</type>
  </address_component>
  <address_component>
   <long_name>PE9</long_name>
   <short_name>PE9</short_name>
   <type>postal_code</type>
   <type>postal_code_prefix</type>
  </address_component>
  <geometry>
   <location>
    <lat>52.6537446</lat>
    <lng>-0.4806652</lng>
   </location>
   <location_type>GEOMETRIC_CENTER</location_type>
   <viewport>
    <southwest>
     <lat>52.6521910</lat>
     <lng>-0.4839211</lng>
    </southwest>
    <northeast>
     <lat>52.6548889</lat>
     <lng>-0.4775792</lng>
    </northeast>
   </viewport>
   <bounds>
    <southwest>
     <lat>52.6528421</lat>
     <lng>-0.4839211</lng>
    </southwest>
    <northeast>
     <lat>52.6542378</lat>
     <lng>-0.4775792</lng>
    </northeast>
   </bounds>
  </geometry>
  <partial_match>true</partial_match>
  <place_id>ChIJSZPMi9GLd0gRynVjGoXbHVM</place_id>
 </result>
 <result>
  <type>route</type>
  <formatted_address>North St, Grantham, Lincolnshire NG31 6NU, UK</formatted_address>
  <address_component>
   <long_name>North Street</long_name>
   <short_name>North St</short_name>
   <type>route</type>
  </address_component>
  <address_component>
   <long_name>Grantham</long_name>
   <short_name>Grantham</short_name>
   <type>locality</type>
   <type>political</type>
  </address_component>
  <address_component>
   <long_name>Grantham</long_name>
   <short_name>Grantham</short_name>
   <type>postal_town</type>
  </address_component>
  <address_component>
   <long_name>Lincolnshire</long_name>
   <short_name>Lincolnshire</short_name>
   <type>administrative_area_level_2</type>
   <type>political</type>
  </address_component>
  <address_component>
   <long_name>United Kingdom</long_name>
   <short_name>GB</short_name>
   <type>country</type>
   <type>political</type>
  </address_component>
  <address_component>
   <long_name>NG31 6NU</long_name>
   <short_name>NG31 6NU</short_name>
   <type>postal_code</type>
  </address_component>
  <geometry>
   <location>
    <lat>52.9153196</lat>
    <lng>-0.6446864</lng>
   </location>
   <location_type>GEOMETRIC_CENTER</location_type>
   <viewport>
    <southwest>
     <lat>52.9140438</lat>
     <lng>-0.6459683</lng>
    </southwest>
    <northeast>
     <lat>52.9167417</lat>
     <lng>-0.6432704</lng>
    </northeast>
   </viewport>
   <bounds>
    <southwest>
     <lat>52.9150425</lat>
     <lng>-0.6451881</lng>
    </southwest>
    <northeast>
     <lat>52.9157430</lat>
     <lng>-0.6440506</lng>
    </northeast>
   </bounds>
  </geometry>
  <partial_match>true</partial_match>
  <place_id>ChIJjQRJ9v8weEgRDxfJVhob9zg</place_id>
 </result>
 <result>
  <type>route</type>
  <formatted_address>North St, Digby, Lincoln, Lincolnshire LN4 3LY, UK</formatted_address>
  <address_component>
   <long_name>North Street</long_name>
   <short_name>North St</short_name>
   <type>route</type>
  </address_component>
  <address_component>
   <long_name>Digby</long_name>
   <short_name>Digby</short_name>
   <type>locality</type>
   <type>political</type>
  </address_component>
  <address_component>
   <long_name>Lincoln</long_name>
   <short_name>Lincoln</short_name>
   <type>postal_town</type>
  </address_component>
  <address_component>
   <long_name>Lincolnshire</long_name>
   <short_name>Lincolnshire</short_name>
   <type>administrative_area_level_2</type>
   <type>political</type>
  </address_component>
  <address_component>
   <long_name>United Kingdom</long_name>
   <short_name>GB</short_name>
   <type>country</type>
   <type>political</type>
  </address_component>
  <address_component>
   <long_name>LN4 3LY</long_name>
   <short_name>LN4 3LY</short_name>
   <type>postal_code</type>
  </address_component>
  <geometry>
   <location>
    <lat>53.0809940</lat>
    <lng>-0.3875671</lng>
   </location>
   <location_type>GEOMETRIC_CENTER</location_type>
   <viewport>
    <southwest>
     <lat>53.0792764</lat>
     <lng>-0.3879486</lng>
    </southwest>
    <northeast>
     <lat>53.0831623</lat>
     <lng>-0.3846600</lng>
    </northeast>
   </viewport>
   <bounds>
    <southwest>
     <lat>53.0792764</lat>
     <lng>-0.3879486</lng>
    </southwest>
    <northeast>
     <lat>53.0831623</lat>
     <lng>-0.3846600</lng>
    </northeast>
   </bounds>
  </geometry>
  <partial_match>true</partial_match>
  <place_id>ChIJbw7_YY9qeEgRnnUVTEMWpus</place_id>
 </result>
 <result>
  <type>premise</type>
  <formatted_address>Kesteven House, Tattershall Rd, Billinghay, Lincoln, Lincolnshire LN4 4DD, UK</formatted_address>
  <address_component>
   <long_name>Kesteven House</long_name>
   <short_name>Kesteven House</short_name>
   <type>premise</type>
  </address_component>
  <address_component>
   <long_name>Tattershall Road</long_name>
   <short_name>Tattershall Rd</short_name>
   <type>route</type>
  </address_component>
  <address_component>
   <long_name>Billinghay</long_name>
   <short_name>Billinghay</short_name>
   <type>locality</type>
   <type>political</type>
  </address_component>
  <address_component>
   <long_name>Lincoln</long_name>
   <short_name>Lincoln</short_name>
   <type>postal_town</type>
  </address_component>
  <address_component>
   <long_name>Lincolnshire</long_name>
   <short_name>Lincolnshire</short_name>
   <type>administrative_area_level_2</type>
   <type>political</type>
  </address_component>
  <address_component>
   <long_name>United Kingdom</long_name>
   <short_name>GB</short_name>
   <type>country</type>
   <type>political</type>
  </address_component>
  <address_component>
   <long_name>LN4 4DD</long_name>
   <short_name>LN4 4DD</short_name>
   <type>postal_code</type>
  </address_component>
  <geometry>
   <location>
    <lat>53.0779135</lat>
    <lng>-0.2737717</lng>
   </location>
   <location_type>ROOFTOP</location_type>
   <viewport>
    <southwest>
     <lat>53.0765645</lat>
     <lng>-0.2751207</lng>
    </southwest>
    <northeast>
     <lat>53.0792625</lat>
     <lng>-0.2724227</lng>
    </northeast>
   </viewport>
  </geometry>
  <partial_match>true</partial_match>
  <place_id>ChIJq2U1VY1seEgRGhdRVVIzQiA</place_id>
 </result>
 <result>
  <type>route</type>
  <formatted_address>North Rd, Tattershall Thorpe, Lincoln, Lincolnshire LN4 4PQ, UK</formatted_address>
  <address_component>
   <long_name>North Road</long_name>
   <short_name>North Rd</short_name>
   <type>route</type>
  </address_component>
  <address_component>
   <long_name>Tattershall Thorpe</long_name>
   <short_name>Tattershall Thorpe</short_name>
   <type>locality</type>
   <type>political</type>
  </address_component>
  <address_component>
   <long_name>Lincoln</long_name>
   <short_name>Lincoln</short_name>
   <type>postal_town</type>
  </address_component>
  <address_component>
   <long_name>Lincolnshire</long_name>
   <short_name>Lincolnshire</short_name>
   <type>administrative_area_level_2</type>
   <type>political</type>
  </address_component>
  <address_component>
   <long_name>United Kingdom</long_name>
   <short_name>GB</short_name>
   <type>country</type>
   <type>political</type>
  </address_component>
  <address_component>
   <long_name>LN4 4PQ</long_name>
   <short_name>LN4 4PQ</short_name>
   <type>postal_code</type>
  </address_component>
  <geometry>
   <location>
    <lat>53.1245305</lat>
    <lng>-0.1803461</lng>
   </location>
   <location_type>GEOMETRIC_CENTER</location_type>
   <viewport>
    <southwest>
     <lat>53.1227005</lat>
     <lng>-0.1850127</lng>
    </southwest>
    <northeast>
     <lat>53.1253985</lat>
     <lng>-0.1767017</lng>
    </northeast>
   </viewport>
   <bounds>
    <southwest>
     <lat>53.1231700</lat>
     <lng>-0.1850127</lng>
    </southwest>
    <northeast>
     <lat>53.1249290</lat>
     <lng>-0.1767017</lng>
    </northeast>
   </bounds>
  </geometry>
  <partial_match>true</partial_match>
  <place_id>ChIJA3Qg1BtyeEgR7GCFAfI7QCM</place_id>
 </result>
 <result>
  <type>route</type>
  <formatted_address>North Dr, Cranwell Village, Sleaford, Lincolnshire NG34 8HU, UK</formatted_address>
  <address_component>
   <long_name>North Drive</long_name>
   <short_name>North Dr</short_name>
   <type>route</type>
  </address_component>
  <address_component>
   <long_name>Cranwell Village</long_name>
   <short_name>Cranwell</short_name>
   <type>locality</type>
   <type>political</type>
  </address_component>
  <address_component>
   <long_name>Sleaford</long_name>
   <short_name>Sleaford</short_name>
   <type>postal_town</type>
  </address_component>
  <address_component>
   <long_name>Lincolnshire</long_name>
   <short_name>Lincolnshire</short_name>
   <type>administrative_area_level_2</type>
   <type>political</type>
  </address_component>
  <address_component>
   <long_name>United Kingdom</long_name>
   <short_name>GB</short_name>
   <type>country</type>
   <type>political</type>
  </address_component>
  <address_component>
   <long_name>NG34 8HU</long_name>
   <short_name>NG34 8HU</short_name>
   <type>postal_code</type>
  </address_component>
  <geometry>
   <location>
    <lat>53.0389337</lat>
    <lng>-0.4899013</lng>
   </location>
   <location_type>GEOMETRIC_CENTER</location_type>
   <viewport>
    <southwest>
     <lat>53.0370757</lat>
     <lng>-0.4916537</lng>
    </southwest>
    <northeast>
     <lat>53.0397737</lat>
     <lng>-0.4883100</lng>
    </northeast>
   </viewport>
   <bounds>
    <southwest>
     <lat>53.0377205</lat>
     <lng>-0.4916537</lng>
    </southwest>
    <northeast>
     <lat>53.0391289</lat>
     <lng>-0.4883100</lng>
    </northeast>
   </bounds>
  </geometry>
  <partial_match>true</partial_match>
  <place_id>ChIJ8Zy9PlE_eEgRdBDN_D7_EfI</place_id>
 </result>
 <result>
  <type>route</type>
  <formatted_address>North St, Osbournby, Sleaford, Lincolnshire NG34 0DR, UK</formatted_address>
  <address_component>
   <long_name>North Street</long_name>
   <short_name>North St</short_name>
   <type>route</type>
  </address_component>
  <address_component>
   <long_name>Osbournby</long_name>
   <short_name>Osbournby</short_name>
   <type>locality</type>
   <type>political</type>
  </address_component>
  <address_component>
   <long_name>Sleaford</long_name>
   <short_name>Sleaford</short_name>
   <type>postal_town</type>
  </address_component>
  <address_component>
   <long_name>Lincolnshire</long_name>
   <short_name>Lincolnshire</short_name>
   <type>administrative_area_level_2</type>
   <type>political</type>
  </address_component>
  <address_component>
   <long_name>United Kingdom</long_name>
   <short_name>GB</short_name>
   <type>country</type>
   <type>political</type>
  </address_component>
  <address_component>
   <long_name>NG34 0DR</long_name>
   <short_name>NG34 0DR</short_name>
   <type>postal_code</type>
  </address_component>
  <geometry>
   <location>
    <lat>52.9308540</lat>
    <lng>-0.4138153</lng>
   </location>
   <location_type>GEOMETRIC_CENTER</location_type>
   <viewport>
    <southwest>
     <lat>52.9294251</lat>
     <lng>-0.4153262</lng>
    </southwest>
    <northeast>
     <lat>52.9321231</lat>
     <lng>-0.4126282</lng>
    </northeast>
   </viewport>
   <bounds>
    <southwest>
     <lat>52.9295268</lat>
     <lng>-0.4151563</lng>
    </southwest>
    <northeast>
     <lat>52.9320214</lat>
     <lng>-0.4127981</lng>
    </northeast>
   </bounds>
  </geometry>
  <partial_match>true</partial_match>
  <place_id>ChIJJRyjPpE9eEgR6B98pfAtjfo</place_id>
 </result>
</GeocodeResponse>
