<?xml version="1.0" encoding="UTF-8"?>
<GeocodeResponse>
 <status>OK</status>
 <result>
  <type>locality</type>
  <type>political</type>
  <formatted_address>Stroud, Stroud, Gloucestershire, UK</formatted_address>
  <address_component>
   <long_name>Stroud</long_name>
   <short_name>Stroud</short_name>
   <type>locality</type>
   <type>political</type>
  </address_component>
  <address_component>
   <long_name>Stroud</long_name>
   <short_name>Stroud</short_name>
   <type>postal_town</type>
  </address_component>
  <address_component>
   <long_name>Stroud District</long_name>
   <short_name>Stroud District</short_name>
   <type>administrative_area_level_3</type>
   <type>political</type>
  </address_component>
  <address_component>
   <long_name>Gloucestershire</long_name>
   <short_name>Gloucestershire</short_name>
   <type>administrative_area_level_2</type>
   <type>political</type>
  </address_component>
  <address_component>
   <long_name>England</long_name>
   <short_name>England</short_name>
   <type>administrative_area_level_1</type>
   <type>political</type>
  </address_component>
  <address_component>
   <long_name>United Kingdom</long_name>
   <short_name>GB</short_name>
   <type>country</type>
   <type>political</type>
  </address_component>
  <geometry>
   <location>
    <lat>51.7457340</lat>
    <lng>-2.2177580</lng>
   </location>
   <location_type>APPROXIMATE</location_type>
   <viewport>
    <southwest>
     <lat>51.7239782</lat>
     <lng>-2.2637751</lng>
    </southwest>
    <northeast>
     <lat>51.7605200</lat>
     <lng>-2.1827343</lng>
    </northeast>
   </viewport>
   <bounds>
    <southwest>
     <lat>51.7239782</lat>
     <lng>-2.2637751</lng>
    </southwest>
    <northeast>
     <lat>51.7605200</lat>
     <lng>-2.1827343</lng>
    </northeast>
   </bounds>
  </geometry>
  <place_id>ChIJ6Q9zgyYJcUgRSTpnzmuC_iE</place_id>
 </result>
 <result>
  <type>locality</type>
  <type>political</type>
  <formatted_address>Stroud, Petersfield, Hampshire GU32, UK</formatted_address>
  <address_component>
   <long_name>Stroud</long_name>
   <short_name>Stroud</short_name>
   <type>locality</type>
   <type>political</type>
  </address_component>
  <address_component>
   <long_name>Petersfield</long_name>
   <short_name>Petersfield</short_name>
   <type>postal_town</type>
  </address_component>
  <address_component>
   <long_name>Stroud</long_name>
   <short_name>Stroud</short_name>
   <type>administrative_area_level_4</type>
   <type>political</type>
  </address_component>
  <address_component>
   <long_name>East Hampshire District</long_name>
   <short_name>East Hampshire District</short_name>
   <type>administrative_area_level_3</type>
   <type>political</type>
  </address_component>
  <address_component>
   <long_name>Hampshire</long_name>
   <short_name>Hampshire</short_name>
   <type>administrative_area_level_2</type>
   <type>political</type>
  </address_component>
  <address_component>
   <long_name>England</long_name>
   <short_name>England</short_name>
   <type>administrative_area_level_1</type>
   <type>political</type>
  </address_component>
  <address_component>
   <long_name>United Kingdom</long_name>
   <short_name>GB</short_name>
   <type>country</type>
   <type>political</type>
  </address_component>
  <address_component>
   <long_name>GU32</long_name>
   <short_name>GU32</short_name>
   <type>postal_code</type>
   <type>postal_code_prefix</type>
  </address_component>
  <geometry>
   <location>
    <lat>51.0076470</lat>
    <lng>-0.9718590</lng>
   </location>
   <location_type>APPROXIMATE</location_type>
   <viewport>
    <southwest>
     <lat>51.0062980</lat>
     <lng>-0.9732080</lng>
    </southwest>
    <northeast>
     <lat>51.0089960</lat>
     <lng>-0.9705100</lng>
    </northeast>
   </viewport>
  </geometry>
  <place_id>ChIJO74Tt344dEgRDp1UEIiQxeo</place_id>
 </result>
</GeocodeResponse>
