<?xml version="1.0" encoding="UTF-8"?>
<GeocodeResponse>
 <status>OK</status>
 <result>
  <type>administrative_area_level_3</type>
  <type>political</type>
  <formatted_address>South Hams District, Devon, UK</formatted_address>
  <address_component>
   <long_name>South Hams District</long_name>
   <short_name>South Hams District</short_name>
   <type>administrative_area_level_3</type>
   <type>political</type>
  </address_component>
  <address_component>
   <long_name>Devon</long_name>
   <short_name>Devon</short_name>
   <type>administrative_area_level_2</type>
   <type>political</type>
  </address_component>
  <address_component>
   <long_name>England</long_name>
   <short_name>England</short_name>
   <type>administrative_area_level_1</type>
   <type>political</type>
  </address_component>
  <address_component>
   <long_name>United Kingdom</long_name>
   <short_name>GB</short_name>
   <type>country</type>
   <type>political</type>
  </address_component>
  <geometry>
   <location>
    <lat>50.4102244</lat>
    <lng>-3.8009332</lng>
   </location>
   <location_type>APPROXIMATE</location_type>
   <viewport>
    <southwest>
     <lat>50.2018961</lat>
     <lng>-4.1978211</lng>
    </southwest>
    <northeast>
     <lat>50.5426199</lat>
     <lng>-3.5075816</lng>
    </northeast>
   </viewport>
   <bounds>
    <southwest>
     <lat>50.2018961</lat>
     <lng>-4.1978211</lng>
    </southwest>
    <northeast>
     <lat>50.5426199</lat>
     <lng>-3.5075816</lng>
    </northeast>
   </bounds>
  </geometry>
  <partial_match>true</partial_match>
  <place_id>ChIJZ_2DiwPkbEgREHPsoi2uDgQ</place_id>
 </result>
 <result>
  <type>route</type>
  <formatted_address>Hams Way, Worcester, Worcestershire WR2, UK</formatted_address>
  <address_component>
   <long_name>Hams Way</long_name>
   <short_name>Hams Way</short_name>
   <type>route</type>
  </address_component>
  <address_component>
   <long_name>Worcester</long_name>
   <short_name>Worcester</short_name>
   <type>postal_town</type>
  </address_component>
  <address_component>
   <long_name>Worcestershire</long_name>
   <short_name>Worcestershire</short_name>
   <type>administrative_area_level_2</type>
   <type>political</type>
  </address_component>
  <address_component>
   <long_name>United Kingdom</long_name>
   <short_name>GB</short_name>
   <type>country</type>
   <type>political</type>
  </address_component>
  <address_component>
   <long_name>WR2</long_name>
   <short_name>WR2</short_name>
   <type>postal_code</type>
   <type>postal_code_prefix</type>
  </address_component>
  <geometry>
   <location>
    <lat>52.1743614</lat>
    <lng>-2.2493356</lng>
   </location>
   <location_type>GEOMETRIC_CENTER</location_type>
   <viewport>
    <southwest>
     <lat>52.1675950</lat>
     <lng>-2.2565479</lng>
    </southwest>
    <northeast>
     <lat>52.1813479</lat>
     <lng>-2.2428687</lng>
    </northeast>
   </viewport>
   <bounds>
    <southwest>
     <lat>52.1675950</lat>
     <lng>-2.2565479</lng>
    </southwest>
    <northeast>
     <lat>52.1813479</lat>
     <lng>-2.2428687</lng>
    </northeast>
   </bounds>
  </geometry>
  <partial_match>true</partial_match>
  <place_id>ChIJ1xD2xajwcEgRli-22yIi-zc</place_id>
 </result>
 <result>
  <type>route</type>
  <formatted_address>South St, Totnes, Devon TQ9 5DZ, UK</formatted_address>
  <address_component>
   <long_name>South Street</long_name>
   <short_name>South St</short_name>
   <type>route</type>
  </address_component>
  <address_component>
   <long_name>Totnes</long_name>
   <short_name>Totnes</short_name>
   <type>locality</type>
   <type>political</type>
  </address_component>
  <address_component>
   <long_name>Totnes</long_name>
   <short_name>Totnes</short_name>
   <type>postal_town</type>
  </address_component>
  <address_component>
   <long_name>Devon</long_name>
   <short_name>Devon</short_name>
   <type>administrative_area_level_2</type>
   <type>political</type>
  </address_component>
  <address_component>
   <long_name>United Kingdom</long_name>
   <short_name>GB</short_name>
   <type>country</type>
   <type>political</type>
  </address_component>
  <address_component>
   <long_name>TQ9 5DZ</long_name>
   <short_name>TQ9 5DZ</short_name>
   <type>postal_code</type>
  </address_component>
  <geometry>
   <location>
    <lat>50.4307635</lat>
    <lng>-3.6889837</lng>
   </location>
   <location_type>GEOMETRIC_CENTER</location_type>
   <viewport>
    <southwest>
     <lat>50.4296335</lat>
     <lng>-3.6909879</lng>
    </southwest>
    <northeast>
     <lat>50.4323315</lat>
     <lng>-3.6869388</lng>
    </northeast>
   </viewport>
   <bounds>
    <southwest>
     <lat>50.4305276</lat>
     <lng>-3.6909879</lng>
    </southwest>
    <northeast>
     <lat>50.4314374</lat>
     <lng>-3.6869388</lng>
    </northeast>
   </bounds>
  </geometry>
  <partial_match>true</partial_match>
  <place_id>ChIJYdfLbukcbUgR-y3VsF9Hnsc</place_id>
 </result>
 <result>
  <type>route</type>
  <formatted_address>South Hill, Plymouth, Plymouth PL9 9PT, UK</formatted_address>
  <address_component>
   <long_name>South Hill</long_name>
   <short_name>South Hill</short_name>
   <type>route</type>
  </address_component>
  <address_component>
   <long_name>Plymouth</long_name>
   <short_name>Plymouth</short_name>
   <type>locality</type>
   <type>political</type>
  </address_component>
  <address_component>
   <long_name>Plymouth</long_name>
   <short_name>Plymouth</short_name>
   <type>postal_town</type>
  </address_component>
  <address_component>
   <long_name>Plymouth</long_name>
   <short_name>Plymouth</short_name>
   <type>administrative_area_level_2</type>
   <type>political</type>
  </address_component>
  <address_component>
   <long_name>United Kingdom</long_name>
   <short_name>GB</short_name>
   <type>country</type>
   <type>political</type>
  </address_component>
  <address_component>
   <long_name>PL9 9PT</long_name>
   <short_name>PL9 9PT</short_name>
   <type>postal_code</type>
  </address_component>
  <geometry>
   <location>
    <lat>50.3515801</lat>
    <lng>-4.1086375</lng>
   </location>
   <location_type>GEOMETRIC_CENTER</location_type>
   <viewport>
    <southwest>
     <lat>50.3499434</lat>
     <lng>-4.1095559</lng>
    </southwest>
    <northeast>
     <lat>50.3526414</lat>
     <lng>-4.1067402</lng>
    </northeast>
   </viewport>
   <bounds>
    <southwest>
     <lat>50.3504610</lat>
     <lng>-4.1095559</lng>
    </southwest>
    <northeast>
     <lat>50.3521238</lat>
     <lng>-4.1067402</lng>
    </northeast>
   </bounds>
  </geometry>
  <partial_match>true</partial_match>
  <place_id>ChIJSd7jD2frbEgRp1ZPXCO5E0Y</place_id>
 </result>
 <result>
  <type>route</type>
  <formatted_address>Hams Ln, Lea Marston, Sutton Coldfield, Warwickshire B76 0BL, UK</formatted_address>
  <address_component>
   <long_name>Hams Lane</long_name>
   <short_name>Hams Ln</short_name>
   <type>route</type>
  </address_component>
  <address_component>
   <long_name>Lea Marston</long_name>
   <short_name>Lea Marston</short_name>
   <type>locality</type>
   <type>political</type>
  </address_component>
  <address_component>
   <long_name>Sutton Coldfield</long_name>
   <short_name>Sutton Coldfield</short_name>
   <type>postal_town</type>
  </address_component>
  <address_component>
   <long_name>Warwickshire</long_name>
   <short_name>Warwickshire</short_name>
   <type>administrative_area_level_2</type>
   <type>political</type>
  </address_component>
  <address_component>
   <long_name>United Kingdom</long_name>
   <short_name>GB</short_name>
   <type>country</type>
   <type>political</type>
  </address_component>
  <address_component>
   <long_name>B76 0BL</long_name>
   <short_name>B76 0BL</short_name>
   <type>postal_code</type>
  </address_component>
  <geometry>
   <location>
    <lat>52.5331903</lat>
    <lng>-1.7100351</lng>
   </location>
   <location_type>GEOMETRIC_CENTER</location_type>
   <viewport>
    <southwest>
     <lat>52.5279509</lat>
     <lng>-1.7150066</lng>
    </southwest>
    <northeast>
     <lat>52.5375482</lat>
     <lng>-1.7016088</lng>
    </northeast>
   </viewport>
   <bounds>
    <southwest>
     <lat>52.5279509</lat>
     <lng>-1.7150066</lng>
    </southwest>
    <northeast>
     <lat>52.5375482</lat>
     <lng>-1.7016088</lng>
    </northeast>
   </bounds>
  </geometry>
  <partial_match>true</partial_match>
  <place_id>ChIJW4hNeD2ucEgRAOx_0ce-7xY</place_id>
 </result>
 <result>
  <type>premise</type>
  <formatted_address>South Lodge, Kingswear, Brixham, Devon TQ5 0ES, UK</formatted_address>
  <address_component>
   <long_name>South Lodge</long_name>
   <short_name>South Lodge</short_name>
   <type>premise</type>
  </address_component>
  <address_component>
   <long_name>Greenway</long_name>
   <short_name>Greenway</short_name>
   <type>neighborhood</type>
   <type>political</type>
  </address_component>
  <address_component>
   <long_name>Kingswear</long_name>
   <short_name>Kingswear</short_name>
   <type>locality</type>
   <type>political</type>
  </address_component>
  <address_component>
   <long_name>Brixham</long_name>
   <short_name>Brixham</short_name>
   <type>postal_town</type>
  </address_component>
  <address_component>
   <long_name>Devon</long_name>
   <short_name>Devon</short_name>
   <type>administrative_area_level_2</type>
   <type>political</type>
  </address_component>
  <address_component>
   <long_name>United Kingdom</long_name>
   <short_name>GB</short_name>
   <type>country</type>
   <type>political</type>
  </address_component>
  <address_component>
   <long_name>TQ5 0ES</long_name>
   <short_name>TQ5 0ES</short_name>
   <type>postal_code</type>
  </address_component>
  <geometry>
   <location>
    <lat>50.3842866</lat>
    <lng>-3.5862838</lng>
   </location>
   <location_type>ROOFTOP</location_type>
   <viewport>
    <southwest>
     <lat>50.3829376</lat>
     <lng>-3.5876328</lng>
    </southwest>
    <northeast>
     <lat>50.3856356</lat>
     <lng>-3.5849348</lng>
    </northeast>
   </viewport>
  </geometry>
  <partial_match>true</partial_match>
  <place_id>ChIJH4zr7CQabUgROYGhta4j6Pc</place_id>
 </result>
 <result>
  <type>premise</type>
  <formatted_address>South Cottage, Heathfield Rd, Cornwood, Ivybridge, Devon PL21 9QU, UK</formatted_address>
  <address_component>
   <long_name>South Cottage</long_name>
   <short_name>South Cottage</short_name>
   <type>premise</type>
  </address_component>
  <address_component>
   <long_name>Heathfield Road</long_name>
   <short_name>Heathfield Rd</short_name>
   <type>route</type>
  </address_component>
  <address_component>
   <long_name>Cornwood</long_name>
   <short_name>Cornwood</short_name>
   <type>locality</type>
   <type>political</type>
  </address_component>
  <address_component>
   <long_name>Ivybridge</long_name>
   <short_name>Ivybridge</short_name>
   <type>postal_town</type>
  </address_component>
  <address_component>
   <long_name>Devon</long_name>
   <short_name>Devon</short_name>
   <type>administrative_area_level_2</type>
   <type>political</type>
  </address_component>
  <address_component>
   <long_name>United Kingdom</long_name>
   <short_name>GB</short_name>
   <type>country</type>
   <type>political</type>
  </address_component>
  <address_component>
   <long_name>PL21 9QU</long_name>
   <short_name>PL21 9QU</short_name>
   <type>postal_code</type>
  </address_component>
  <geometry>
   <location>
    <lat>50.4211494</lat>
    <lng>-3.9646969</lng>
   </location>
   <location_type>ROOFTOP</location_type>
   <viewport>
    <southwest>
     <lat>50.4198004</lat>
     <lng>-3.9660459</lng>
    </southwest>
    <northeast>
     <lat>50.4224984</lat>
     <lng>-3.9633479</lng>
    </northeast>
   </viewport>
  </geometry>
  <partial_match>true</partial_match>
  <place_id>ChIJ1Q4nzJPvbEgRT0GG8Mg2Akk</place_id>
 </result>
 <result>
  <type>bus_station</type>
  <type>establishment</type>
  <type>point_of_interest</type>
  <type>transit_station</type>
  <formatted_address>opp South Hams Hospital, Kingsbridge, Kingsbridge, Devon TQ7, UK</formatted_address>
  <address_component>
   <long_name>opp South Hams Hospital</long_name>
   <short_name>opp South Hams Hospital</short_name>
   <type>establishment</type>
   <type>point_of_interest</type>
  </address_component>
  <address_component>
   <long_name>Kingsbridge</long_name>
   <short_name>Kingsbridge</short_name>
   <type>locality</type>
   <type>political</type>
  </address_component>
  <address_component>
   <long_name>Kingsbridge</long_name>
   <short_name>Kingsbridge</short_name>
   <type>postal_town</type>
  </address_component>
  <address_component>
   <long_name>Devon</long_name>
   <short_name>Devon</short_name>
   <type>administrative_area_level_2</type>
   <type>political</type>
  </address_component>
  <address_component>
   <long_name>United Kingdom</long_name>
   <short_name>GB</short_name>
   <type>country</type>
   <type>political</type>
  </address_component>
  <address_component>
   <long_name>TQ7</long_name>
   <short_name>TQ7</short_name>
   <type>postal_code</type>
   <type>postal_code_prefix</type>
  </address_component>
  <geometry>
   <location>
    <lat>50.2893370</lat>
    <lng>-3.7811330</lng>
   </location>
   <location_type>APPROXIMATE</location_type>
   <viewport>
    <southwest>
     <lat>50.2879880</lat>
     <lng>-3.7824820</lng>
    </southwest>
    <northeast>
     <lat>50.2906860</lat>
     <lng>-3.7797840</lng>
    </northeast>
   </viewport>
  </geometry>
  <partial_match>true</partial_match>
  <place_id>ChIJZ9AVAn_gbEgRtr9YfwWBeGk</place_id>
 </result>
 <result>
  <type>route</type>
  <formatted_address>Hams Rd, Lydney, Gloucestershire GL15 5PE, UK</formatted_address>
  <address_component>
   <long_name>Hams Road</long_name>
   <short_name>Hams Rd</short_name>
   <type>route</type>
  </address_component>
  <address_component>
   <long_name>Lydney</long_name>
   <short_name>Lydney</short_name>
   <type>locality</type>
   <type>political</type>
  </address_component>
  <address_component>
   <long_name>Lydney</long_name>
   <short_name>Lydney</short_name>
   <type>postal_town</type>
  </address_component>
  <address_component>
   <long_name>Gloucestershire</long_name>
   <short_name>Gloucestershire</short_name>
   <type>administrative_area_level_2</type>
   <type>political</type>
  </address_component>
  <address_component>
   <long_name>United Kingdom</long_name>
   <short_name>GB</short_name>
   <type>country</type>
   <type>political</type>
  </address_component>
  <address_component>
   <long_name>GL15 5PE</long_name>
   <short_name>GL15 5PE</short_name>
   <type>postal_code</type>
  </address_component>
  <geometry>
   <location>
    <lat>51.7268565</lat>
    <lng>-2.5271559</lng>
   </location>
   <location_type>GEOMETRIC_CENTER</location_type>
   <viewport>
    <southwest>
     <lat>51.7254707</lat>
     <lng>-2.5283995</lng>
    </southwest>
    <northeast>
     <lat>51.7281687</lat>
     <lng>-2.5257015</lng>
    </northeast>
   </viewport>
   <bounds>
    <southwest>
     <lat>51.7261077</lat>
     <lng>-2.5277541</lng>
    </southwest>
    <northeast>
     <lat>51.7275317</lat>
     <lng>-2.5263469</lng>
    </northeast>
   </bounds>
  </geometry>
  <partial_match>true</partial_match>
  <place_id>ChIJfxpcxbO8cUgRSBkSI8CHkug</place_id>
 </result>
 <result>
  <type>route</type>
  <formatted_address>The Hams, Ide, Exeter, Devon EX2 9RU, UK</formatted_address>
  <address_component>
   <long_name>The Hams</long_name>
   <short_name>The Hams</short_name>
   <type>route</type>
  </address_component>
  <address_component>
   <long_name>Ide</long_name>
   <short_name>Ide</short_name>
   <type>locality</type>
   <type>political</type>
  </address_component>
  <address_component>
   <long_name>Exeter</long_name>
   <short_name>Exeter</short_name>
   <type>postal_town</type>
  </address_component>
  <address_component>
   <long_name>Devon</long_name>
   <short_name>Devon</short_name>
   <type>administrative_area_level_2</type>
   <type>political</type>
  </address_component>
  <address_component>
   <long_name>United Kingdom</long_name>
   <short_name>GB</short_name>
   <type>country</type>
   <type>political</type>
  </address_component>
  <address_component>
   <long_name>EX2 9RU</long_name>
   <short_name>EX2 9RU</short_name>
   <type>postal_code</type>
  </address_component>
  <geometry>
   <location>
    <lat>50.7033972</lat>
    <lng>-3.5602170</lng>
   </location>
   <location_type>GEOMETRIC_CENTER</location_type>
   <viewport>
    <southwest>
     <lat>50.7020076</lat>
     <lng>-3.5619387</lng>
    </southwest>
    <northeast>
     <lat>50.7047055</lat>
     <lng>-3.5592407</lng>
    </northeast>
   </viewport>
   <bounds>
    <southwest>
     <lat>50.7029524</lat>
     <lng>-3.5612474</lng>
    </southwest>
    <northeast>
     <lat>50.7037607</lat>
     <lng>-3.5599320</lng>
    </northeast>
   </bounds>
  </geometry>
  <partial_match>true</partial_match>
  <place_id>ChIJ5cAhLnembUgRfX0YDifGBWk</place_id>
 </result>
</GeocodeResponse>
