<?xml version="1.0" encoding="UTF-8"?>
<GeocodeResponse>
 <status>OK</status>
 <result>
  <type>locality</type>
  <type>political</type>
  <formatted_address>Nuneaton, Warwickshire, UK</formatted_address>
  <address_component>
   <long_name>Nuneaton</long_name>
   <short_name>Nuneaton</short_name>
   <type>locality</type>
   <type>political</type>
  </address_component>
  <address_component>
   <long_name>Nuneaton and Bedworth District</long_name>
   <short_name>Nuneaton and Bedworth District</short_name>
   <type>administrative_area_level_3</type>
   <type>political</type>
  </address_component>
  <address_component>
   <long_name>Warwickshire</long_name>
   <short_name>Warwickshire</short_name>
   <type>administrative_area_level_2</type>
   <type>political</type>
  </address_component>
  <address_component>
   <long_name>England</long_name>
   <short_name>England</short_name>
   <type>administrative_area_level_1</type>
   <type>political</type>
  </address_component>
  <address_component>
   <long_name>United Kingdom</long_name>
   <short_name>GB</short_name>
   <type>country</type>
   <type>political</type>
  </address_component>
  <geometry>
   <location>
    <lat>52.5204890</lat>
    <lng>-1.4653820</lng>
   </location>
   <location_type>APPROXIMATE</location_type>
   <viewport>
    <southwest>
     <lat>52.4843764</lat>
     <lng>-1.5584794</lng>
    </southwest>
    <northeast>
     <lat>52.5473906</lat>
     <lng>-1.4063480</lng>
    </northeast>
   </viewport>
   <bounds>
    <southwest>
     <lat>52.4843764</lat>
     <lng>-1.5584794</lng>
    </southwest>
    <northeast>
     <lat>52.5473906</lat>
     <lng>-1.4063480</lng>
    </northeast>
   </bounds>
  </geometry>
  <partial_match>true</partial_match>
  <place_id>ChIJR5QVDlKtcEgRmihPAwLdPj0</place_id>
 </result>
 <result>
  <type>locality</type>
  <type>political</type>
  <formatted_address>Bedworth, Warwickshire, UK</formatted_address>
  <address_component>
   <long_name>Bedworth</long_name>
   <short_name>Bedworth</short_name>
   <type>locality</type>
   <type>political</type>
  </address_component>
  <address_component>
   <long_name>Nuneaton and Bedworth District</long_name>
   <short_name>Nuneaton and Bedworth District</short_name>
   <type>administrative_area_level_3</type>
   <type>political</type>
  </address_component>
  <address_component>
   <long_name>Warwickshire</long_name>
   <short_name>Warwickshire</short_name>
   <type>administrative_area_level_2</type>
   <type>political</type>
  </address_component>
  <address_component>
   <long_name>England</long_name>
   <short_name>England</short_name>
   <type>administrative_area_level_1</type>
   <type>political</type>
  </address_component>
  <address_component>
   <long_name>United Kingdom</long_name>
   <short_name>GB</short_name>
   <type>country</type>
   <type>political</type>
  </address_component>
  <geometry>
   <location>
    <lat>52.4813920</lat>
    <lng>-1.4688690</lng>
   </location>
   <location_type>APPROXIMATE</location_type>
   <viewport>
    <southwest>
     <lat>52.4639397</lat>
     <lng>-1.5233094</lng>
    </southwest>
    <northeast>
     <lat>52.4959897</lat>
     <lng>-1.4355978</lng>
    </northeast>
   </viewport>
   <bounds>
    <southwest>
     <lat>52.4639397</lat>
     <lng>-1.5233094</lng>
    </southwest>
    <northeast>
     <lat>52.4959897</lat>
     <lng>-1.4355978</lng>
    </northeast>
   </bounds>
  </geometry>
  <partial_match>true</partial_match>
  <place_id>ChIJWRRfACpMd0gR2yxCyq1jK54</place_id>
 </result>
</GeocodeResponse>
