<?xml version="1.0" encoding="UTF-8"?>
<GeocodeResponse>
 <status>OK</status>
 <result>
  <type>locality</type>
  <type>political</type>
  <formatted_address>Melton, Woodbridge, Suffolk, UK</formatted_address>
  <address_component>
   <long_name>Melton</long_name>
   <short_name>Melton</short_name>
   <type>locality</type>
   <type>political</type>
  </address_component>
  <address_component>
   <long_name>Woodbridge</long_name>
   <short_name>Woodbridge</short_name>
   <type>postal_town</type>
  </address_component>
  <address_component>
   <long_name>Suffolk Coastal District</long_name>
   <short_name>Suffolk Coastal District</short_name>
   <type>administrative_area_level_3</type>
   <type>political</type>
  </address_component>
  <address_component>
   <long_name>Suffolk</long_name>
   <short_name>Suffolk</short_name>
   <type>administrative_area_level_2</type>
   <type>political</type>
  </address_component>
  <address_component>
   <long_name>England</long_name>
   <short_name>England</short_name>
   <type>administrative_area_level_1</type>
   <type>political</type>
  </address_component>
  <address_component>
   <long_name>United Kingdom</long_name>
   <short_name>GB</short_name>
   <type>country</type>
   <type>political</type>
  </address_component>
  <geometry>
   <location>
    <lat>52.1048560</lat>
    <lng>1.3308780</lng>
   </location>
   <location_type>APPROXIMATE</location_type>
   <viewport>
    <southwest>
     <lat>52.0949733</lat>
     <lng>1.3055282</lng>
    </southwest>
    <northeast>
     <lat>52.1213201</lat>
     <lng>1.3555304</lng>
    </northeast>
   </viewport>
   <bounds>
    <southwest>
     <lat>52.0949733</lat>
     <lng>1.3055282</lng>
    </southwest>
    <northeast>
     <lat>52.1213201</lat>
     <lng>1.3555304</lng>
    </northeast>
   </bounds>
  </geometry>
  <place_id>ChIJS2bnFGab2UcRO6UT5UUS9ow</place_id>
 </result>
 <result>
  <type>locality</type>
  <type>political</type>
  <formatted_address>Melton, North Ferriby, East Riding of Yorkshire HU14, UK</formatted_address>
  <address_component>
   <long_name>Melton</long_name>
   <short_name>Melton</short_name>
   <type>locality</type>
   <type>political</type>
  </address_component>
  <address_component>
   <long_name>North Ferriby</long_name>
   <short_name>North Ferriby</short_name>
   <type>postal_town</type>
  </address_component>
  <address_component>
   <long_name>Welton</long_name>
   <short_name>Welton</short_name>
   <type>administrative_area_level_4</type>
   <type>political</type>
  </address_component>
  <address_component>
   <long_name>East Riding of Yorkshire</long_name>
   <short_name>East Riding of Yorkshire</short_name>
   <type>administrative_area_level_2</type>
   <type>political</type>
  </address_component>
  <address_component>
   <long_name>England</long_name>
   <short_name>England</short_name>
   <type>administrative_area_level_1</type>
   <type>political</type>
  </address_component>
  <address_component>
   <long_name>United Kingdom</long_name>
   <short_name>GB</short_name>
   <type>country</type>
   <type>political</type>
  </address_component>
  <address_component>
   <long_name>HU14</long_name>
   <short_name>HU14</short_name>
   <type>postal_code</type>
   <type>postal_code_prefix</type>
  </address_component>
  <geometry>
   <location>
    <lat>53.7275030</lat>
    <lng>-0.5326440</lng>
   </location>
   <location_type>APPROXIMATE</location_type>
   <viewport>
    <southwest>
     <lat>53.7261540</lat>
     <lng>-0.5339930</lng>
    </southwest>
    <northeast>
     <lat>53.7288520</lat>
     <lng>-0.5312950</lng>
    </northeast>
   </viewport>
  </geometry>
  <place_id>ChIJr0GTyOXpeEgRH2Sw3afNJoI</place_id>
 </result>
</GeocodeResponse>
