<?xml version="1.0" encoding="UTF-8"?>
<GeocodeResponse>
 <status>OK</status>
 <result>
  <type>route</type>
  <formatted_address>Süd-Ost-Gasse, 7210 Mattersburg, Austria</formatted_address>
  <address_component>
   <long_name>Süd-Ost-Gasse</long_name>
   <short_name>Süd-Ost-Gasse</short_name>
   <type>route</type>
  </address_component>
  <address_component>
   <long_name>Mattersburg</long_name>
   <short_name>Mattersburg</short_name>
   <type>locality</type>
   <type>political</type>
  </address_component>
  <address_component>
   <long_name>Gemeinde Mattersburg</long_name>
   <short_name>Gemeinde Mattersburg</short_name>
   <type>administrative_area_level_3</type>
   <type>political</type>
  </address_component>
  <address_component>
   <long_name>Mattersburg</long_name>
   <short_name>Mattersburg</short_name>
   <type>administrative_area_level_2</type>
   <type>political</type>
  </address_component>
  <address_component>
   <long_name>Burgenland</long_name>
   <short_name>Burgenland</short_name>
   <type>administrative_area_level_1</type>
   <type>political</type>
  </address_component>
  <address_component>
   <long_name>Austria</long_name>
   <short_name>AT</short_name>
   <type>country</type>
   <type>political</type>
  </address_component>
  <address_component>
   <long_name>7210</long_name>
   <short_name>7210</short_name>
   <type>postal_code</type>
  </address_component>
  <geometry>
   <location>
    <lat>47.7330746</lat>
    <lng>16.4082259</lng>
   </location>
   <location_type>GEOMETRIC_CENTER</location_type>
   <viewport>
    <southwest>
     <lat>47.7324632</lat>
     <lng>16.4061132</lng>
    </southwest>
    <northeast>
     <lat>47.7351612</lat>
     <lng>16.4088111</lng>
    </northeast>
   </viewport>
   <bounds>
    <southwest>
     <lat>47.7330552</lat>
     <lng>16.4066984</lng>
    </southwest>
    <northeast>
     <lat>47.7345692</lat>
     <lng>16.4082259</lng>
    </northeast>
   </bounds>
  </geometry>
  <partial_match>true</partial_match>
  <place_id>ChIJibe7lJ4xbEcR05e2W2EEqf8</place_id>
 </result>
 <result>
  <type>route</type>
  <formatted_address>Südstraße, 06686 Lützen, Germany</formatted_address>
  <address_component>
   <long_name>Südstraße</long_name>
   <short_name>Südstraße</short_name>
   <type>route</type>
  </address_component>
  <address_component>
   <long_name>Lützen</long_name>
   <short_name>Lützen</short_name>
   <type>locality</type>
   <type>political</type>
  </address_component>
  <address_component>
   <long_name>Sachsen-Anhalt</long_name>
   <short_name>SA</short_name>
   <type>administrative_area_level_1</type>
   <type>political</type>
  </address_component>
  <address_component>
   <long_name>Germany</long_name>
   <short_name>DE</short_name>
   <type>country</type>
   <type>political</type>
  </address_component>
  <address_component>
   <long_name>06686</long_name>
   <short_name>06686</short_name>
   <type>postal_code</type>
  </address_component>
  <geometry>
   <location>
    <lat>51.2407157</lat>
    <lng>12.1148340</lng>
   </location>
   <location_type>GEOMETRIC_CENTER</location_type>
   <viewport>
    <southwest>
     <lat>51.2393771</lat>
     <lng>12.1131300</lng>
    </southwest>
    <northeast>
     <lat>51.2420750</lat>
     <lng>12.1163807</lng>
    </northeast>
   </viewport>
   <bounds>
    <southwest>
     <lat>51.2402921</lat>
     <lng>12.1131300</lng>
    </southwest>
    <northeast>
     <lat>51.2411600</lat>
     <lng>12.1163807</lng>
    </northeast>
   </bounds>
  </geometry>
  <partial_match>true</partial_match>
  <place_id>ChIJxVgfib7ypkcR_DREN5cfWxI</place_id>
 </result>
 <result>
  <type>route</type>
  <formatted_address>Südring, 06667 Weißenfels, Germany</formatted_address>
  <address_component>
   <long_name>Südring</long_name>
   <short_name>Südring</short_name>
   <type>route</type>
  </address_component>
  <address_component>
   <long_name>Weißenfels</long_name>
   <short_name>Weißenfels</short_name>
   <type>locality</type>
   <type>political</type>
  </address_component>
  <address_component>
   <long_name>Sachsen-Anhalt</long_name>
   <short_name>SA</short_name>
   <type>administrative_area_level_1</type>
   <type>political</type>
  </address_component>
  <address_component>
   <long_name>Germany</long_name>
   <short_name>DE</short_name>
   <type>country</type>
   <type>political</type>
  </address_component>
  <address_component>
   <long_name>06667</long_name>
   <short_name>06667</short_name>
   <type>postal_code</type>
  </address_component>
  <geometry>
   <location>
    <lat>51.1897713</lat>
    <lng>11.9627623</lng>
   </location>
   <location_type>GEOMETRIC_CENTER</location_type>
   <viewport>
    <southwest>
     <lat>51.1876195</lat>
     <lng>11.9585900</lng>
    </southwest>
    <northeast>
     <lat>51.1921400</lat>
     <lng>11.9678154</lng>
    </northeast>
   </viewport>
   <bounds>
    <southwest>
     <lat>51.1876195</lat>
     <lng>11.9585900</lng>
    </southwest>
    <northeast>
     <lat>51.1921400</lat>
     <lng>11.9678154</lng>
    </northeast>
   </bounds>
  </geometry>
  <partial_match>true</partial_match>
  <place_id>ChIJ7yWFsNGTpkcRpMjv2lZEZIU</place_id>
 </result>
 <result>
  <type>route</type>
  <formatted_address>Nonnewitz, Südstraße, 06727 Zeitz, Germany</formatted_address>
  <address_component>
   <long_name>Südstraße</long_name>
   <short_name>Südstraße</short_name>
   <type>route</type>
  </address_component>
  <address_component>
   <long_name>Nonnewitz</long_name>
   <short_name>Nonnewitz</short_name>
   <type>political</type>
   <type>sublocality</type>
   <type>sublocality_level_1</type>
  </address_component>
  <address_component>
   <long_name>Zeitz</long_name>
   <short_name>Zeitz</short_name>
   <type>locality</type>
   <type>political</type>
  </address_component>
  <address_component>
   <long_name>Burgenlandkreis</long_name>
   <short_name>BLK</short_name>
   <type>administrative_area_level_3</type>
   <type>political</type>
  </address_component>
  <address_component>
   <long_name>Sachsen-Anhalt</long_name>
   <short_name>SA</short_name>
   <type>administrative_area_level_1</type>
   <type>political</type>
  </address_component>
  <address_component>
   <long_name>Germany</long_name>
   <short_name>DE</short_name>
   <type>country</type>
   <type>political</type>
  </address_component>
  <address_component>
   <long_name>06727</long_name>
   <short_name>06727</short_name>
   <type>postal_code</type>
  </address_component>
  <geometry>
   <location>
    <lat>51.0895677</lat>
    <lng>12.1244556</lng>
   </location>
   <location_type>GEOMETRIC_CENTER</location_type>
   <viewport>
    <southwest>
     <lat>51.0882263</lat>
     <lng>12.1228188</lng>
    </southwest>
    <northeast>
     <lat>51.0909242</lat>
     <lng>12.1261463</lng>
    </northeast>
   </viewport>
   <bounds>
    <southwest>
     <lat>51.0894500</lat>
     <lng>12.1228188</lng>
    </southwest>
    <northeast>
     <lat>51.0897005</lat>
     <lng>12.1261463</lng>
    </northeast>
   </bounds>
  </geometry>
  <partial_match>true</partial_match>
  <place_id>ChIJ7Scg-zHqpkcRzwT17cPhUx8</place_id>
 </result>
 <result>
  <type>route</type>
  <formatted_address>Südring, 06618 Görschen, Germany</formatted_address>
  <address_component>
   <long_name>Südring</long_name>
   <short_name>Südring</short_name>
   <type>route</type>
  </address_component>
  <address_component>
   <long_name>Görschen</long_name>
   <short_name>Görschen</short_name>
   <type>locality</type>
   <type>political</type>
  </address_component>
  <address_component>
   <long_name>Sachsen-Anhalt</long_name>
   <short_name>SA</short_name>
   <type>administrative_area_level_1</type>
   <type>political</type>
  </address_component>
  <address_component>
   <long_name>Germany</long_name>
   <short_name>DE</short_name>
   <type>country</type>
   <type>political</type>
  </address_component>
  <address_component>
   <long_name>06618</long_name>
   <short_name>06618</short_name>
   <type>postal_code</type>
  </address_component>
  <geometry>
   <location>
    <lat>51.1107379</lat>
    <lng>11.9102536</lng>
   </location>
   <location_type>GEOMETRIC_CENTER</location_type>
   <viewport>
    <southwest>
     <lat>51.1086038</lat>
     <lng>11.9074407</lng>
    </southwest>
    <northeast>
     <lat>51.1124825</lat>
     <lng>11.9119147</lng>
    </northeast>
   </viewport>
   <bounds>
    <southwest>
     <lat>51.1086038</lat>
     <lng>11.9074407</lng>
    </southwest>
    <northeast>
     <lat>51.1124825</lat>
     <lng>11.9119147</lng>
    </northeast>
   </bounds>
  </geometry>
  <partial_match>true</partial_match>
  <place_id>ChIJb3GZknmWpkcRrNahkfTS01U</place_id>
 </result>
 <result>
  <type>route</type>
  <formatted_address>Südpl., 06679 Hohenmölsen, Germany</formatted_address>
  <address_component>
   <long_name>Südplatz</long_name>
   <short_name>Südpl.</short_name>
   <type>route</type>
  </address_component>
  <address_component>
   <long_name>Hohenmölsen</long_name>
   <short_name>Hohenmölsen</short_name>
   <type>locality</type>
   <type>political</type>
  </address_component>
  <address_component>
   <long_name>Sachsen-Anhalt</long_name>
   <short_name>SA</short_name>
   <type>administrative_area_level_1</type>
   <type>political</type>
  </address_component>
  <address_component>
   <long_name>Germany</long_name>
   <short_name>DE</short_name>
   <type>country</type>
   <type>political</type>
  </address_component>
  <address_component>
   <long_name>06679</long_name>
   <short_name>06679</short_name>
   <type>postal_code</type>
  </address_component>
  <geometry>
   <location>
    <lat>51.1626107</lat>
    <lng>12.1046065</lng>
   </location>
   <location_type>GEOMETRIC_CENTER</location_type>
   <viewport>
    <southwest>
     <lat>51.1614386</lat>
     <lng>12.1036330</lng>
    </southwest>
    <northeast>
     <lat>51.1641365</lat>
     <lng>12.1063310</lng>
    </northeast>
   </viewport>
   <bounds>
    <southwest>
     <lat>51.1624119</lat>
     <lng>12.1039839</lng>
    </southwest>
    <northeast>
     <lat>51.1631632</lat>
     <lng>12.1059801</lng>
    </northeast>
   </bounds>
  </geometry>
  <partial_match>true</partial_match>
  <place_id>ChIJE4KKa_PspkcRz4fUVXpuqFQ</place_id>
 </result>
 <result>
  <type>route</type>
  <formatted_address>Südstraße, 06712 Grana, Germany</formatted_address>
  <address_component>
   <long_name>Südstraße</long_name>
   <short_name>Südstraße</short_name>
   <type>route</type>
  </address_component>
  <address_component>
   <long_name>Grana</long_name>
   <short_name>Grana</short_name>
   <type>locality</type>
   <type>political</type>
  </address_component>
  <address_component>
   <long_name>Sachsen-Anhalt</long_name>
   <short_name>SA</short_name>
   <type>administrative_area_level_1</type>
   <type>political</type>
  </address_component>
  <address_component>
   <long_name>Germany</long_name>
   <short_name>DE</short_name>
   <type>country</type>
   <type>political</type>
  </address_component>
  <address_component>
   <long_name>06712</long_name>
   <short_name>06712</short_name>
   <type>postal_code</type>
  </address_component>
  <geometry>
   <location>
    <lat>51.0525568</lat>
    <lng>12.1080893</lng>
   </location>
   <location_type>GEOMETRIC_CENTER</location_type>
   <viewport>
    <southwest>
     <lat>51.0512406</lat>
     <lng>12.1064758</lng>
    </southwest>
    <northeast>
     <lat>51.0539386</lat>
     <lng>12.1091738</lng>
    </northeast>
   </viewport>
   <bounds>
    <southwest>
     <lat>51.0518308</lat>
     <lng>12.1069223</lng>
    </southwest>
    <northeast>
     <lat>51.0533484</lat>
     <lng>12.1087273</lng>
    </northeast>
   </bounds>
  </geometry>
  <partial_match>true</partial_match>
  <place_id>ChIJYVq12-LBpkcR9sNL8sYAI_U</place_id>
 </result>
 <result>
  <type>route</type>
  <formatted_address>Südstraße, 06712 Kretzschau, Germany</formatted_address>
  <address_component>
   <long_name>Südstraße</long_name>
   <short_name>Südstraße</short_name>
   <type>route</type>
  </address_component>
  <address_component>
   <long_name>Kretzschau</long_name>
   <short_name>Kretzschau</short_name>
   <type>locality</type>
   <type>political</type>
  </address_component>
  <address_component>
   <long_name>Sachsen-Anhalt</long_name>
   <short_name>SA</short_name>
   <type>administrative_area_level_1</type>
   <type>political</type>
  </address_component>
  <address_component>
   <long_name>Germany</long_name>
   <short_name>DE</short_name>
   <type>country</type>
   <type>political</type>
  </address_component>
  <address_component>
   <long_name>06712</long_name>
   <short_name>06712</short_name>
   <type>postal_code</type>
  </address_component>
  <geometry>
   <location>
    <lat>51.0520669</lat>
    <lng>12.0723065</lng>
   </location>
   <location_type>GEOMETRIC_CENTER</location_type>
   <viewport>
    <southwest>
     <lat>51.0508129</lat>
     <lng>12.0709510</lng>
    </southwest>
    <northeast>
     <lat>51.0535108</lat>
     <lng>12.0738004</lng>
    </northeast>
   </viewport>
   <bounds>
    <southwest>
     <lat>51.0518937</lat>
     <lng>12.0709510</lng>
    </southwest>
    <northeast>
     <lat>51.0524300</lat>
     <lng>12.0738004</lng>
    </northeast>
   </bounds>
  </geometry>
  <partial_match>true</partial_match>
  <place_id>ChIJo34Z4NPBpkcRBZ_4ZQIGaZ8</place_id>
 </result>
 <result>
  <type>route</type>
  <formatted_address>Südstraße, 06667 Storkau, Germany</formatted_address>
  <address_component>
   <long_name>Südstraße</long_name>
   <short_name>Südstraße</short_name>
   <type>route</type>
  </address_component>
  <address_component>
   <long_name>Storkau</long_name>
   <short_name>Storkau</short_name>
   <type>locality</type>
   <type>political</type>
  </address_component>
  <address_component>
   <long_name>Sachsen-Anhalt</long_name>
   <short_name>SA</short_name>
   <type>administrative_area_level_1</type>
   <type>political</type>
  </address_component>
  <address_component>
   <long_name>Germany</long_name>
   <short_name>DE</short_name>
   <type>country</type>
   <type>political</type>
  </address_component>
  <address_component>
   <long_name>06667</long_name>
   <short_name>06667</short_name>
   <type>postal_code</type>
  </address_component>
  <geometry>
   <location>
    <lat>51.2398526</lat>
    <lng>11.8843045</lng>
   </location>
   <location_type>GEOMETRIC_CENTER</location_type>
   <viewport>
    <southwest>
     <lat>51.2385104</lat>
     <lng>11.8829483</lng>
    </southwest>
    <northeast>
     <lat>51.2412083</lat>
     <lng>11.8856463</lng>
    </northeast>
   </viewport>
   <bounds>
    <southwest>
     <lat>51.2398057</lat>
     <lng>11.8841680</lng>
    </southwest>
    <northeast>
     <lat>51.2399130</lat>
     <lng>11.8844266</lng>
    </northeast>
   </bounds>
  </geometry>
  <partial_match>true</partial_match>
  <place_id>ChIJ42XwWN6PpkcRNBm-7k515q0</place_id>
 </result>
 <result>
  <type>route</type>
  <formatted_address>Tröglitz, Südstraße, 06729 Elsteraue, Germany</formatted_address>
  <address_component>
   <long_name>Südstraße</long_name>
   <short_name>Südstraße</short_name>
   <type>route</type>
  </address_component>
  <address_component>
   <long_name>Tröglitz</long_name>
   <short_name>Tröglitz</short_name>
   <type>political</type>
   <type>sublocality</type>
   <type>sublocality_level_1</type>
  </address_component>
  <address_component>
   <long_name>Elsteraue</long_name>
   <short_name>Elsteraue</short_name>
   <type>locality</type>
   <type>political</type>
  </address_component>
  <address_component>
   <long_name>Sachsen-Anhalt</long_name>
   <short_name>SA</short_name>
   <type>administrative_area_level_1</type>
   <type>political</type>
  </address_component>
  <address_component>
   <long_name>Germany</long_name>
   <short_name>DE</short_name>
   <type>country</type>
   <type>political</type>
  </address_component>
  <address_component>
   <long_name>06729</long_name>
   <short_name>06729</short_name>
   <type>postal_code</type>
  </address_component>
  <geometry>
   <location>
    <lat>51.0569954</lat>
    <lng>12.1834667</lng>
   </location>
   <location_type>GEOMETRIC_CENTER</location_type>
   <viewport>
    <southwest>
     <lat>51.0556579</lat>
     <lng>12.1821199</lng>
    </southwest>
    <northeast>
     <lat>51.0583558</lat>
     <lng>12.1848179</lng>
    </northeast>
   </viewport>
   <bounds>
    <southwest>
     <lat>51.0567242</lat>
     <lng>12.1828977</lng>
    </southwest>
    <northeast>
     <lat>51.0572895</lat>
     <lng>12.1840401</lng>
    </northeast>
   </bounds>
  </geometry>
  <partial_match>true</partial_match>
  <place_id>ChIJN_QhUy3opkcRiOPcoOVc9Hs</place_id>
 </result>
</GeocodeResponse>
