<?xml version="1.0" encoding="UTF-8"?>
<GeocodeResponse>
 <status>OK</status>
 <result>
  <type>route</type>
  <formatted_address>Südring, 2334, Austria</formatted_address>
  <address_component>
   <long_name>Südring</long_name>
   <short_name>Südring</short_name>
   <type>route</type>
  </address_component>
  <address_component>
   <long_name>Mödling</long_name>
   <short_name>Mödling</short_name>
   <type>administrative_area_level_2</type>
   <type>political</type>
  </address_component>
  <address_component>
   <long_name>Niederösterreich</long_name>
   <short_name>Niederösterreich</short_name>
   <type>administrative_area_level_1</type>
   <type>political</type>
  </address_component>
  <address_component>
   <long_name>Austria</long_name>
   <short_name>AT</short_name>
   <type>country</type>
   <type>political</type>
  </address_component>
  <address_component>
   <long_name>2334</long_name>
   <short_name>2334</short_name>
   <type>postal_code</type>
  </address_component>
  <geometry>
   <location>
    <lat>48.1049700</lat>
    <lng>16.3170800</lng>
   </location>
   <location_type>GEOMETRIC_CENTER</location_type>
   <viewport>
    <southwest>
     <lat>48.1028555</lat>
     <lng>16.3154035</lng>
    </southwest>
    <northeast>
     <lat>48.1056006</lat>
     <lng>16.3189900</lng>
    </northeast>
   </viewport>
   <bounds>
    <southwest>
     <lat>48.1028555</lat>
     <lng>16.3154035</lng>
    </southwest>
    <northeast>
     <lat>48.1056006</lat>
     <lng>16.3189900</lng>
    </northeast>
   </bounds>
  </geometry>
  <partial_match>true</partial_match>
  <place_id>ChIJrezBd9iubUcRifOoGjN41wY</place_id>
 </result>
 <result>
  <type>route</type>
  <formatted_address>Str. Süd, 2103 Langenzersdorf, Austria</formatted_address>
  <address_component>
   <long_name>Straße Süd</long_name>
   <short_name>Str. Süd</short_name>
   <type>route</type>
  </address_component>
  <address_component>
   <long_name>Langenzersdorf</long_name>
   <short_name>Langenzersdorf</short_name>
   <type>locality</type>
   <type>political</type>
  </address_component>
  <address_component>
   <long_name>Gemeinde Langenzersdorf</long_name>
   <short_name>Gemeinde Langenzersdorf</short_name>
   <type>administrative_area_level_3</type>
   <type>political</type>
  </address_component>
  <address_component>
   <long_name>Korneuburg</long_name>
   <short_name>Korneuburg</short_name>
   <type>administrative_area_level_2</type>
   <type>political</type>
  </address_component>
  <address_component>
   <long_name>Niederösterreich</long_name>
   <short_name>Niederösterreich</short_name>
   <type>administrative_area_level_1</type>
   <type>political</type>
  </address_component>
  <address_component>
   <long_name>Austria</long_name>
   <short_name>AT</short_name>
   <type>country</type>
   <type>political</type>
  </address_component>
  <address_component>
   <long_name>2103</long_name>
   <short_name>2103</short_name>
   <type>postal_code</type>
  </address_component>
  <geometry>
   <location>
    <lat>48.2935338</lat>
    <lng>16.3611981</lng>
   </location>
   <location_type>GEOMETRIC_CENTER</location_type>
   <viewport>
    <southwest>
     <lat>48.2921608</lat>
     <lng>16.3574747</lng>
    </southwest>
    <northeast>
     <lat>48.2953391</lat>
     <lng>16.3637089</lng>
    </northeast>
   </viewport>
   <bounds>
    <southwest>
     <lat>48.2921608</lat>
     <lng>16.3574747</lng>
    </southwest>
    <northeast>
     <lat>48.2953391</lat>
     <lng>16.3637089</lng>
    </northeast>
   </bounds>
  </geometry>
  <partial_match>true</partial_match>
  <place_id>ChIJ59n6f2cPbUcRNeN9kTReIVM</place_id>
 </result>
 <result>
  <type>campground</type>
  <type>establishment</type>
  <type>lodging</type>
  <type>park</type>
  <type>point_of_interest</type>
  <formatted_address>Camping Wien Süd, 1230 Wien, Austria</formatted_address>
  <address_component>
   <long_name>Camping Wien Süd</long_name>
   <short_name>Camping Wien Süd</short_name>
   <type>establishment</type>
   <type>point_of_interest</type>
  </address_component>
  <address_component>
   <long_name>Liesing</long_name>
   <short_name>Liesing</short_name>
   <type>political</type>
   <type>sublocality</type>
   <type>sublocality_level_1</type>
  </address_component>
  <address_component>
   <long_name>Wien</long_name>
   <short_name>Wien</short_name>
   <type>locality</type>
   <type>political</type>
  </address_component>
  <address_component>
   <long_name>Wien</long_name>
   <short_name>Wien</short_name>
   <type>administrative_area_level_1</type>
   <type>political</type>
  </address_component>
  <address_component>
   <long_name>Austria</long_name>
   <short_name>AT</short_name>
   <type>country</type>
   <type>political</type>
  </address_component>
  <address_component>
   <long_name>1230</long_name>
   <short_name>1230</short_name>
   <type>postal_code</type>
  </address_component>
  <geometry>
   <location>
    <lat>48.1494880</lat>
    <lng>16.3007810</lng>
   </location>
   <location_type>APPROXIMATE</location_type>
   <viewport>
    <southwest>
     <lat>48.1481390</lat>
     <lng>16.2994320</lng>
    </southwest>
    <northeast>
     <lat>48.1508370</lat>
     <lng>16.3021300</lng>
    </northeast>
   </viewport>
  </geometry>
  <partial_match>true</partial_match>
  <place_id>ChIJvT4XpZqobUcRdpBkLW4MWTE</place_id>
 </result>
</GeocodeResponse>
