<?xml version="1.0" encoding="UTF-8"?>
<GeocodeResponse>
 <status>OK</status>
 <result>
  <type>route</type>
  <formatted_address>North St, Lakes Entrance VIC 3909, Australia</formatted_address>
  <address_component>
   <long_name>North Street</long_name>
   <short_name>North St</short_name>
   <type>route</type>
  </address_component>
  <address_component>
   <long_name>Lakes Entrance</long_name>
   <short_name>Lakes Entrance</short_name>
   <type>locality</type>
   <type>political</type>
  </address_component>
  <address_component>
   <long_name>Victoria</long_name>
   <short_name>VIC</short_name>
   <type>administrative_area_level_1</type>
   <type>political</type>
  </address_component>
  <address_component>
   <long_name>Australia</long_name>
   <short_name>AU</short_name>
   <type>country</type>
   <type>political</type>
  </address_component>
  <address_component>
   <long_name>3909</long_name>
   <short_name>3909</short_name>
   <type>postal_code</type>
  </address_component>
  <geometry>
   <location>
    <lat>-37.8714379</lat>
    <lng>147.9978995</lng>
   </location>
   <location_type>GEOMETRIC_CENTER</location_type>
   <viewport>
    <southwest>
     <lat>-37.8723895</lat>
     <lng>147.9967149</lng>
    </southwest>
    <northeast>
     <lat>-37.8696915</lat>
     <lng>147.9994128</lng>
    </northeast>
   </viewport>
   <bounds>
    <southwest>
     <lat>-37.8717030</lat>
     <lng>147.9967730</lng>
    </southwest>
    <northeast>
     <lat>-37.8703780</lat>
     <lng>147.9993547</lng>
    </northeast>
   </bounds>
  </geometry>
  <partial_match>true</partial_match>
  <place_id>ChIJxyhEe3BgJWsRgFUEEniORN4</place_id>
 </result>
 <result>
  <type>route</type>
  <formatted_address>N Cunningham Ave, Urbana, IL, USA</formatted_address>
  <address_component>
   <long_name>North Cunningham Avenue</long_name>
   <short_name>N Cunningham Ave</short_name>
   <type>route</type>
  </address_component>
  <address_component>
   <long_name>Urbana</long_name>
   <short_name>Urbana</short_name>
   <type>locality</type>
   <type>political</type>
  </address_component>
  <address_component>
   <long_name>Champaign County</long_name>
   <short_name>Champaign County</short_name>
   <type>administrative_area_level_2</type>
   <type>political</type>
  </address_component>
  <address_component>
   <long_name>Illinois</long_name>
   <short_name>IL</short_name>
   <type>administrative_area_level_1</type>
   <type>political</type>
  </address_component>
  <address_component>
   <long_name>United States</long_name>
   <short_name>US</short_name>
   <type>country</type>
   <type>political</type>
  </address_component>
  <geometry>
   <location>
    <lat>40.1494123</lat>
    <lng>-88.1864660</lng>
   </location>
   <location_type>GEOMETRIC_CENTER</location_type>
   <viewport>
    <southwest>
     <lat>40.1162325</lat>
     <lng>-88.2051296</lng>
    </southwest>
    <northeast>
     <lat>40.1874448</lat>
     <lng>-88.1811139</lng>
    </northeast>
   </viewport>
   <bounds>
    <southwest>
     <lat>40.1162325</lat>
     <lng>-88.2051296</lng>
    </southwest>
    <northeast>
     <lat>40.1874448</lat>
     <lng>-88.1811139</lng>
    </northeast>
   </bounds>
  </geometry>
  <partial_match>true</partial_match>
  <place_id>ChIJFa_6cjvYDIgRS_UoDUVZiq8</place_id>
 </result>
 <result>
  <type>premise</type>
  <formatted_address>Cunninghame House, Irvine, North Ayrshire KA12 8EE, UK</formatted_address>
  <address_component>
   <long_name>Cunninghame House</long_name>
   <short_name>Cunninghame House</short_name>
   <type>premise</type>
  </address_component>
  <address_component>
   <long_name>Irvine</long_name>
   <short_name>Irvine</short_name>
   <type>locality</type>
   <type>political</type>
  </address_component>
  <address_component>
   <long_name>Irvine</long_name>
   <short_name>Irvine</short_name>
   <type>postal_town</type>
  </address_component>
  <address_component>
   <long_name>North Ayrshire</long_name>
   <short_name>North Ayrshire</short_name>
   <type>administrative_area_level_2</type>
   <type>political</type>
  </address_component>
  <address_component>
   <long_name>United Kingdom</long_name>
   <short_name>GB</short_name>
   <type>country</type>
   <type>political</type>
  </address_component>
  <address_component>
   <long_name>KA12 8EE</long_name>
   <short_name>KA12 8EE</short_name>
   <type>postal_code</type>
  </address_component>
  <geometry>
   <location>
    <lat>55.6131577</lat>
    <lng>-4.6741823</lng>
   </location>
   <location_type>ROOFTOP</location_type>
   <viewport>
    <southwest>
     <lat>55.6118110</lat>
     <lng>-4.6755649</lng>
    </southwest>
    <northeast>
     <lat>55.6145090</lat>
     <lng>-4.6728670</lng>
    </northeast>
   </viewport>
   <bounds>
    <southwest>
     <lat>55.6127730</lat>
     <lng>-4.6752271</lng>
    </southwest>
    <northeast>
     <lat>55.6135470</lat>
     <lng>-4.6732048</lng>
    </northeast>
   </bounds>
  </geometry>
  <partial_match>true</partial_match>
  <place_id>ChIJN27NXm_OiUgRZhTQAUjAh7w</place_id>
 </result>
 <result>
  <type>route</type>
  <formatted_address>N Cunningham Rd, Le Grand, CA 95333, USA</formatted_address>
  <address_component>
   <long_name>North Cunningham Road</long_name>
   <short_name>N Cunningham Rd</short_name>
   <type>route</type>
  </address_component>
  <address_component>
   <long_name>Le Grand</long_name>
   <short_name>Le Grand</short_name>
   <type>locality</type>
   <type>political</type>
  </address_component>
  <address_component>
   <long_name>Merced County</long_name>
   <short_name>Merced County</short_name>
   <type>administrative_area_level_2</type>
   <type>political</type>
  </address_component>
  <address_component>
   <long_name>California</long_name>
   <short_name>CA</short_name>
   <type>administrative_area_level_1</type>
   <type>political</type>
  </address_component>
  <address_component>
   <long_name>United States</long_name>
   <short_name>US</short_name>
   <type>country</type>
   <type>political</type>
  </address_component>
  <address_component>
   <long_name>95333</long_name>
   <short_name>95333</short_name>
   <type>postal_code</type>
  </address_component>
  <geometry>
   <location>
    <lat>37.3161024</lat>
    <lng>-120.2517733</lng>
   </location>
   <location_type>GEOMETRIC_CENTER</location_type>
   <viewport>
    <southwest>
     <lat>37.2872229</lat>
     <lng>-120.2629790</lng>
    </southwest>
    <northeast>
     <lat>37.3449420</lat>
     <lng>-120.2473380</lng>
    </northeast>
   </viewport>
   <bounds>
    <southwest>
     <lat>37.2872229</lat>
     <lng>-120.2629790</lng>
    </southwest>
    <northeast>
     <lat>37.3449420</lat>
     <lng>-120.2473380</lng>
    </northeast>
   </bounds>
  </geometry>
  <partial_match>true</partial_match>
  <place_id>ChIJc8lp8fVRkYARLIkNcL0_Csc</place_id>
 </result>
 <result>
  <type>route</type>
  <formatted_address>N Cunningham Rd, New Cambria, KS 67470, USA</formatted_address>
  <address_component>
   <long_name>North Cunningham Road</long_name>
   <short_name>N Cunningham Rd</short_name>
   <type>route</type>
  </address_component>
  <address_component>
   <long_name>New Cambria</long_name>
   <short_name>New Cambria</short_name>
   <type>locality</type>
   <type>political</type>
  </address_component>
  <address_component>
   <long_name>Cambria</long_name>
   <short_name>Cambria</short_name>
   <type>administrative_area_level_3</type>
   <type>political</type>
  </address_component>
  <address_component>
   <long_name>Saline County</long_name>
   <short_name>Saline County</short_name>
   <type>administrative_area_level_2</type>
   <type>political</type>
  </address_component>
  <address_component>
   <long_name>Kansas</long_name>
   <short_name>KS</short_name>
   <type>administrative_area_level_1</type>
   <type>political</type>
  </address_component>
  <address_component>
   <long_name>United States</long_name>
   <short_name>US</short_name>
   <type>country</type>
   <type>political</type>
  </address_component>
  <address_component>
   <long_name>67470</long_name>
   <short_name>67470</short_name>
   <type>postal_code</type>
  </address_component>
  <geometry>
   <location>
    <lat>38.9393921</lat>
    <lng>-97.5014191</lng>
   </location>
   <location_type>GEOMETRIC_CENTER</location_type>
   <viewport>
    <southwest>
     <lat>38.9142888</lat>
     <lng>-97.5083600</lng>
    </southwest>
    <northeast>
     <lat>38.9580314</lat>
     <lng>-97.4964160</lng>
    </northeast>
   </viewport>
   <bounds>
    <southwest>
     <lat>38.9142888</lat>
     <lng>-97.5083600</lng>
    </southwest>
    <northeast>
     <lat>38.9580314</lat>
     <lng>-97.4964160</lng>
    </northeast>
   </bounds>
  </geometry>
  <partial_match>true</partial_match>
  <place_id>ChIJJZVW7-rcvIcRdXj_vAmTU3w</place_id>
 </result>
 <result>
  <type>route</type>
  <formatted_address>N Cunningham Ave, Inverness, FL 34453, USA</formatted_address>
  <address_component>
   <long_name>North Cunningham Avenue</long_name>
   <short_name>N Cunningham Ave</short_name>
   <type>route</type>
  </address_component>
  <address_component>
   <long_name>Inverness</long_name>
   <short_name>Inverness</short_name>
   <type>locality</type>
   <type>political</type>
  </address_component>
  <address_component>
   <long_name>Citrus County</long_name>
   <short_name>Citrus County</short_name>
   <type>administrative_area_level_2</type>
   <type>political</type>
  </address_component>
  <address_component>
   <long_name>Florida</long_name>
   <short_name>FL</short_name>
   <type>administrative_area_level_1</type>
   <type>political</type>
  </address_component>
  <address_component>
   <long_name>United States</long_name>
   <short_name>US</short_name>
   <type>country</type>
   <type>political</type>
  </address_component>
  <address_component>
   <long_name>34453</long_name>
   <short_name>34453</short_name>
   <type>postal_code</type>
  </address_component>
  <geometry>
   <location>
    <lat>28.8635632</lat>
    <lng>-82.3643516</lng>
   </location>
   <location_type>GEOMETRIC_CENTER</location_type>
   <viewport>
    <southwest>
     <lat>28.8574830</lat>
     <lng>-82.3659668</lng>
    </southwest>
    <northeast>
     <lat>28.8693232</lat>
     <lng>-82.3632688</lng>
    </northeast>
   </viewport>
   <bounds>
    <southwest>
     <lat>28.8574830</lat>
     <lng>-82.3649430</lng>
    </southwest>
    <northeast>
     <lat>28.8693232</lat>
     <lng>-82.3642926</lng>
    </northeast>
   </bounds>
  </geometry>
  <partial_match>true</partial_match>
  <place_id>ChIJictddO1y6IgRR7woe23pMhI</place_id>
 </result>
 <result>
  <type>route</type>
  <formatted_address>Co Rte 10/10, North, WV 26440, USA</formatted_address>
  <address_component>
   <long_name>Cunningham</long_name>
   <short_name>Co Rte 10/10</short_name>
   <type>route</type>
  </address_component>
  <address_component>
   <long_name>North</long_name>
   <short_name>North</short_name>
   <type>administrative_area_level_3</type>
   <type>political</type>
  </address_component>
  <address_component>
   <long_name>Barbour County</long_name>
   <short_name>Barbour County</short_name>
   <type>administrative_area_level_2</type>
   <type>political</type>
  </address_component>
  <address_component>
   <long_name>West Virginia</long_name>
   <short_name>WV</short_name>
   <type>administrative_area_level_1</type>
   <type>political</type>
  </address_component>
  <address_component>
   <long_name>United States</long_name>
   <short_name>US</short_name>
   <type>country</type>
   <type>political</type>
  </address_component>
  <address_component>
   <long_name>26440</long_name>
   <short_name>26440</short_name>
   <type>postal_code</type>
  </address_component>
  <geometry>
   <location>
    <lat>39.2228826</lat>
    <lng>-79.9614391</lng>
   </location>
   <location_type>GEOMETRIC_CENTER</location_type>
   <viewport>
    <southwest>
     <lat>39.2208800</lat>
     <lng>-79.9626341</lng>
    </southwest>
    <northeast>
     <lat>39.2255674</lat>
     <lng>-79.9599361</lng>
    </northeast>
   </viewport>
   <bounds>
    <southwest>
     <lat>39.2208800</lat>
     <lng>-79.9625590</lng>
    </southwest>
    <northeast>
     <lat>39.2255674</lat>
     <lng>-79.9600112</lng>
    </northeast>
   </bounds>
  </geometry>
  <partial_match>true</partial_match>
  <place_id>ChIJ4X-rfymNSogR6tKTi6H2iGI</place_id>
 </result>
 <result>
  <type>route</type>
  <formatted_address>N Cunningham St, Rayne, LA 70578, USA</formatted_address>
  <address_component>
   <long_name>North Cunningham Street</long_name>
   <short_name>N Cunningham St</short_name>
   <type>route</type>
  </address_component>
  <address_component>
   <long_name>Rayne</long_name>
   <short_name>Rayne</short_name>
   <type>locality</type>
   <type>political</type>
  </address_component>
  <address_component>
   <long_name>5</long_name>
   <short_name>5</short_name>
   <type>administrative_area_level_3</type>
   <type>political</type>
  </address_component>
  <address_component>
   <long_name>Acadia Parish</long_name>
   <short_name>Acadia Parish</short_name>
   <type>administrative_area_level_2</type>
   <type>political</type>
  </address_component>
  <address_component>
   <long_name>Louisiana</long_name>
   <short_name>LA</short_name>
   <type>administrative_area_level_1</type>
   <type>political</type>
  </address_component>
  <address_component>
   <long_name>United States</long_name>
   <short_name>US</short_name>
   <type>country</type>
   <type>political</type>
  </address_component>
  <address_component>
   <long_name>70578</long_name>
   <short_name>70578</short_name>
   <type>postal_code</type>
  </address_component>
  <geometry>
   <location>
    <lat>30.2389420</lat>
    <lng>-92.2659081</lng>
   </location>
   <location_type>GEOMETRIC_CENTER</location_type>
   <viewport>
    <southwest>
     <lat>30.2358680</lat>
     <lng>-92.2672141</lng>
    </southwest>
    <northeast>
     <lat>30.2419567</lat>
     <lng>-92.2645161</lng>
    </northeast>
   </viewport>
   <bounds>
    <southwest>
     <lat>30.2358680</lat>
     <lng>-92.2662730</lng>
    </southwest>
    <northeast>
     <lat>30.2419567</lat>
     <lng>-92.2654572</lng>
    </northeast>
   </bounds>
  </geometry>
  <partial_match>true</partial_match>
  <place_id>ChIJvfuTmNOlJIYR8Y97_633Uuk</place_id>
 </result>
 <result>
  <type>route</type>
  <formatted_address>N Cunningham St, Marion, TX 78124, USA</formatted_address>
  <address_component>
   <long_name>North Cunningham Street</long_name>
   <short_name>N Cunningham St</short_name>
   <type>route</type>
  </address_component>
  <address_component>
   <long_name>Marion</long_name>
   <short_name>Marion</short_name>
   <type>locality</type>
   <type>political</type>
  </address_component>
  <address_component>
   <long_name>Guadalupe County</long_name>
   <short_name>Guadalupe County</short_name>
   <type>administrative_area_level_2</type>
   <type>political</type>
  </address_component>
  <address_component>
   <long_name>Texas</long_name>
   <short_name>TX</short_name>
   <type>administrative_area_level_1</type>
   <type>political</type>
  </address_component>
  <address_component>
   <long_name>United States</long_name>
   <short_name>US</short_name>
   <type>country</type>
   <type>political</type>
  </address_component>
  <address_component>
   <long_name>78124</long_name>
   <short_name>78124</short_name>
   <type>postal_code</type>
  </address_component>
  <geometry>
   <location>
    <lat>29.5736800</lat>
    <lng>-98.1443321</lng>
   </location>
   <location_type>GEOMETRIC_CENTER</location_type>
   <viewport>
    <southwest>
     <lat>29.5714266</lat>
     <lng>-98.1458514</lng>
    </southwest>
    <northeast>
     <lat>29.5761785</lat>
     <lng>-98.1431534</lng>
    </northeast>
   </viewport>
   <bounds>
    <southwest>
     <lat>29.5714266</lat>
     <lng>-98.1451247</lng>
    </southwest>
    <northeast>
     <lat>29.5761785</lat>
     <lng>-98.1438801</lng>
    </northeast>
   </bounds>
  </geometry>
  <partial_match>true</partial_match>
  <place_id>ChIJ5Vhpq3qVXIYRFIGNygPHU_w</place_id>
 </result>
</GeocodeResponse>
