<?xml version="1.0" encoding="UTF-8"?>
<GeocodeResponse>
 <status>OK</status>
 <result>
  <type>route</type>
  <formatted_address>Pentland Gardens, Edinburgh, Edinburgh EH10 6NW, UK</formatted_address>
  <address_component>
   <long_name>Pentland Gardens</long_name>
   <short_name>Pentland Gardens</short_name>
   <type>route</type>
  </address_component>
  <address_component>
   <long_name>Edinburgh</long_name>
   <short_name>Edinburgh</short_name>
   <type>locality</type>
   <type>political</type>
  </address_component>
  <address_component>
   <long_name>Edinburgh</long_name>
   <short_name>Edinburgh</short_name>
   <type>postal_town</type>
  </address_component>
  <address_component>
   <long_name>Edinburgh</long_name>
   <short_name>Edinburgh</short_name>
   <type>administrative_area_level_2</type>
   <type>political</type>
  </address_component>
  <address_component>
   <long_name>United Kingdom</long_name>
   <short_name>GB</short_name>
   <type>country</type>
   <type>political</type>
  </address_component>
  <address_component>
   <long_name>EH10 6NW</long_name>
   <short_name>EH10 6NW</short_name>
   <type>postal_code</type>
  </address_component>
  <geometry>
   <location>
    <lat>55.9114559</lat>
    <lng>-3.2157247</lng>
   </location>
   <location_type>GEOMETRIC_CENTER</location_type>
   <viewport>
    <southwest>
     <lat>55.9100778</lat>
     <lng>-3.2172582</lng>
    </southwest>
    <northeast>
     <lat>55.9127758</lat>
     <lng>-3.2145234</lng>
    </northeast>
   </viewport>
   <bounds>
    <southwest>
     <lat>55.9109007</lat>
     <lng>-3.2172582</lng>
    </southwest>
    <northeast>
     <lat>55.9119529</lat>
     <lng>-3.2145234</lng>
    </northeast>
   </bounds>
  </geometry>
  <partial_match>true</partial_match>
  <place_id>ChIJnaKWsTzHh0gRrlHyLNmr0-w</place_id>
 </result>
 <result>
  <type>route</type>
  <formatted_address>Pentland Ave, Edinburgh, Edinburgh EH13 0HZ, UK</formatted_address>
  <address_component>
   <long_name>Pentland Avenue</long_name>
   <short_name>Pentland Ave</short_name>
   <type>route</type>
  </address_component>
  <address_component>
   <long_name>Edinburgh</long_name>
   <short_name>Edinburgh</short_name>
   <type>locality</type>
   <type>political</type>
  </address_component>
  <address_component>
   <long_name>Edinburgh</long_name>
   <short_name>Edinburgh</short_name>
   <type>postal_town</type>
  </address_component>
  <address_component>
   <long_name>Edinburgh</long_name>
   <short_name>Edinburgh</short_name>
   <type>administrative_area_level_2</type>
   <type>political</type>
  </address_component>
  <address_component>
   <long_name>United Kingdom</long_name>
   <short_name>GB</short_name>
   <type>country</type>
   <type>political</type>
  </address_component>
  <address_component>
   <long_name>EH13 0HZ</long_name>
   <short_name>EH13 0HZ</short_name>
   <type>postal_code</type>
  </address_component>
  <geometry>
   <location>
    <lat>55.9078668</lat>
    <lng>-3.2633371</lng>
   </location>
   <location_type>GEOMETRIC_CENTER</location_type>
   <viewport>
    <southwest>
     <lat>55.9067312</lat>
     <lng>-3.2663821</lng>
    </southwest>
    <northeast>
     <lat>55.9094292</lat>
     <lng>-3.2601213</lng>
    </northeast>
   </viewport>
   <bounds>
    <southwest>
     <lat>55.9070958</lat>
     <lng>-3.2663821</lng>
    </southwest>
    <northeast>
     <lat>55.9090646</lat>
     <lng>-3.2601213</lng>
    </northeast>
   </bounds>
  </geometry>
  <partial_match>true</partial_match>
  <place_id>ChIJMdbw37jGh0gRAusZ4t-8r9M</place_id>
 </result>
 <result>
  <type>route</type>
  <formatted_address>Pentland Cres, Edinburgh, Edinburgh EH10 6NP, UK</formatted_address>
  <address_component>
   <long_name>Pentland Crescent</long_name>
   <short_name>Pentland Cres</short_name>
   <type>route</type>
  </address_component>
  <address_component>
   <long_name>Edinburgh</long_name>
   <short_name>Edinburgh</short_name>
   <type>locality</type>
   <type>political</type>
  </address_component>
  <address_component>
   <long_name>Edinburgh</long_name>
   <short_name>Edinburgh</short_name>
   <type>postal_town</type>
  </address_component>
  <address_component>
   <long_name>Edinburgh</long_name>
   <short_name>Edinburgh</short_name>
   <type>administrative_area_level_2</type>
   <type>political</type>
  </address_component>
  <address_component>
   <long_name>United Kingdom</long_name>
   <short_name>GB</short_name>
   <type>country</type>
   <type>political</type>
  </address_component>
  <address_component>
   <long_name>EH10 6NP</long_name>
   <short_name>EH10 6NP</short_name>
   <type>postal_code</type>
  </address_component>
  <geometry>
   <location>
    <lat>55.9101256</lat>
    <lng>-3.2135139</lng>
   </location>
   <location_type>GEOMETRIC_CENTER</location_type>
   <viewport>
    <southwest>
     <lat>55.9088716</lat>
     <lng>-3.2151537</lng>
    </southwest>
    <northeast>
     <lat>55.9115696</lat>
     <lng>-3.2124557</lng>
    </northeast>
   </viewport>
   <bounds>
    <southwest>
     <lat>55.9092280</lat>
     <lng>-3.2144581</lng>
    </southwest>
    <northeast>
     <lat>55.9112132</lat>
     <lng>-3.2131513</lng>
    </northeast>
   </bounds>
  </geometry>
  <partial_match>true</partial_match>
  <place_id>ChIJQe5JZDvHh0gR80M_ECr-D3g</place_id>
 </result>
 <result>
  <type>route</type>
  <formatted_address>Edinburgh S Dr, Cary, NC 27511, USA</formatted_address>
  <address_component>
   <long_name>Edinburgh South Drive</long_name>
   <short_name>Edinburgh S Dr</short_name>
   <type>route</type>
  </address_component>
  <address_component>
   <long_name>Cary</long_name>
   <short_name>Cary</short_name>
   <type>locality</type>
   <type>political</type>
  </address_component>
  <address_component>
   <long_name>White Oak</long_name>
   <short_name>White Oak</short_name>
   <type>administrative_area_level_3</type>
   <type>political</type>
  </address_component>
  <address_component>
   <long_name>Wake County</long_name>
   <short_name>Wake County</short_name>
   <type>administrative_area_level_2</type>
   <type>political</type>
  </address_component>
  <address_component>
   <long_name>North Carolina</long_name>
   <short_name>NC</short_name>
   <type>administrative_area_level_1</type>
   <type>political</type>
  </address_component>
  <address_component>
   <long_name>United States</long_name>
   <short_name>US</short_name>
   <type>country</type>
   <type>political</type>
  </address_component>
  <address_component>
   <long_name>27511</long_name>
   <short_name>27511</short_name>
   <type>postal_code</type>
  </address_component>
  <geometry>
   <location>
    <lat>35.7380294</lat>
    <lng>-78.8007854</lng>
   </location>
   <location_type>GEOMETRIC_CENTER</location_type>
   <viewport>
    <southwest>
     <lat>35.7358987</lat>
     <lng>-78.8051533</lng>
    </southwest>
    <northeast>
     <lat>35.7400017</lat>
     <lng>-78.7969025</lng>
    </northeast>
   </viewport>
   <bounds>
    <southwest>
     <lat>35.7358987</lat>
     <lng>-78.8051533</lng>
    </southwest>
    <northeast>
     <lat>35.7400017</lat>
     <lng>-78.7969025</lng>
    </northeast>
   </bounds>
  </geometry>
  <partial_match>true</partial_match>
  <place_id>ChIJsRtfJi2NrIkR4mPaE1i2HBc</place_id>
 </result>
 <result>
  <type>route</type>
  <formatted_address>Pentland Dr, Edinburgh, Edinburgh EH10 6PX, UK</formatted_address>
  <address_component>
   <long_name>Pentland Drive</long_name>
   <short_name>Pentland Dr</short_name>
   <type>route</type>
  </address_component>
  <address_component>
   <long_name>Edinburgh</long_name>
   <short_name>Edinburgh</short_name>
   <type>locality</type>
   <type>political</type>
  </address_component>
  <address_component>
   <long_name>Edinburgh</long_name>
   <short_name>Edinburgh</short_name>
   <type>postal_town</type>
  </address_component>
  <address_component>
   <long_name>Edinburgh</long_name>
   <short_name>Edinburgh</short_name>
   <type>administrative_area_level_2</type>
   <type>political</type>
  </address_component>
  <address_component>
   <long_name>United Kingdom</long_name>
   <short_name>GB</short_name>
   <type>country</type>
   <type>political</type>
  </address_component>
  <address_component>
   <long_name>EH10 6PX</long_name>
   <short_name>EH10 6PX</short_name>
   <type>postal_code</type>
  </address_component>
  <geometry>
   <location>
    <lat>55.9065184</lat>
    <lng>-3.2176137</lng>
   </location>
   <location_type>GEOMETRIC_CENTER</location_type>
   <viewport>
    <southwest>
     <lat>55.9052099</lat>
     <lng>-3.2188309</lng>
    </southwest>
    <northeast>
     <lat>55.9079078</lat>
     <lng>-3.2161330</lng>
    </northeast>
   </viewport>
   <bounds>
    <southwest>
     <lat>55.9054476</lat>
     <lng>-3.2186503</lng>
    </southwest>
    <northeast>
     <lat>55.9076701</lat>
     <lng>-3.2163136</lng>
    </northeast>
   </bounds>
  </geometry>
  <partial_match>true</partial_match>
  <place_id>ChIJHSXEPyXHh0gRjXM9ey1_xsI</place_id>
 </result>
 <result>
  <type>route</type>
  <formatted_address>Pentland Terrace, Edinburgh, Edinburgh EH10 6HD, UK</formatted_address>
  <address_component>
   <long_name>Pentland Terrace</long_name>
   <short_name>Pentland Terrace</short_name>
   <type>route</type>
  </address_component>
  <address_component>
   <long_name>Edinburgh</long_name>
   <short_name>Edinburgh</short_name>
   <type>locality</type>
   <type>political</type>
  </address_component>
  <address_component>
   <long_name>Edinburgh</long_name>
   <short_name>Edinburgh</short_name>
   <type>postal_town</type>
  </address_component>
  <address_component>
   <long_name>Edinburgh</long_name>
   <short_name>Edinburgh</short_name>
   <type>administrative_area_level_2</type>
   <type>political</type>
  </address_component>
  <address_component>
   <long_name>United Kingdom</long_name>
   <short_name>GB</short_name>
   <type>country</type>
   <type>political</type>
  </address_component>
  <address_component>
   <long_name>EH10 6HD</long_name>
   <short_name>EH10 6HD</short_name>
   <type>postal_code</type>
  </address_component>
  <geometry>
   <location>
    <lat>55.9108382</lat>
    <lng>-3.2118108</lng>
   </location>
   <location_type>GEOMETRIC_CENTER</location_type>
   <viewport>
    <southwest>
     <lat>55.9089571</lat>
     <lng>-3.2133063</lng>
    </southwest>
    <northeast>
     <lat>55.9166807</lat>
     <lng>-3.2101544</lng>
    </northeast>
   </viewport>
   <bounds>
    <southwest>
     <lat>55.9089571</lat>
     <lng>-3.2133063</lng>
    </southwest>
    <northeast>
     <lat>55.9166807</lat>
     <lng>-3.2101544</lng>
    </northeast>
   </bounds>
  </geometry>
  <partial_match>true</partial_match>
  <place_id>ChIJ1Qh6RTzHh0gRtJJAXneDAtc</place_id>
 </result>
 <result>
  <type>route</type>
  <formatted_address>Pentland Rd, Edinburgh, Edinburgh EH13 0JA, UK</formatted_address>
  <address_component>
   <long_name>Pentland Road</long_name>
   <short_name>Pentland Rd</short_name>
   <type>route</type>
  </address_component>
  <address_component>
   <long_name>Edinburgh</long_name>
   <short_name>Edinburgh</short_name>
   <type>locality</type>
   <type>political</type>
  </address_component>
  <address_component>
   <long_name>Edinburgh</long_name>
   <short_name>Edinburgh</short_name>
   <type>postal_town</type>
  </address_component>
  <address_component>
   <long_name>Edinburgh</long_name>
   <short_name>Edinburgh</short_name>
   <type>administrative_area_level_2</type>
   <type>political</type>
  </address_component>
  <address_component>
   <long_name>United Kingdom</long_name>
   <short_name>GB</short_name>
   <type>country</type>
   <type>political</type>
  </address_component>
  <address_component>
   <long_name>EH13 0JA</long_name>
   <short_name>EH13 0JA</short_name>
   <type>postal_code</type>
  </address_component>
  <geometry>
   <location>
    <lat>55.9083861</lat>
    <lng>-3.2642072</lng>
   </location>
   <location_type>GEOMETRIC_CENTER</location_type>
   <viewport>
    <southwest>
     <lat>55.9070677</lat>
     <lng>-3.2656747</lng>
    </southwest>
    <northeast>
     <lat>55.9097657</lat>
     <lng>-3.2629768</lng>
    </northeast>
   </viewport>
   <bounds>
    <southwest>
     <lat>55.9077673</lat>
     <lng>-3.2649525</lng>
    </southwest>
    <northeast>
     <lat>55.9090661</lat>
     <lng>-3.2636990</lng>
    </northeast>
   </bounds>
  </geometry>
  <partial_match>true</partial_match>
  <place_id>ChIJZbpAO7nGh0gRss3hCeCqNs4</place_id>
 </result>
 <result>
  <type>route</type>
  <formatted_address>Pentland Grove, Edinburgh, Edinburgh EH10 6NR, UK</formatted_address>
  <address_component>
   <long_name>Pentland Grove</long_name>
   <short_name>Pentland Grove</short_name>
   <type>route</type>
  </address_component>
  <address_component>
   <long_name>Edinburgh</long_name>
   <short_name>Edinburgh</short_name>
   <type>locality</type>
   <type>political</type>
  </address_component>
  <address_component>
   <long_name>Edinburgh</long_name>
   <short_name>Edinburgh</short_name>
   <type>postal_town</type>
  </address_component>
  <address_component>
   <long_name>Edinburgh</long_name>
   <short_name>Edinburgh</short_name>
   <type>administrative_area_level_2</type>
   <type>political</type>
  </address_component>
  <address_component>
   <long_name>United Kingdom</long_name>
   <short_name>GB</short_name>
   <type>country</type>
   <type>political</type>
  </address_component>
  <address_component>
   <long_name>EH10 6NR</long_name>
   <short_name>EH10 6NR</short_name>
   <type>postal_code</type>
  </address_component>
  <geometry>
   <location>
    <lat>55.9096020</lat>
    <lng>-3.2127696</lng>
   </location>
   <location_type>GEOMETRIC_CENTER</location_type>
   <viewport>
    <southwest>
     <lat>55.9083764</lat>
     <lng>-3.2142618</lng>
    </southwest>
    <northeast>
     <lat>55.9110744</lat>
     <lng>-3.2115639</lng>
    </northeast>
   </viewport>
   <bounds>
    <southwest>
     <lat>55.9094916</lat>
     <lng>-3.2138318</lng>
    </southwest>
    <northeast>
     <lat>55.9099592</lat>
     <lng>-3.2119939</lng>
    </northeast>
   </bounds>
  </geometry>
  <partial_match>true</partial_match>
  <place_id>ChIJ7ThTcTvHh0gRXFd2Nx56GtE</place_id>
 </result>
 <result>
  <type>route</type>
  <formatted_address>South Bridge, Edinburgh, Edinburgh, Edinburgh EH1, UK</formatted_address>
  <address_component>
   <long_name>South Bridge</long_name>
   <short_name>South Bridge</short_name>
   <type>route</type>
  </address_component>
  <address_component>
   <long_name>Edinburgh</long_name>
   <short_name>Edinburgh</short_name>
   <type>locality</type>
   <type>political</type>
  </address_component>
  <address_component>
   <long_name>Edinburgh</long_name>
   <short_name>Edinburgh</short_name>
   <type>postal_town</type>
  </address_component>
  <address_component>
   <long_name>Edinburgh</long_name>
   <short_name>Edinburgh</short_name>
   <type>administrative_area_level_2</type>
   <type>political</type>
  </address_component>
  <address_component>
   <long_name>United Kingdom</long_name>
   <short_name>GB</short_name>
   <type>country</type>
   <type>political</type>
  </address_component>
  <address_component>
   <long_name>EH1</long_name>
   <short_name>EH1</short_name>
   <type>postal_code_prefix</type>
   <type>postal_code</type>
  </address_component>
  <geometry>
   <location>
    <lat>55.9486295</lat>
    <lng>-3.1867899</lng>
   </location>
   <location_type>GEOMETRIC_CENTER</location_type>
   <viewport>
    <southwest>
     <lat>55.9469551</lat>
     <lng>-3.1884358</lng>
    </southwest>
    <northeast>
     <lat>55.9501825</lat>
     <lng>-3.1857379</lng>
    </northeast>
   </viewport>
   <bounds>
    <southwest>
     <lat>55.9469551</lat>
     <lng>-3.1882859</lng>
    </southwest>
    <northeast>
     <lat>55.9501825</lat>
     <lng>-3.1858878</lng>
    </northeast>
   </bounds>
  </geometry>
  <partial_match>true</partial_match>
  <place_id>ChIJgXj2u4XHh0gRNbahAUQUofQ</place_id>
 </result>
 <result>
  <type>premise</type>
  <formatted_address>Pentland House, Damhead, Edinburgh, Midlothian EH10 7DP, UK</formatted_address>
  <address_component>
   <long_name>Pentland House</long_name>
   <short_name>Pentland House</short_name>
   <type>premise</type>
  </address_component>
  <address_component>
   <long_name>Damhead</long_name>
   <short_name>Damhead</short_name>
   <type>locality</type>
   <type>political</type>
  </address_component>
  <address_component>
   <long_name>Edinburgh</long_name>
   <short_name>Edinburgh</short_name>
   <type>postal_town</type>
  </address_component>
  <address_component>
   <long_name>Midlothian</long_name>
   <short_name>Midlothian</short_name>
   <type>administrative_area_level_2</type>
   <type>political</type>
  </address_component>
  <address_component>
   <long_name>United Kingdom</long_name>
   <short_name>GB</short_name>
   <type>country</type>
   <type>political</type>
  </address_component>
  <address_component>
   <long_name>EH10 7DP</long_name>
   <short_name>EH10 7DP</short_name>
   <type>postal_code</type>
  </address_component>
  <geometry>
   <location>
    <lat>55.8782286</lat>
    <lng>-3.1850497</lng>
   </location>
   <location_type>ROOFTOP</location_type>
   <viewport>
    <southwest>
     <lat>55.8768796</lat>
     <lng>-3.1863987</lng>
    </southwest>
    <northeast>
     <lat>55.8795776</lat>
     <lng>-3.1837007</lng>
    </northeast>
   </viewport>
  </geometry>
  <partial_match>true</partial_match>
  <place_id>ChIJMfmBYLvAh0gR_BUeSZrKrPk</place_id>
 </result>
</GeocodeResponse>
