<?xml version="1.0" encoding="UTF-8"?>
<GeocodeResponse>
 <status>OK</status>
 <result>
  <type>administrative_area_level_2</type>
  <type>political</type>
  <formatted_address>Midlothian, UK</formatted_address>
  <address_component>
   <long_name>Midlothian</long_name>
   <short_name>Midlothian</short_name>
   <type>administrative_area_level_2</type>
   <type>political</type>
  </address_component>
  <address_component>
   <long_name>Scotland</long_name>
   <short_name>Scotland</short_name>
   <type>administrative_area_level_1</type>
   <type>political</type>
  </address_component>
  <address_component>
   <long_name>United Kingdom</long_name>
   <short_name>GB</short_name>
   <type>country</type>
   <type>political</type>
  </address_component>
  <geometry>
   <location>
    <lat>55.8745653</lat>
    <lng>-3.1053530</lng>
   </location>
   <location_type>APPROXIMATE</location_type>
   <viewport>
    <southwest>
     <lat>55.7103492</lat>
     <lng>-3.3690393</lng>
    </southwest>
    <northeast>
     <lat>55.9320234</lat>
     <lng>-2.8462381</lng>
    </northeast>
   </viewport>
   <bounds>
    <southwest>
     <lat>55.7103492</lat>
     <lng>-3.3690393</lng>
    </southwest>
    <northeast>
     <lat>55.9320234</lat>
     <lng>-2.8462381</lng>
    </northeast>
   </bounds>
  </geometry>
  <partial_match>true</partial_match>
  <place_id>ChIJZ7buTdWUh0gRMR4ePyT9MbY</place_id>
 </result>
 <result>
  <type>locality</type>
  <type>political</type>
  <formatted_address>Midlothian, VA 23113, USA</formatted_address>
  <address_component>
   <long_name>Midlothian</long_name>
   <short_name>Midlothian</short_name>
   <type>locality</type>
   <type>political</type>
  </address_component>
  <address_component>
   <long_name>Midlothian</long_name>
   <short_name>Midlothian</short_name>
   <type>administrative_area_level_3</type>
   <type>political</type>
  </address_component>
  <address_component>
   <long_name>Chesterfield County</long_name>
   <short_name>Chesterfield County</short_name>
   <type>administrative_area_level_2</type>
   <type>political</type>
  </address_component>
  <address_component>
   <long_name>Virginia</long_name>
   <short_name>VA</short_name>
   <type>administrative_area_level_1</type>
   <type>political</type>
  </address_component>
  <address_component>
   <long_name>United States</long_name>
   <short_name>US</short_name>
   <type>country</type>
   <type>political</type>
  </address_component>
  <address_component>
   <long_name>23113</long_name>
   <short_name>23113</short_name>
   <type>postal_code</type>
  </address_component>
  <geometry>
   <location>
    <lat>37.5059814</lat>
    <lng>-77.6491578</lng>
   </location>
   <location_type>APPROXIMATE</location_type>
   <viewport>
    <southwest>
     <lat>37.5046324</lat>
     <lng>-77.6505068</lng>
    </southwest>
    <northeast>
     <lat>37.5073304</lat>
     <lng>-77.6478088</lng>
    </northeast>
   </viewport>
  </geometry>
  <partial_match>true</partial_match>
  <place_id>ChIJ11Q_6vttsYkROaTEZ4Ey7Fw</place_id>
 </result>
 <result>
  <type>locality</type>
  <type>political</type>
  <formatted_address>Midlothian, TX, USA</formatted_address>
  <address_component>
   <long_name>Midlothian</long_name>
   <short_name>Midlothian</short_name>
   <type>locality</type>
   <type>political</type>
  </address_component>
  <address_component>
   <long_name>Ellis County</long_name>
   <short_name>Ellis County</short_name>
   <type>administrative_area_level_2</type>
   <type>political</type>
  </address_component>
  <address_component>
   <long_name>Texas</long_name>
   <short_name>TX</short_name>
   <type>administrative_area_level_1</type>
   <type>political</type>
  </address_component>
  <address_component>
   <long_name>United States</long_name>
   <short_name>US</short_name>
   <type>country</type>
   <type>political</type>
  </address_component>
  <geometry>
   <location>
    <lat>32.4823610</lat>
    <lng>-96.9944489</lng>
   </location>
   <location_type>APPROXIMATE</location_type>
   <viewport>
    <southwest>
     <lat>32.3932828</lat>
     <lng>-97.0753109</lng>
    </southwest>
    <northeast>
     <lat>32.5456341</lat>
     <lng>-96.9020949</lng>
    </northeast>
   </viewport>
   <bounds>
    <southwest>
     <lat>32.3932828</lat>
     <lng>-97.0753109</lng>
    </southwest>
    <northeast>
     <lat>32.5456341</lat>
     <lng>-96.9020949</lng>
    </northeast>
   </bounds>
  </geometry>
  <partial_match>true</partial_match>
  <place_id>ChIJA3U0srSSToYRGa_ekbcbyJg</place_id>
 </result>
 <result>
  <type>locality</type>
  <type>political</type>
  <formatted_address>Midlothian, IL 60445, USA</formatted_address>
  <address_component>
   <long_name>Midlothian</long_name>
   <short_name>Midlothian</short_name>
   <type>locality</type>
   <type>political</type>
  </address_component>
  <address_component>
   <long_name>Bremen Township</long_name>
   <short_name>Bremen Township</short_name>
   <type>administrative_area_level_3</type>
   <type>political</type>
  </address_component>
  <address_component>
   <long_name>Cook County</long_name>
   <short_name>Cook County</short_name>
   <type>administrative_area_level_2</type>
   <type>political</type>
  </address_component>
  <address_component>
   <long_name>Illinois</long_name>
   <short_name>IL</short_name>
   <type>administrative_area_level_1</type>
   <type>political</type>
  </address_component>
  <address_component>
   <long_name>United States</long_name>
   <short_name>US</short_name>
   <type>country</type>
   <type>political</type>
  </address_component>
  <address_component>
   <long_name>60445</long_name>
   <short_name>60445</short_name>
   <type>postal_code</type>
  </address_component>
  <geometry>
   <location>
    <lat>41.6253116</lat>
    <lng>-87.7175491</lng>
   </location>
   <location_type>APPROXIMATE</location_type>
   <viewport>
    <southwest>
     <lat>41.6111329</lat>
     <lng>-87.7568501</lng>
    </southwest>
    <northeast>
     <lat>41.6373860</lat>
     <lng>-87.6980481</lng>
    </northeast>
   </viewport>
   <bounds>
    <southwest>
     <lat>41.6111329</lat>
     <lng>-87.7568501</lng>
    </southwest>
    <northeast>
     <lat>41.6373860</lat>
     <lng>-87.6980481</lng>
    </northeast>
   </bounds>
  </geometry>
  <partial_match>true</partial_match>
  <place_id>ChIJY6YalOwVDogR8rH_lTZOg6M</place_id>
 </result>
</GeocodeResponse>
