<?xml version="1.0" encoding="UTF-8"?>
<GeocodeResponse>
 <status>OK</status>
 <result>
  <type>route</type>
  <formatted_address>N East St, Edinburgh, IN 46124, USA</formatted_address>
  <address_component>
   <long_name>North East Street</long_name>
   <short_name>N East St</short_name>
   <type>route</type>
  </address_component>
  <address_component>
   <long_name>Edinburgh</long_name>
   <short_name>Edinburgh</short_name>
   <type>locality</type>
   <type>political</type>
  </address_component>
  <address_component>
   <long_name>German Township</long_name>
   <short_name>German Township</short_name>
   <type>administrative_area_level_3</type>
   <type>political</type>
  </address_component>
  <address_component>
   <long_name>Bartholomew County</long_name>
   <short_name>Bartholomew County</short_name>
   <type>administrative_area_level_2</type>
   <type>political</type>
  </address_component>
  <address_component>
   <long_name>Indiana</long_name>
   <short_name>IN</short_name>
   <type>administrative_area_level_1</type>
   <type>political</type>
  </address_component>
  <address_component>
   <long_name>United States</long_name>
   <short_name>US</short_name>
   <type>country</type>
   <type>political</type>
  </address_component>
  <address_component>
   <long_name>46124</long_name>
   <short_name>46124</short_name>
   <type>postal_code</type>
  </address_component>
  <geometry>
   <location>
    <lat>39.3014279</lat>
    <lng>-85.9508297</lng>
   </location>
   <location_type>GEOMETRIC_CENTER</location_type>
   <viewport>
    <southwest>
     <lat>39.2977507</lat>
     <lng>-85.9519201</lng>
    </southwest>
    <northeast>
     <lat>39.3032773</lat>
     <lng>-85.9492221</lng>
    </northeast>
   </viewport>
   <bounds>
    <southwest>
     <lat>39.2977507</lat>
     <lng>-85.9512707</lng>
    </southwest>
    <northeast>
     <lat>39.3032773</lat>
     <lng>-85.9498715</lng>
    </northeast>
   </bounds>
  </geometry>
  <partial_match>true</partial_match>
  <place_id>ChIJfYScY910a4gRsvooaPsNWt8</place_id>
 </result>
 <result>
  <formatted_address>Edinburgh, Apple Creek, OH 44606, USA</formatted_address>
  <address_component>
   <long_name>Edinburgh</long_name>
   <short_name>Edinburgh</short_name>
  </address_component>
  <address_component>
   <long_name>Apple Creek</long_name>
   <short_name>Apple Creek</short_name>
   <type>locality</type>
   <type>political</type>
  </address_component>
  <address_component>
   <long_name>East Union Township</long_name>
   <short_name>East Union Township</short_name>
   <type>administrative_area_level_3</type>
   <type>political</type>
  </address_component>
  <address_component>
   <long_name>Wayne County</long_name>
   <short_name>Wayne County</short_name>
   <type>administrative_area_level_2</type>
   <type>political</type>
  </address_component>
  <address_component>
   <long_name>Ohio</long_name>
   <short_name>OH</short_name>
   <type>administrative_area_level_1</type>
   <type>political</type>
  </address_component>
  <address_component>
   <long_name>United States</long_name>
   <short_name>US</short_name>
   <type>country</type>
   <type>political</type>
  </address_component>
  <address_component>
   <long_name>44606</long_name>
   <short_name>44606</short_name>
   <type>postal_code</type>
  </address_component>
  <geometry>
   <location>
    <lat>40.7553341</lat>
    <lng>-81.8440264</lng>
   </location>
   <location_type>APPROXIMATE</location_type>
   <viewport>
    <southwest>
     <lat>40.7539851</lat>
     <lng>-81.8453754</lng>
    </southwest>
    <northeast>
     <lat>40.7566831</lat>
     <lng>-81.8426774</lng>
    </northeast>
   </viewport>
  </geometry>
  <partial_match>true</partial_match>
  <place_id>ChIJbf8-Cco4N4gRHmb5Nb8I-sM</place_id>
 </result>
 <result>
  <type>route</type>
  <formatted_address>Edinburgh St, Eastern Heights QLD 4305, Australia</formatted_address>
  <address_component>
   <long_name>Edinburgh Street</long_name>
   <short_name>Edinburgh St</short_name>
   <type>route</type>
  </address_component>
  <address_component>
   <long_name>Eastern Heights</long_name>
   <short_name>Eastern Heights</short_name>
   <type>locality</type>
   <type>political</type>
  </address_component>
  <address_component>
   <long_name>Queensland</long_name>
   <short_name>QLD</short_name>
   <type>administrative_area_level_1</type>
   <type>political</type>
  </address_component>
  <address_component>
   <long_name>Australia</long_name>
   <short_name>AU</short_name>
   <type>country</type>
   <type>political</type>
  </address_component>
  <address_component>
   <long_name>4305</long_name>
   <short_name>4305</short_name>
   <type>postal_code</type>
  </address_component>
  <geometry>
   <location>
    <lat>-27.6322403</lat>
    <lng>152.7742769</lng>
   </location>
   <location_type>GEOMETRIC_CENTER</location_type>
   <viewport>
    <southwest>
     <lat>-27.6334398</lat>
     <lng>152.7730870</lng>
    </southwest>
    <northeast>
     <lat>-27.6307419</lat>
     <lng>152.7757850</lng>
    </northeast>
   </viewport>
   <bounds>
    <southwest>
     <lat>-27.6330559</lat>
     <lng>152.7739530</lng>
    </southwest>
    <northeast>
     <lat>-27.6311258</lat>
     <lng>152.7749190</lng>
    </northeast>
   </bounds>
  </geometry>
  <partial_match>true</partial_match>
  <place_id>ChIJfTab7au1lmsRuE_0KgRfqJM</place_id>
 </result>
 <result>
  <type>route</type>
  <formatted_address>Edinburgh Rd, Blackburn South VIC 3130, Australia</formatted_address>
  <address_component>
   <long_name>Edinburgh Road</long_name>
   <short_name>Edinburgh Rd</short_name>
   <type>route</type>
  </address_component>
  <address_component>
   <long_name>Blackburn South</long_name>
   <short_name>Blackburn South</short_name>
   <type>locality</type>
   <type>political</type>
  </address_component>
  <address_component>
   <long_name>Victoria</long_name>
   <short_name>VIC</short_name>
   <type>administrative_area_level_1</type>
   <type>political</type>
  </address_component>
  <address_component>
   <long_name>Australia</long_name>
   <short_name>AU</short_name>
   <type>country</type>
   <type>political</type>
  </address_component>
  <address_component>
   <long_name>3130</long_name>
   <short_name>3130</short_name>
   <type>postal_code</type>
  </address_component>
  <geometry>
   <location>
    <lat>-37.8371589</lat>
    <lng>145.1423554</lng>
   </location>
   <location_type>GEOMETRIC_CENTER</location_type>
   <viewport>
    <southwest>
     <lat>-37.8385980</lat>
     <lng>145.1383400</lng>
    </southwest>
    <northeast>
     <lat>-37.8359000</lat>
     <lng>145.1466524</lng>
    </northeast>
   </viewport>
   <bounds>
    <southwest>
     <lat>-37.8379970</lat>
     <lng>145.1383400</lng>
    </southwest>
    <northeast>
     <lat>-37.8365010</lat>
     <lng>145.1466524</lng>
    </northeast>
   </bounds>
  </geometry>
  <partial_match>true</partial_match>
  <place_id>ChIJ07q2yWA_1moR6rnWB4Fl51k</place_id>
 </result>
 <result>
  <type>route</type>
  <formatted_address>Edinburgh St, Richmond VIC 3121, Australia</formatted_address>
  <address_component>
   <long_name>Edinburgh Street</long_name>
   <short_name>Edinburgh St</short_name>
   <type>route</type>
  </address_component>
  <address_component>
   <long_name>Richmond</long_name>
   <short_name>Richmond</short_name>
   <type>locality</type>
   <type>political</type>
  </address_component>
  <address_component>
   <long_name>Victoria</long_name>
   <short_name>VIC</short_name>
   <type>administrative_area_level_1</type>
   <type>political</type>
  </address_component>
  <address_component>
   <long_name>Australia</long_name>
   <short_name>AU</short_name>
   <type>country</type>
   <type>political</type>
  </address_component>
  <address_component>
   <long_name>3121</long_name>
   <short_name>3121</short_name>
   <type>postal_code</type>
  </address_component>
  <geometry>
   <location>
    <lat>-37.8247407</lat>
    <lng>145.0057594</lng>
   </location>
   <location_type>GEOMETRIC_CENTER</location_type>
   <viewport>
    <southwest>
     <lat>-37.8265168</lat>
     <lng>145.0044455</lng>
    </southwest>
    <northeast>
     <lat>-37.8229166</lat>
     <lng>145.0071435</lng>
    </northeast>
   </viewport>
   <bounds>
    <southwest>
     <lat>-37.8265168</lat>
     <lng>145.0051860</lng>
    </southwest>
    <northeast>
     <lat>-37.8229166</lat>
     <lng>145.0064030</lng>
    </northeast>
   </bounds>
  </geometry>
  <partial_match>true</partial_match>
  <place_id>ChIJx6OBeF9C1moRO4POMyoyyQU</place_id>
 </result>
 <result>
  <type>route</type>
  <formatted_address>E Edinburgh Dr, New Castle, DE 19720, USA</formatted_address>
  <address_component>
   <long_name>East Edinburgh Drive</long_name>
   <short_name>E Edinburgh Dr</short_name>
   <type>route</type>
  </address_component>
  <address_component>
   <long_name>New Castle</long_name>
   <short_name>New Castle</short_name>
   <type>locality</type>
   <type>political</type>
  </address_component>
  <address_component>
   <long_name>New Castle County</long_name>
   <short_name>New Castle County</short_name>
   <type>administrative_area_level_2</type>
   <type>political</type>
  </address_component>
  <address_component>
   <long_name>Delaware</long_name>
   <short_name>DE</short_name>
   <type>administrative_area_level_1</type>
   <type>political</type>
  </address_component>
  <address_component>
   <long_name>United States</long_name>
   <short_name>US</short_name>
   <type>country</type>
   <type>political</type>
  </address_component>
  <address_component>
   <long_name>19720</long_name>
   <short_name>19720</short_name>
   <type>postal_code</type>
  </address_component>
  <geometry>
   <location>
    <lat>39.6666787</lat>
    <lng>-75.6302551</lng>
   </location>
   <location_type>GEOMETRIC_CENTER</location_type>
   <viewport>
    <southwest>
     <lat>39.6636988</lat>
     <lng>-75.6336885</lng>
    </southwest>
    <northeast>
     <lat>39.6690979</lat>
     <lng>-75.6295250</lng>
    </northeast>
   </viewport>
   <bounds>
    <southwest>
     <lat>39.6636988</lat>
     <lng>-75.6336885</lng>
    </southwest>
    <northeast>
     <lat>39.6690979</lat>
     <lng>-75.6295250</lng>
    </northeast>
   </bounds>
  </geometry>
  <partial_match>true</partial_match>
  <place_id>ChIJv4cRCVABx4kRNNl-0dzkPEU</place_id>
 </result>
 <result>
  <type>route</type>
  <formatted_address>East Ave, Edinburgh SA 5111, Australia</formatted_address>
  <address_component>
   <long_name>East Avenue</long_name>
   <short_name>East Ave</short_name>
   <type>route</type>
  </address_component>
  <address_component>
   <long_name>Edinburgh</long_name>
   <short_name>Edinburgh</short_name>
   <type>locality</type>
   <type>political</type>
  </address_component>
  <address_component>
   <long_name>South Australia</long_name>
   <short_name>SA</short_name>
   <type>administrative_area_level_1</type>
   <type>political</type>
  </address_component>
  <address_component>
   <long_name>Australia</long_name>
   <short_name>AU</short_name>
   <type>country</type>
   <type>political</type>
  </address_component>
  <address_component>
   <long_name>5111</long_name>
   <short_name>5111</short_name>
   <type>postal_code</type>
  </address_component>
  <geometry>
   <location>
    <lat>-34.7142465</lat>
    <lng>138.6512424</lng>
   </location>
   <location_type>GEOMETRIC_CENTER</location_type>
   <viewport>
    <southwest>
     <lat>-34.7197976</lat>
     <lng>138.6477439</lng>
    </southwest>
    <northeast>
     <lat>-34.7095070</lat>
     <lng>138.6568267</lng>
    </northeast>
   </viewport>
   <bounds>
    <southwest>
     <lat>-34.7197976</lat>
     <lng>138.6477439</lng>
    </southwest>
    <northeast>
     <lat>-34.7095070</lat>
     <lng>138.6568267</lng>
    </northeast>
   </bounds>
  </geometry>
  <partial_match>true</partial_match>
  <place_id>ChIJiwkWzPatsGoRQU596FhSF9U</place_id>
 </result>
 <result>
  <type>route</type>
  <formatted_address>Edinburgh St, Box Hill South VIC 3128, Australia</formatted_address>
  <address_component>
   <long_name>Edinburgh Street</long_name>
   <short_name>Edinburgh St</short_name>
   <type>route</type>
  </address_component>
  <address_component>
   <long_name>Box Hill South</long_name>
   <short_name>Box Hill South</short_name>
   <type>locality</type>
   <type>political</type>
  </address_component>
  <address_component>
   <long_name>Victoria</long_name>
   <short_name>VIC</short_name>
   <type>administrative_area_level_1</type>
   <type>political</type>
  </address_component>
  <address_component>
   <long_name>Australia</long_name>
   <short_name>AU</short_name>
   <type>country</type>
   <type>political</type>
  </address_component>
  <address_component>
   <long_name>3128</long_name>
   <short_name>3128</short_name>
   <type>postal_code</type>
  </address_component>
  <geometry>
   <location>
    <lat>-37.8295588</lat>
    <lng>145.1204910</lng>
   </location>
   <location_type>GEOMETRIC_CENTER</location_type>
   <viewport>
    <southwest>
     <lat>-37.8314131</lat>
     <lng>145.1189027</lng>
    </southwest>
    <northeast>
     <lat>-37.8285923</lat>
     <lng>145.1216007</lng>
    </northeast>
   </viewport>
   <bounds>
    <southwest>
     <lat>-37.8314131</lat>
     <lng>145.1198290</lng>
    </southwest>
    <northeast>
     <lat>-37.8285923</lat>
     <lng>145.1206744</lng>
    </northeast>
   </bounds>
  </geometry>
  <partial_match>true</partial_match>
  <place_id>ChIJ-64425VA1moRGqzzXUCFwN8</place_id>
 </result>
 <result>
  <type>route</type>
  <formatted_address>Edinburgh Rd, Melbourne VIC, Australia</formatted_address>
  <address_component>
   <long_name>Edinburgh Road</long_name>
   <short_name>Edinburgh Rd</short_name>
   <type>route</type>
  </address_component>
  <address_component>
   <long_name>Melbourne</long_name>
   <short_name>Melbourne</short_name>
   <type>colloquial_area</type>
   <type>locality</type>
   <type>political</type>
  </address_component>
  <address_component>
   <long_name>Victoria</long_name>
   <short_name>VIC</short_name>
   <type>administrative_area_level_1</type>
   <type>political</type>
  </address_component>
  <address_component>
   <long_name>Australia</long_name>
   <short_name>AU</short_name>
   <type>country</type>
   <type>political</type>
  </address_component>
  <geometry>
   <location>
    <lat>-37.7861373</lat>
    <lng>145.3529147</lng>
   </location>
   <location_type>GEOMETRIC_CENTER</location_type>
   <viewport>
    <southwest>
     <lat>-37.7962510</lat>
     <lng>145.3462490</lng>
    </southwest>
    <northeast>
     <lat>-37.7772648</lat>
     <lng>145.3587320</lng>
    </northeast>
   </viewport>
   <bounds>
    <southwest>
     <lat>-37.7962510</lat>
     <lng>145.3462490</lng>
    </southwest>
    <northeast>
     <lat>-37.7772648</lat>
     <lng>145.3587320</lng>
    </northeast>
   </bounds>
  </geometry>
  <partial_match>true</partial_match>
  <place_id>ChIJF3BkaKYv1moR1U7fV43TRvw</place_id>
 </result>
 <result>
  <type>route</type>
  <formatted_address>Easter Rd, Edinburgh, Edinburgh, Edinburgh EH6, UK</formatted_address>
  <address_component>
   <long_name>Easter Road</long_name>
   <short_name>Easter Rd</short_name>
   <type>route</type>
  </address_component>
  <address_component>
   <long_name>Edinburgh</long_name>
   <short_name>Edinburgh</short_name>
   <type>locality</type>
   <type>political</type>
  </address_component>
  <address_component>
   <long_name>Edinburgh</long_name>
   <short_name>Edinburgh</short_name>
   <type>postal_town</type>
  </address_component>
  <address_component>
   <long_name>Edinburgh</long_name>
   <short_name>Edinburgh</short_name>
   <type>administrative_area_level_2</type>
   <type>political</type>
  </address_component>
  <address_component>
   <long_name>United Kingdom</long_name>
   <short_name>GB</short_name>
   <type>country</type>
   <type>political</type>
  </address_component>
  <address_component>
   <long_name>EH6</long_name>
   <short_name>EH6</short_name>
   <type>postal_code_prefix</type>
   <type>postal_code</type>
  </address_component>
  <geometry>
   <location>
    <lat>55.9628881</lat>
    <lng>-3.1708610</lng>
   </location>
   <location_type>GEOMETRIC_CENTER</location_type>
   <viewport>
    <southwest>
     <lat>55.9563463</lat>
     <lng>-3.1727106</lng>
    </southwest>
    <northeast>
     <lat>55.9688980</lat>
     <lng>-3.1674276</lng>
    </northeast>
   </viewport>
   <bounds>
    <southwest>
     <lat>55.9563463</lat>
     <lng>-3.1727106</lng>
    </southwest>
    <northeast>
     <lat>55.9688980</lat>
     <lng>-3.1674276</lng>
    </northeast>
   </bounds>
  </geometry>
  <partial_match>true</partial_match>
  <place_id>ChIJD-g3twy4h0gRGc_wN06t4zE</place_id>
 </result>
</GeocodeResponse>
