<?xml version="1.0" encoding="UTF-8"?>
<GeocodeResponse>
 <status>OK</status>
 <result>
  <type>route</type>
  <formatted_address>Central Dr, Aberdeen, NC 28315, USA</formatted_address>
  <address_component>
   <long_name>Central Drive</long_name>
   <short_name>Central Dr</short_name>
   <type>route</type>
  </address_component>
  <address_component>
   <long_name>Aberdeen</long_name>
   <short_name>Aberdeen</short_name>
   <type>locality</type>
   <type>political</type>
  </address_component>
  <address_component>
   <long_name>8, Sandhills</long_name>
   <short_name>8, Sandhills</short_name>
   <type>administrative_area_level_3</type>
   <type>political</type>
  </address_component>
  <address_component>
   <long_name>Moore County</long_name>
   <short_name>Moore County</short_name>
   <type>administrative_area_level_2</type>
   <type>political</type>
  </address_component>
  <address_component>
   <long_name>North Carolina</long_name>
   <short_name>NC</short_name>
   <type>administrative_area_level_1</type>
   <type>political</type>
  </address_component>
  <address_component>
   <long_name>United States</long_name>
   <short_name>US</short_name>
   <type>country</type>
   <type>political</type>
  </address_component>
  <address_component>
   <long_name>28315</long_name>
   <short_name>28315</short_name>
   <type>postal_code</type>
  </address_component>
  <geometry>
   <location>
    <lat>35.1280432</lat>
    <lng>-79.4115846</lng>
   </location>
   <location_type>GEOMETRIC_CENTER</location_type>
   <viewport>
    <southwest>
     <lat>35.1268491</lat>
     <lng>-79.4136529</lng>
    </southwest>
    <northeast>
     <lat>35.1295471</lat>
     <lng>-79.4109550</lng>
    </northeast>
   </viewport>
   <bounds>
    <southwest>
     <lat>35.1271624</lat>
     <lng>-79.4135309</lng>
    </southwest>
    <northeast>
     <lat>35.1292338</lat>
     <lng>-79.4110770</lng>
    </northeast>
   </bounds>
  </geometry>
  <partial_match>true</partial_match>
  <place_id>ChIJBc3MPBK1VIgRML_QZ4RXCQs</place_id>
 </result>
 <result>
  <type>route</type>
  <formatted_address>Central Dr, Aberdeen, MS 39730, USA</formatted_address>
  <address_component>
   <long_name>Central Drive</long_name>
   <short_name>Central Dr</short_name>
   <type>route</type>
  </address_component>
  <address_component>
   <long_name>Aberdeen</long_name>
   <short_name>Aberdeen</short_name>
   <type>locality</type>
   <type>political</type>
  </address_component>
  <address_component>
   <long_name>Monroe County</long_name>
   <short_name>Monroe County</short_name>
   <type>administrative_area_level_2</type>
   <type>political</type>
  </address_component>
  <address_component>
   <long_name>Mississippi</long_name>
   <short_name>MS</short_name>
   <type>administrative_area_level_1</type>
   <type>political</type>
  </address_component>
  <address_component>
   <long_name>United States</long_name>
   <short_name>US</short_name>
   <type>country</type>
   <type>political</type>
  </address_component>
  <address_component>
   <long_name>39730</long_name>
   <short_name>39730</short_name>
   <type>postal_code</type>
  </address_component>
  <geometry>
   <location>
    <lat>33.8233651</lat>
    <lng>-88.5595085</lng>
   </location>
   <location_type>GEOMETRIC_CENTER</location_type>
   <viewport>
    <southwest>
     <lat>33.8219020</lat>
     <lng>-88.5616161</lng>
    </southwest>
    <northeast>
     <lat>33.8246000</lat>
     <lng>-88.5589182</lng>
    </northeast>
   </viewport>
   <bounds>
    <southwest>
     <lat>33.8230800</lat>
     <lng>-88.5612130</lng>
    </southwest>
    <northeast>
     <lat>33.8234220</lat>
     <lng>-88.5593213</lng>
    </northeast>
   </bounds>
  </geometry>
  <partial_match>true</partial_match>
  <place_id>ChIJGeZcxy0nh4gRVI-TaCVTe1I</place_id>
 </result>
 <result>
  <type>route</type>
  <formatted_address>Central Loop, Aberdeen, SD 57401, USA</formatted_address>
  <address_component>
   <long_name>Central Loop</long_name>
   <short_name>Central Loop</short_name>
   <type>route</type>
  </address_component>
  <address_component>
   <long_name>Aberdeen</long_name>
   <short_name>Aberdeen</short_name>
   <type>locality</type>
   <type>political</type>
  </address_component>
  <address_component>
   <long_name>Aberdeen Township</long_name>
   <short_name>Aberdeen Township</short_name>
   <type>administrative_area_level_3</type>
   <type>political</type>
  </address_component>
  <address_component>
   <long_name>Brown County</long_name>
   <short_name>Brown County</short_name>
   <type>administrative_area_level_2</type>
   <type>political</type>
  </address_component>
  <address_component>
   <long_name>South Dakota</long_name>
   <short_name>SD</short_name>
   <type>administrative_area_level_1</type>
   <type>political</type>
  </address_component>
  <address_component>
   <long_name>United States</long_name>
   <short_name>US</short_name>
   <type>country</type>
   <type>political</type>
  </address_component>
  <address_component>
   <long_name>57401</long_name>
   <short_name>57401</short_name>
   <type>postal_code</type>
  </address_component>
  <geometry>
   <location>
    <lat>45.4410308</lat>
    <lng>-98.4623312</lng>
   </location>
   <location_type>GEOMETRIC_CENTER</location_type>
   <viewport>
    <southwest>
     <lat>45.4395086</lat>
     <lng>-98.4636582</lng>
    </southwest>
    <northeast>
     <lat>45.4422066</lat>
     <lng>-98.4603431</lng>
    </northeast>
   </viewport>
   <bounds>
    <southwest>
     <lat>45.4404891</lat>
     <lng>-98.4636582</lng>
    </southwest>
    <northeast>
     <lat>45.4412261</lat>
     <lng>-98.4603431</lng>
    </northeast>
   </bounds>
  </geometry>
  <partial_match>true</partial_match>
  <place_id>ChIJjXMk98pE0lIR2c_5s7pk8NY</place_id>
 </result>
 <result>
  <type>route</type>
  <formatted_address>E Central St, Aberdeen, ID 83210, USA</formatted_address>
  <address_component>
   <long_name>East Central Street</long_name>
   <short_name>E Central St</short_name>
   <type>route</type>
  </address_component>
  <address_component>
   <long_name>Aberdeen</long_name>
   <short_name>Aberdeen</short_name>
   <type>locality</type>
   <type>political</type>
  </address_component>
  <address_component>
   <long_name>Bingham County</long_name>
   <short_name>Bingham County</short_name>
   <type>administrative_area_level_2</type>
   <type>political</type>
  </address_component>
  <address_component>
   <long_name>Idaho</long_name>
   <short_name>ID</short_name>
   <type>administrative_area_level_1</type>
   <type>political</type>
  </address_component>
  <address_component>
   <long_name>United States</long_name>
   <short_name>US</short_name>
   <type>country</type>
   <type>political</type>
  </address_component>
  <address_component>
   <long_name>83210</long_name>
   <short_name>83210</short_name>
   <type>postal_code</type>
  </address_component>
  <geometry>
   <location>
    <lat>42.9441008</lat>
    <lng>-112.8344388</lng>
   </location>
   <location_type>GEOMETRIC_CENTER</location_type>
   <viewport>
    <southwest>
     <lat>42.9427267</lat>
     <lng>-112.8387314</lng>
    </southwest>
    <northeast>
     <lat>42.9454246</lat>
     <lng>-112.8288116</lng>
    </northeast>
   </viewport>
   <bounds>
    <southwest>
     <lat>42.9440464</lat>
     <lng>-112.8387314</lng>
    </southwest>
    <northeast>
     <lat>42.9441049</lat>
     <lng>-112.8288116</lng>
    </northeast>
   </bounds>
  </geometry>
  <partial_match>true</partial_match>
  <place_id>ChIJU3LRL22gqlQRxiFqOyha2Mk</place_id>
 </result>
 <result>
  <type>route</type>
  <formatted_address>W Central Ave, Aberdeen, ID 83210, USA</formatted_address>
  <address_component>
   <long_name>West Central Avenue</long_name>
   <short_name>W Central Ave</short_name>
   <type>route</type>
  </address_component>
  <address_component>
   <long_name>Aberdeen</long_name>
   <short_name>Aberdeen</short_name>
   <type>locality</type>
   <type>political</type>
  </address_component>
  <address_component>
   <long_name>Bingham County</long_name>
   <short_name>Bingham County</short_name>
   <type>administrative_area_level_2</type>
   <type>political</type>
  </address_component>
  <address_component>
   <long_name>Idaho</long_name>
   <short_name>ID</short_name>
   <type>administrative_area_level_1</type>
   <type>political</type>
  </address_component>
  <address_component>
   <long_name>United States</long_name>
   <short_name>US</short_name>
   <type>country</type>
   <type>political</type>
  </address_component>
  <address_component>
   <long_name>83210</long_name>
   <short_name>83210</short_name>
   <type>postal_code</type>
  </address_component>
  <geometry>
   <location>
    <lat>42.9440896</lat>
    <lng>-112.8437760</lng>
   </location>
   <location_type>GEOMETRIC_CENTER</location_type>
   <viewport>
    <southwest>
     <lat>42.9426562</lat>
     <lng>-112.8486487</lng>
    </southwest>
    <northeast>
     <lat>42.9453541</lat>
     <lng>-112.8387314</lng>
    </northeast>
   </viewport>
   <bounds>
    <southwest>
     <lat>42.9437320</lat>
     <lng>-112.8486487</lng>
    </southwest>
    <northeast>
     <lat>42.9442783</lat>
     <lng>-112.8387314</lng>
    </northeast>
   </bounds>
  </geometry>
  <partial_match>true</partial_match>
  <place_id>ChIJc9AFbRWgqlQRBDi0lP-nw78</place_id>
 </result>
 <result>
  <type>route</type>
  <formatted_address>Central Ln, Aberdeen, WA 98520, USA</formatted_address>
  <address_component>
   <long_name>Central Lane</long_name>
   <short_name>Central Ln</short_name>
   <type>route</type>
  </address_component>
  <address_component>
   <long_name>Aberdeen</long_name>
   <short_name>Aberdeen</short_name>
   <type>locality</type>
   <type>political</type>
  </address_component>
  <address_component>
   <long_name>Grays Harbor County</long_name>
   <short_name>Grays Harbor County</short_name>
   <type>administrative_area_level_2</type>
   <type>political</type>
  </address_component>
  <address_component>
   <long_name>Washington</long_name>
   <short_name>WA</short_name>
   <type>administrative_area_level_1</type>
   <type>political</type>
  </address_component>
  <address_component>
   <long_name>United States</long_name>
   <short_name>US</short_name>
   <type>country</type>
   <type>political</type>
  </address_component>
  <address_component>
   <long_name>98520</long_name>
   <short_name>98520</short_name>
   <type>postal_code</type>
  </address_component>
  <geometry>
   <location>
    <lat>46.9698044</lat>
    <lng>-123.7209358</lng>
   </location>
   <location_type>GEOMETRIC_CENTER</location_type>
   <viewport>
    <southwest>
     <lat>46.9687650</lat>
     <lng>-123.7223684</lng>
    </southwest>
    <northeast>
     <lat>46.9714630</lat>
     <lng>-123.7196704</lng>
    </northeast>
   </viewport>
   <bounds>
    <southwest>
     <lat>46.9696209</lat>
     <lng>-123.7218650</lng>
    </southwest>
    <northeast>
     <lat>46.9706071</lat>
     <lng>-123.7201738</lng>
    </northeast>
   </bounds>
  </geometry>
  <partial_match>true</partial_match>
  <place_id>ChIJ3dec_GgwklQRRJpW0fFrpIo</place_id>
 </result>
 <result>
  <type>route</type>
  <formatted_address>N Central, Westport, WA 98595, USA</formatted_address>
  <address_component>
   <long_name>North Central</long_name>
   <short_name>N Central</short_name>
   <type>route</type>
  </address_component>
  <address_component>
   <long_name>Westport</long_name>
   <short_name>Westport</short_name>
   <type>locality</type>
   <type>political</type>
  </address_component>
  <address_component>
   <long_name>Grays Harbor County</long_name>
   <short_name>Grays Harbor County</short_name>
   <type>administrative_area_level_2</type>
   <type>political</type>
  </address_component>
  <address_component>
   <long_name>Washington</long_name>
   <short_name>WA</short_name>
   <type>administrative_area_level_1</type>
   <type>political</type>
  </address_component>
  <address_component>
   <long_name>United States</long_name>
   <short_name>US</short_name>
   <type>country</type>
   <type>political</type>
  </address_component>
  <address_component>
   <long_name>98595</long_name>
   <short_name>98595</short_name>
   <type>postal_code</type>
  </address_component>
  <geometry>
   <location>
    <lat>46.8877373</lat>
    <lng>-124.1104234</lng>
   </location>
   <location_type>GEOMETRIC_CENTER</location_type>
   <viewport>
    <southwest>
     <lat>46.8863195</lat>
     <lng>-124.1117390</lng>
    </southwest>
    <northeast>
     <lat>46.8890174</lat>
     <lng>-124.1090411</lng>
    </northeast>
   </viewport>
   <bounds>
    <southwest>
     <lat>46.8868234</lat>
     <lng>-124.1104285</lng>
    </southwest>
    <northeast>
     <lat>46.8885135</lat>
     <lng>-124.1103516</lng>
    </northeast>
   </bounds>
  </geometry>
  <partial_match>true</partial_match>
  <place_id>ChIJlYPCUA5FklQRe21LPEwC0js</place_id>
 </result>
 <result>
  <type>route</type>
  <formatted_address>S Central, Westport, WA 98595, USA</formatted_address>
  <address_component>
   <long_name>South Central</long_name>
   <short_name>S Central</short_name>
   <type>route</type>
  </address_component>
  <address_component>
   <long_name>Westport</long_name>
   <short_name>Westport</short_name>
   <type>locality</type>
   <type>political</type>
  </address_component>
  <address_component>
   <long_name>Grays Harbor County</long_name>
   <short_name>Grays Harbor County</short_name>
   <type>administrative_area_level_2</type>
   <type>political</type>
  </address_component>
  <address_component>
   <long_name>Washington</long_name>
   <short_name>WA</short_name>
   <type>administrative_area_level_1</type>
   <type>political</type>
  </address_component>
  <address_component>
   <long_name>United States</long_name>
   <short_name>US</short_name>
   <type>country</type>
   <type>political</type>
  </address_component>
  <address_component>
   <long_name>98595</long_name>
   <short_name>98595</short_name>
   <type>postal_code</type>
  </address_component>
  <geometry>
   <location>
    <lat>46.8854054</lat>
    <lng>-124.1103667</lng>
   </location>
   <location_type>GEOMETRIC_CENTER</location_type>
   <viewport>
    <southwest>
     <lat>46.8817316</lat>
     <lng>-124.1116937</lng>
    </southwest>
    <northeast>
     <lat>46.8868234</lat>
     <lng>-124.1089957</lng>
    </northeast>
   </viewport>
   <bounds>
    <southwest>
     <lat>46.8817316</lat>
     <lng>-124.1103667</lng>
    </southwest>
    <northeast>
     <lat>46.8868234</lat>
     <lng>-124.1103227</lng>
    </northeast>
   </bounds>
  </geometry>
  <partial_match>true</partial_match>
  <place_id>ChIJ86oTCxJFklQRwkXNHkTGsIw</place_id>
 </result>
 <result>
  <type>neighborhood</type>
  <type>political</type>
  <formatted_address>Aberdeen, Hong Kong</formatted_address>
  <address_component>
   <long_name>Aberdeen</long_name>
   <short_name>Aberdeen</short_name>
   <type>neighborhood</type>
   <type>political</type>
  </address_component>
  <address_component>
   <long_name>Hong Kong</long_name>
   <short_name>Hong Kong</short_name>
   <type>locality</type>
   <type>political</type>
  </address_component>
  <address_component>
   <long_name>Southern District</long_name>
   <short_name>Southern District</short_name>
   <type>administrative_area_level_2</type>
   <type>political</type>
  </address_component>
  <address_component>
   <long_name>Hong Kong Island</long_name>
   <short_name>Hong Kong Island</short_name>
   <type>administrative_area_level_1</type>
   <type>political</type>
  </address_component>
  <address_component>
   <long_name>Hong Kong</long_name>
   <short_name>HK</short_name>
   <type>country</type>
   <type>political</type>
  </address_component>
  <geometry>
   <location>
    <lat>22.2483068</lat>
    <lng>114.1524398</lng>
   </location>
   <location_type>APPROXIMATE</location_type>
   <viewport>
    <southwest>
     <lat>22.2463701</lat>
     <lng>114.1481103</lng>
    </southwest>
    <northeast>
     <lat>22.2559258</lat>
     <lng>114.1636027</lng>
    </northeast>
   </viewport>
   <bounds>
    <southwest>
     <lat>22.2463701</lat>
     <lng>114.1481103</lng>
    </southwest>
    <northeast>
     <lat>22.2559258</lat>
     <lng>114.1636027</lng>
    </northeast>
   </bounds>
  </geometry>
  <partial_match>true</partial_match>
  <place_id>ChIJCQeMtAMABDQRtnosFGW9dB4</place_id>
 </result>
 <result>
  <type>route</type>
  <formatted_address>Central Ave, Maysville, KY 41056, USA</formatted_address>
  <address_component>
   <long_name>Central Avenue</long_name>
   <short_name>Central Ave</short_name>
   <type>route</type>
  </address_component>
  <address_component>
   <long_name>Maysville</long_name>
   <short_name>Maysville</short_name>
   <type>locality</type>
   <type>political</type>
  </address_component>
  <address_component>
   <long_name>Mason County</long_name>
   <short_name>Mason County</short_name>
   <type>administrative_area_level_2</type>
   <type>political</type>
  </address_component>
  <address_component>
   <long_name>Kentucky</long_name>
   <short_name>KY</short_name>
   <type>administrative_area_level_1</type>
   <type>political</type>
  </address_component>
  <address_component>
   <long_name>United States</long_name>
   <short_name>US</short_name>
   <type>country</type>
   <type>political</type>
  </address_component>
  <address_component>
   <long_name>41056</long_name>
   <short_name>41056</short_name>
   <type>postal_code</type>
  </address_component>
  <geometry>
   <location>
    <lat>38.6388794</lat>
    <lng>-83.7438225</lng>
   </location>
   <location_type>GEOMETRIC_CENTER</location_type>
   <viewport>
    <southwest>
     <lat>38.6367283</lat>
     <lng>-83.7451448</lng>
    </southwest>
    <northeast>
     <lat>38.6409799</lat>
     <lng>-83.7424469</lng>
    </northeast>
   </viewport>
   <bounds>
    <southwest>
     <lat>38.6367283</lat>
     <lng>-83.7440562</lng>
    </southwest>
    <northeast>
     <lat>38.6409799</lat>
     <lng>-83.7435355</lng>
    </northeast>
   </bounds>
  </geometry>
  <partial_match>true</partial_match>
  <place_id>ChIJk5z-YRZQQYgR7p3qXB3C7ZE</place_id>
 </result>
</GeocodeResponse>
