<?xml version="1.0" encoding="UTF-8"?>
<GeocodeResponse>
 <status>OK</status>
 <result>
  <type>establishment</type>
  <type>natural_feature</type>
  <formatted_address>Channel Islands, Alaska 99574, USA</formatted_address>
  <address_component>
   <long_name>Channel Islands</long_name>
   <short_name>Channel Islands</short_name>
   <type>establishment</type>
   <type>natural_feature</type>
  </address_component>
  <address_component>
   <long_name>Valdez-Cordova</long_name>
   <short_name>Valdez-Cordova</short_name>
   <type>administrative_area_level_2</type>
   <type>political</type>
  </address_component>
  <address_component>
   <long_name>Alaska</long_name>
   <short_name>AK</short_name>
   <type>administrative_area_level_1</type>
   <type>political</type>
  </address_component>
  <address_component>
   <long_name>United States</long_name>
   <short_name>US</short_name>
   <type>country</type>
   <type>political</type>
  </address_component>
  <address_component>
   <long_name>99574</long_name>
   <short_name>99574</short_name>
   <type>postal_code</type>
  </address_component>
  <geometry>
   <location>
    <lat>60.6191667</lat>
    <lng>-145.7936111</lng>
   </location>
   <location_type>APPROXIMATE</location_type>
   <viewport>
    <southwest>
     <lat>60.5753430</lat>
     <lng>-145.9216705</lng>
    </southwest>
    <northeast>
     <lat>60.6629310</lat>
     <lng>-145.6655517</lng>
    </northeast>
   </viewport>
  </geometry>
  <place_id>ChIJ55HevSQct1YRxH20Xf4iGrA</place_id>
 </result>
 <result>
  <type>neighborhood</type>
  <type>political</type>
  <formatted_address>Channel Islands, Oxnard, CA 93035, USA</formatted_address>
  <address_component>
   <long_name>Channel Islands</long_name>
   <short_name>Channel Islands</short_name>
   <type>neighborhood</type>
   <type>political</type>
  </address_component>
  <address_component>
   <long_name>Oxnard</long_name>
   <short_name>Oxnard</short_name>
   <type>locality</type>
   <type>political</type>
  </address_component>
  <address_component>
   <long_name>Ventura County</long_name>
   <short_name>Ventura County</short_name>
   <type>administrative_area_level_2</type>
   <type>political</type>
  </address_component>
  <address_component>
   <long_name>California</long_name>
   <short_name>CA</short_name>
   <type>administrative_area_level_1</type>
   <type>political</type>
  </address_component>
  <address_component>
   <long_name>United States</long_name>
   <short_name>US</short_name>
   <type>country</type>
   <type>political</type>
  </address_component>
  <address_component>
   <long_name>93035</long_name>
   <short_name>93035</short_name>
   <type>postal_code</type>
  </address_component>
  <geometry>
   <location>
    <lat>34.1819189</lat>
    <lng>-119.2291726</lng>
   </location>
   <location_type>APPROXIMATE</location_type>
   <viewport>
    <southwest>
     <lat>34.1757040</lat>
     <lng>-119.2385419</lng>
    </southwest>
    <northeast>
     <lat>34.1905040</lat>
     <lng>-119.2212332</lng>
    </northeast>
   </viewport>
   <bounds>
    <southwest>
     <lat>34.1757040</lat>
     <lng>-119.2385419</lng>
    </southwest>
    <northeast>
     <lat>34.1905040</lat>
     <lng>-119.2212332</lng>
    </northeast>
   </bounds>
  </geometry>
  <place_id>ChIJkSrZZwBO6IAR8DYzpCNoFZE</place_id>
 </result>
 <result>
  <type>colloquial_area</type>
  <type>political</type>
  <formatted_address>Channel Islands</formatted_address>
  <address_component>
   <long_name>Channel Islands</long_name>
   <short_name>Channel Islands</short_name>
   <type>colloquial_area</type>
   <type>political</type>
  </address_component>
  <geometry>
   <location>
    <lat>49.4166670</lat>
    <lng>-2.3333330</lng>
   </location>
   <location_type>APPROXIMATE</location_type>
   <viewport>
    <southwest>
     <lat>49.4153180</lat>
     <lng>-2.3346820</lng>
    </southwest>
    <northeast>
     <lat>49.4180160</lat>
     <lng>-2.3319840</lng>
    </northeast>
   </viewport>
  </geometry>
  <place_id>ChIJq_3FIq4IDUgRQEVT8iHB3DY</place_id>
 </result>
</GeocodeResponse>
