<?xml version="1.0" encoding="UTF-8"?>
<GeocodeResponse>
 <status>OK</status>
 <result>
  <type>establishment</type>
  <type>natural_feature</type>
  <formatted_address>Lanzarote, Las Palmas, Spain</formatted_address>
  <address_component>
   <long_name>Lanzarote</long_name>
   <short_name>Lanzarote</short_name>
   <type>establishment</type>
   <type>natural_feature</type>
  </address_component>
  <address_component>
   <long_name>Las Palmas</long_name>
   <short_name>Las Palmas</short_name>
   <type>administrative_area_level_2</type>
   <type>political</type>
  </address_component>
  <address_component>
   <long_name>Canary Islands</long_name>
   <short_name>CN</short_name>
   <type>administrative_area_level_1</type>
   <type>political</type>
  </address_component>
  <address_component>
   <long_name>Spain</long_name>
   <short_name>ES</short_name>
   <type>country</type>
   <type>political</type>
  </address_component>
  <geometry>
   <location>
    <lat>29.0468535</lat>
    <lng>-13.5899733</lng>
   </location>
   <location_type>APPROXIMATE</location_type>
   <viewport>
    <southwest>
     <lat>28.8386194</lat>
     <lng>-13.8820607</lng>
    </southwest>
    <northeast>
     <lat>29.2405854</lat>
     <lng>-13.4192900</lng>
    </northeast>
   </viewport>
   <bounds>
    <southwest>
     <lat>28.8386194</lat>
     <lng>-13.8820607</lng>
    </southwest>
    <northeast>
     <lat>29.2405854</lat>
     <lng>-13.4192900</lng>
    </northeast>
   </bounds>
  </geometry>
  <place_id>ChIJizmiHM0jRgwRGBV7xYrWoKI</place_id>
 </result>
 <result>
  <type>locality</type>
  <type>political</type>
  <formatted_address>35340 Lanzarote, Las Palmas, Spain</formatted_address>
  <address_component>
   <long_name>Lanzarote</long_name>
   <short_name>Lanzarote</short_name>
   <type>locality</type>
   <type>political</type>
  </address_component>
  <address_component>
   <long_name>Valleseco</long_name>
   <short_name>Valleseco</short_name>
   <type>administrative_area_level_4</type>
   <type>political</type>
  </address_component>
  <address_component>
   <long_name>Comarca Centro</long_name>
   <short_name>Comarca Centro</short_name>
   <type>administrative_area_level_3</type>
   <type>political</type>
  </address_component>
  <address_component>
   <long_name>Las Palmas</long_name>
   <short_name>Las Palmas</short_name>
   <type>administrative_area_level_2</type>
   <type>political</type>
  </address_component>
  <address_component>
   <long_name>Canarias</long_name>
   <short_name>CN</short_name>
   <type>administrative_area_level_1</type>
   <type>political</type>
  </address_component>
  <address_component>
   <long_name>Spain</long_name>
   <short_name>ES</short_name>
   <type>country</type>
   <type>political</type>
  </address_component>
  <address_component>
   <long_name>35340</long_name>
   <short_name>35340</short_name>
   <type>postal_code</type>
  </address_component>
  <geometry>
   <location>
    <lat>28.0412627</lat>
    <lng>-15.5804136</lng>
   </location>
   <location_type>APPROXIMATE</location_type>
   <viewport>
    <southwest>
     <lat>28.0364702</lat>
     <lng>-15.5832428</lng>
    </southwest>
    <northeast>
     <lat>28.0451063</lat>
     <lng>-15.5768657</lng>
    </northeast>
   </viewport>
   <bounds>
    <southwest>
     <lat>28.0364702</lat>
     <lng>-15.5832428</lng>
    </southwest>
    <northeast>
     <lat>28.0451063</lat>
     <lng>-15.5768657</lng>
    </northeast>
   </bounds>
  </geometry>
  <place_id>ChIJ0W1-ye-RQAwRBNdZBYvUHmY</place_id>
 </result>
</GeocodeResponse>
