<?xml version="1.0" encoding="UTF-8"?>
<GeocodeResponse>
 <status>OK</status>
 <result>
  <type>route</type>
  <formatted_address>Trierer Str., 54576 Hillesheim, Germany</formatted_address>
  <address_component>
   <long_name>Trierer Straße</long_name>
   <short_name>Trierer Str.</short_name>
   <type>route</type>
  </address_component>
  <address_component>
   <long_name>Hillesheim</long_name>
   <short_name>Hillesheim</short_name>
   <type>locality</type>
   <type>political</type>
  </address_component>
  <address_component>
   <long_name>Vulkaneifel</long_name>
   <short_name>Vulkaneifel</short_name>
   <type>administrative_area_level_3</type>
   <type>political</type>
  </address_component>
  <address_component>
   <long_name>Rheinland-Pfalz</long_name>
   <short_name>RP</short_name>
   <type>administrative_area_level_1</type>
   <type>political</type>
  </address_component>
  <address_component>
   <long_name>Germany</long_name>
   <short_name>DE</short_name>
   <type>country</type>
   <type>political</type>
  </address_component>
  <address_component>
   <long_name>54576</long_name>
   <short_name>54576</short_name>
   <type>postal_code</type>
  </address_component>
  <geometry>
   <location>
    <lat>50.2869451</lat>
    <lng>6.6721511</lng>
   </location>
   <location_type>GEOMETRIC_CENTER</location_type>
   <viewport>
    <southwest>
     <lat>50.2847636</lat>
     <lng>6.6698327</lng>
    </southwest>
    <northeast>
     <lat>50.2894384</lat>
     <lng>6.6736700</lng>
    </northeast>
   </viewport>
   <bounds>
    <southwest>
     <lat>50.2847636</lat>
     <lng>6.6698327</lng>
    </southwest>
    <northeast>
     <lat>50.2894384</lat>
     <lng>6.6736700</lng>
    </northeast>
   </bounds>
  </geometry>
  <partial_match>true</partial_match>
  <place_id>ChIJH2RaywW7v0cROQ40Wv6D5tU</place_id>
 </result>
 <result>
  <type>route</type>
  <formatted_address>Trierer Str., 54611 Hallschlag, Germany</formatted_address>
  <address_component>
   <long_name>Trierer Straße</long_name>
   <short_name>Trierer Str.</short_name>
   <type>route</type>
  </address_component>
  <address_component>
   <long_name>Hallschlag</long_name>
   <short_name>Hallschlag</short_name>
   <type>locality</type>
   <type>political</type>
  </address_component>
  <address_component>
   <long_name>Vulkaneifel</long_name>
   <short_name>Vulkaneifel</short_name>
   <type>administrative_area_level_3</type>
   <type>political</type>
  </address_component>
  <address_component>
   <long_name>Rheinland-Pfalz</long_name>
   <short_name>RP</short_name>
   <type>administrative_area_level_1</type>
   <type>political</type>
  </address_component>
  <address_component>
   <long_name>Germany</long_name>
   <short_name>DE</short_name>
   <type>country</type>
   <type>political</type>
  </address_component>
  <address_component>
   <long_name>54611</long_name>
   <short_name>54611</short_name>
   <type>postal_code</type>
  </address_component>
  <geometry>
   <location>
    <lat>50.3516923</lat>
    <lng>6.4392451</lng>
   </location>
   <location_type>GEOMETRIC_CENTER</location_type>
   <viewport>
    <southwest>
     <lat>50.3483388</lat>
     <lng>6.4377234</lng>
    </southwest>
    <northeast>
     <lat>50.3548561</lat>
     <lng>6.4408384</lng>
    </northeast>
   </viewport>
   <bounds>
    <southwest>
     <lat>50.3483388</lat>
     <lng>6.4377234</lng>
    </southwest>
    <northeast>
     <lat>50.3548561</lat>
     <lng>6.4408384</lng>
    </northeast>
   </bounds>
  </geometry>
  <partial_match>true</partial_match>
  <place_id>ChIJkUgfBR6av0cRVlTXxiTXhlg</place_id>
 </result>
</GeocodeResponse>
