<?xml version="1.0" encoding="UTF-8"?>
<GeocodeResponse>
 <status>OK</status>
 <result>
  <type>establishment</type>
  <type>natural_feature</type>
  <formatted_address>Zala, Hungary</formatted_address>
  <address_component>
   <long_name>Zala</long_name>
   <short_name>Zala</short_name>
   <type>establishment</type>
   <type>natural_feature</type>
  </address_component>
  <address_component>
   <long_name>Hungary</long_name>
   <short_name>HU</short_name>
   <type>country</type>
   <type>political</type>
  </address_component>
  <geometry>
   <location>
    <lat>46.6349675</lat>
    <lng>17.1813599</lng>
   </location>
   <location_type>APPROXIMATE</location_type>
   <viewport>
    <southwest>
     <lat>46.6325496</lat>
     <lng>17.1728832</lng>
    </southwest>
    <northeast>
     <lat>46.6378470</lat>
     <lng>17.1872111</lng>
    </northeast>
   </viewport>
   <bounds>
    <southwest>
     <lat>46.6325496</lat>
     <lng>17.1728832</lng>
    </southwest>
    <northeast>
     <lat>46.6378470</lat>
     <lng>17.1872111</lng>
    </northeast>
   </bounds>
  </geometry>
  <place_id>ChIJb80vZUnlaEcRX2k7-RvY8v0</place_id>
 </result>
 <result>
  <type>establishment</type>
  <type>natural_feature</type>
  <formatted_address>Zalavár, Zala, Hungary</formatted_address>
  <address_component>
   <long_name>Zala</long_name>
   <short_name>Zala</short_name>
   <type>establishment</type>
   <type>natural_feature</type>
  </address_component>
  <address_component>
   <long_name>Zalavár</long_name>
   <short_name>Zalavár</short_name>
   <type>locality</type>
   <type>political</type>
  </address_component>
  <address_component>
   <long_name>Hungary</long_name>
   <short_name>HU</short_name>
   <type>country</type>
   <type>political</type>
  </address_component>
  <geometry>
   <location>
    <lat>46.6364150</lat>
    <lng>17.1811750</lng>
   </location>
   <location_type>APPROXIMATE</location_type>
   <viewport>
    <southwest>
     <lat>46.6350660</lat>
     <lng>17.1786439</lng>
    </southwest>
    <northeast>
     <lat>46.6377640</lat>
     <lng>17.1837060</lng>
    </northeast>
   </viewport>
   <bounds>
    <southwest>
     <lat>46.6357730</lat>
     <lng>17.1786439</lng>
    </southwest>
    <northeast>
     <lat>46.6370570</lat>
     <lng>17.1837060</lng>
    </northeast>
   </bounds>
  </geometry>
  <place_id>ChIJ4ZypiUnlaEcReEt2UgOfUCo</place_id>
 </result>
</GeocodeResponse>
