<?xml version="1.0" encoding="UTF-8"?>
<GeocodeResponse>
 <status>OK</status>
 <result>
  <type>route</type>
  <formatted_address>2 Nolu Erdoğdu, Ordu Sk., 61040 Trabzon Merkez/Trabzon, Turkey</formatted_address>
  <address_component>
   <long_name>Ordu Sokak</long_name>
   <short_name>Ordu Sk.</short_name>
   <type>route</type>
  </address_component>
  <address_component>
   <long_name>2 Nolu Erdoğdu Mahallesi</long_name>
   <short_name>2 Nolu Erdoğdu</short_name>
   <type>administrative_area_level_4</type>
   <type>political</type>
  </address_component>
  <address_component>
   <long_name>Trabzon Merkez</long_name>
   <short_name>Trabzon Merkez</short_name>
   <type>administrative_area_level_2</type>
   <type>political</type>
  </address_component>
  <address_component>
   <long_name>Trabzon</long_name>
   <short_name>Trabzon</short_name>
   <type>administrative_area_level_1</type>
   <type>political</type>
  </address_component>
  <address_component>
   <long_name>Turkey</long_name>
   <short_name>TR</short_name>
   <type>country</type>
   <type>political</type>
  </address_component>
  <address_component>
   <long_name>61040</long_name>
   <short_name>61040</short_name>
   <type>postal_code</type>
  </address_component>
  <geometry>
   <location>
    <lat>40.9992580</lat>
    <lng>39.7078274</lng>
   </location>
   <location_type>GEOMETRIC_CENTER</location_type>
   <viewport>
    <southwest>
     <lat>40.9980164</lat>
     <lng>39.7066130</lng>
    </southwest>
    <northeast>
     <lat>41.0007143</lat>
     <lng>39.7093110</lng>
    </northeast>
   </viewport>
   <bounds>
    <southwest>
     <lat>40.9990477</lat>
     <lng>39.7077211</lng>
    </southwest>
    <northeast>
     <lat>40.9996830</lat>
     <lng>39.7082029</lng>
    </northeast>
   </bounds>
  </geometry>
  <partial_match>true</partial_match>
  <place_id>ChIJwww0rDE8ZEAR2QcH_kuzIFY</place_id>
 </result>
</GeocodeResponse>
