<?xml version="1.0" encoding="UTF-8"?>
<GeocodeResponse>
 <status>OK</status>
 <result>
  <type>route</type>
  <formatted_address>Savinjska cesta, Nazarje, Slovenia</formatted_address>
  <address_component>
   <long_name>Savinjska cesta</long_name>
   <short_name>Savinjska cesta</short_name>
   <type>route</type>
  </address_component>
  <address_component>
   <long_name>Nazarje</long_name>
   <short_name>Nazarje</short_name>
   <type>locality</type>
   <type>political</type>
  </address_component>
  <address_component>
   <long_name>Municipality of Nazarje</long_name>
   <short_name>Municipality of Nazarje</short_name>
   <type>administrative_area_level_2</type>
   <type>political</type>
  </address_component>
  <address_component>
   <long_name>Mozirje</long_name>
   <short_name>Mozirje</short_name>
   <type>administrative_area_level_1</type>
   <type>political</type>
  </address_component>
  <address_component>
   <long_name>Slovenia</long_name>
   <short_name>SI</short_name>
   <type>country</type>
   <type>political</type>
  </address_component>
  <geometry>
   <location>
    <lat>46.3284558</lat>
    <lng>14.9540510</lng>
   </location>
   <location_type>GEOMETRIC_CENTER</location_type>
   <viewport>
    <southwest>
     <lat>46.3176891</lat>
     <lng>14.9484106</lng>
    </southwest>
    <northeast>
     <lat>46.3396710</lat>
     <lng>14.9606738</lng>
    </northeast>
   </viewport>
   <bounds>
    <southwest>
     <lat>46.3176891</lat>
     <lng>14.9484106</lng>
    </southwest>
    <northeast>
     <lat>46.3396710</lat>
     <lng>14.9606738</lng>
    </northeast>
   </bounds>
  </geometry>
  <place_id>ChIJ8S5Mz5VcZUcR15TUNX7Z64A</place_id>
 </result>
 <result>
  <type>route</type>
  <formatted_address>Savinjska cesta, 1420 Trbovlje, Slovenia</formatted_address>
  <address_component>
   <long_name>Savinjska cesta</long_name>
   <short_name>Savinjska cesta</short_name>
   <type>route</type>
  </address_component>
  <address_component>
   <long_name>Trbovlje</long_name>
   <short_name>Trbovlje</short_name>
   <type>locality</type>
   <type>political</type>
  </address_component>
  <address_component>
   <long_name>Trbovlje</long_name>
   <short_name>Trbovlje</short_name>
   <type>postal_town</type>
  </address_component>
  <address_component>
   <long_name>Municipality of Trbovlje</long_name>
   <short_name>Municipality of Trbovlje</short_name>
   <type>administrative_area_level_2</type>
   <type>political</type>
  </address_component>
  <address_component>
   <long_name>Trbovlje</long_name>
   <short_name>Trbovlje</short_name>
   <type>administrative_area_level_1</type>
   <type>political</type>
  </address_component>
  <address_component>
   <long_name>Slovenia</long_name>
   <short_name>SI</short_name>
   <type>country</type>
   <type>political</type>
  </address_component>
  <address_component>
   <long_name>1420</long_name>
   <short_name>1420</short_name>
   <type>postal_code</type>
  </address_component>
  <geometry>
   <location>
    <lat>46.1648376</lat>
    <lng>15.0516842</lng>
   </location>
   <location_type>GEOMETRIC_CENTER</location_type>
   <viewport>
    <southwest>
     <lat>46.1616014</lat>
     <lng>15.0502303</lng>
    </southwest>
    <northeast>
     <lat>46.1683359</lat>
     <lng>15.0529282</lng>
    </northeast>
   </viewport>
   <bounds>
    <southwest>
     <lat>46.1616014</lat>
     <lng>15.0504590</lng>
    </southwest>
    <northeast>
     <lat>46.1683359</lat>
     <lng>15.0526995</lng>
    </northeast>
   </bounds>
  </geometry>
  <place_id>ChIJlT8hiWRrZUcRzL38wqVvHwk</place_id>
 </result>
 <result>
  <type>route</type>
  <formatted_address>Savinjska ulica, 3311 Šempeter v Savinjski dolini, Slovenia</formatted_address>
  <address_component>
   <long_name>Savinjska ulica</long_name>
   <short_name>Savinjska ulica</short_name>
   <type>route</type>
  </address_component>
  <address_component>
   <long_name>Šempeter v Savinj. dolini</long_name>
   <short_name>Šempeter v Savinj. dolini</short_name>
   <type>locality</type>
   <type>political</type>
  </address_component>
  <address_component>
   <long_name>Šempeter v Savinjski dolini</long_name>
   <short_name>Šempeter v Savinjski dolini</short_name>
   <type>postal_town</type>
  </address_component>
  <address_component>
   <long_name>Žalec</long_name>
   <short_name>Žalec</short_name>
   <type>administrative_area_level_1</type>
   <type>political</type>
  </address_component>
  <address_component>
   <long_name>Slovenia</long_name>
   <short_name>SI</short_name>
   <type>country</type>
   <type>political</type>
  </address_component>
  <address_component>
   <long_name>3311</long_name>
   <short_name>3311</short_name>
   <type>postal_code</type>
  </address_component>
  <geometry>
   <location>
    <lat>46.2553902</lat>
    <lng>15.1160484</lng>
   </location>
   <location_type>GEOMETRIC_CENTER</location_type>
   <viewport>
    <southwest>
     <lat>46.2544264</lat>
     <lng>15.1139408</lng>
    </southwest>
    <northeast>
     <lat>46.2571244</lat>
     <lng>15.1187975</lng>
    </northeast>
   </viewport>
   <bounds>
    <southwest>
     <lat>46.2545321</lat>
     <lng>15.1139408</lng>
    </southwest>
    <northeast>
     <lat>46.2570187</lat>
     <lng>15.1187975</lng>
    </northeast>
   </bounds>
  </geometry>
  <place_id>ChIJLxJZGi5vZUcRKKR2Mqt05Vs</place_id>
 </result>
 <result>
  <type>route</type>
  <formatted_address>Savinjska cesta, Vrbje, Slovenia</formatted_address>
  <address_component>
   <long_name>Savinjska cesta</long_name>
   <short_name>Savinjska cesta</short_name>
   <type>route</type>
  </address_component>
  <address_component>
   <long_name>Vrbje</long_name>
   <short_name>Vrbje</short_name>
   <type>locality</type>
   <type>political</type>
  </address_component>
  <address_component>
   <long_name>Municipality of Žalec</long_name>
   <short_name>Municipality of Žalec</short_name>
   <type>administrative_area_level_2</type>
   <type>political</type>
  </address_component>
  <address_component>
   <long_name>Žalec</long_name>
   <short_name>Žalec</short_name>
   <type>administrative_area_level_1</type>
   <type>political</type>
  </address_component>
  <address_component>
   <long_name>Slovenia</long_name>
   <short_name>SI</short_name>
   <type>country</type>
   <type>political</type>
  </address_component>
  <geometry>
   <location>
    <lat>46.2534141</lat>
    <lng>15.1507804</lng>
   </location>
   <location_type>GEOMETRIC_CENTER</location_type>
   <viewport>
    <southwest>
     <lat>46.2509848</lat>
     <lng>15.1354791</lng>
    </southwest>
    <northeast>
     <lat>46.2546269</lat>
     <lng>15.1650574</lng>
    </northeast>
   </viewport>
   <bounds>
    <southwest>
     <lat>46.2509848</lat>
     <lng>15.1354791</lng>
    </southwest>
    <northeast>
     <lat>46.2546269</lat>
     <lng>15.1650574</lng>
    </northeast>
   </bounds>
  </geometry>
  <place_id>ChIJw50pdQ9vZUcRr6mbRhUnpmE</place_id>
 </result>
 <result>
  <type>route</type>
  <formatted_address>Savinjska ulica, 2000 Maribor, Slovenia</formatted_address>
  <address_component>
   <long_name>Savinjska ulica</long_name>
   <short_name>Savinjska ulica</short_name>
   <type>route</type>
  </address_component>
  <address_component>
   <long_name>Maribor</long_name>
   <short_name>Maribor</short_name>
   <type>locality</type>
   <type>political</type>
  </address_component>
  <address_component>
   <long_name>Maribor</long_name>
   <short_name>Maribor</short_name>
   <type>postal_town</type>
  </address_component>
  <address_component>
   <long_name>Upravna enota Maribor</long_name>
   <short_name>Upravna enota Maribor</short_name>
   <type>administrative_area_level_1</type>
   <type>political</type>
  </address_component>
  <address_component>
   <long_name>Slovenia</long_name>
   <short_name>SI</short_name>
   <type>country</type>
   <type>political</type>
  </address_component>
  <address_component>
   <long_name>2000</long_name>
   <short_name>2000</short_name>
   <type>postal_code</type>
  </address_component>
  <geometry>
   <location>
    <lat>46.5430807</lat>
    <lng>15.6867716</lng>
   </location>
   <location_type>GEOMETRIC_CENTER</location_type>
   <viewport>
    <southwest>
     <lat>46.5418371</lat>
     <lng>15.6853776</lng>
    </southwest>
    <northeast>
     <lat>46.5445350</lat>
     <lng>15.6880756</lng>
    </northeast>
   </viewport>
   <bounds>
    <southwest>
     <lat>46.5425232</lat>
     <lng>15.6861931</lng>
    </southwest>
    <northeast>
     <lat>46.5438489</lat>
     <lng>15.6872601</lng>
    </northeast>
   </bounds>
  </geometry>
  <place_id>ChIJb_DAujd3b0cRCE6puyMK948</place_id>
 </result>
 <result>
  <type>route</type>
  <formatted_address>Savinjska ulica, 3000 Celje, Slovenia</formatted_address>
  <address_component>
   <long_name>Savinjska ulica</long_name>
   <short_name>Savinjska ulica</short_name>
   <type>route</type>
  </address_component>
  <address_component>
   <long_name>Celje</long_name>
   <short_name>Celje</short_name>
   <type>locality</type>
   <type>political</type>
  </address_component>
  <address_component>
   <long_name>Celje</long_name>
   <short_name>Celje</short_name>
   <type>postal_town</type>
  </address_component>
  <address_component>
   <long_name>Celje</long_name>
   <short_name>Celje</short_name>
   <type>administrative_area_level_1</type>
   <type>political</type>
  </address_component>
  <address_component>
   <long_name>Slovenia</long_name>
   <short_name>SI</short_name>
   <type>country</type>
   <type>political</type>
  </address_component>
  <address_component>
   <long_name>3000</long_name>
   <short_name>3000</short_name>
   <type>postal_code</type>
  </address_component>
  <geometry>
   <location>
    <lat>46.2263815</lat>
    <lng>15.2649599</lng>
   </location>
   <location_type>GEOMETRIC_CENTER</location_type>
   <viewport>
    <southwest>
     <lat>46.2249982</lat>
     <lng>15.2637025</lng>
    </southwest>
    <northeast>
     <lat>46.2276961</lat>
     <lng>15.2664005</lng>
    </northeast>
   </viewport>
   <bounds>
    <southwest>
     <lat>46.2261670</lat>
     <lng>15.2649453</lng>
    </southwest>
    <northeast>
     <lat>46.2265273</lat>
     <lng>15.2651577</lng>
    </northeast>
   </bounds>
  </geometry>
  <place_id>ChIJxxZlWP1wZUcR6IdyP-ngJ2c</place_id>
 </result>
</GeocodeResponse>
