<?xml version="1.0" encoding="UTF-8"?>
<GeocodeResponse>
 <status>OK</status>
 <result>
  <type>establishment</type>
  <type>point_of_interest</type>
  <formatted_address>Vävaregatan 6 A 8, 67100 Karleby, Finland</formatted_address>
  <address_component>
   <long_name>6 A 8</long_name>
   <short_name>6 A 8</short_name>
   <type>street_number</type>
  </address_component>
  <address_component>
   <long_name>Vävaregatan</long_name>
   <short_name>Vävaregatan</short_name>
   <type>route</type>
  </address_component>
  <address_component>
   <long_name>Karleby</long_name>
   <short_name>Karleby</short_name>
   <type>locality</type>
   <type>political</type>
  </address_component>
  <address_component>
   <long_name>Finland</long_name>
   <short_name>FI</short_name>
   <type>country</type>
   <type>political</type>
  </address_component>
  <address_component>
   <long_name>67100</long_name>
   <short_name>67100</short_name>
   <type>postal_code</type>
  </address_component>
  <geometry>
   <location>
    <lat>63.8358487</lat>
    <lng>23.1399445</lng>
   </location>
   <location_type>APPROXIMATE</location_type>
   <viewport>
    <southwest>
     <lat>63.8344997</lat>
     <lng>23.1385955</lng>
    </southwest>
    <northeast>
     <lat>63.8371977</lat>
     <lng>23.1412935</lng>
    </northeast>
   </viewport>
  </geometry>
  <place_id>ChIJf1GPYZRIh0YRXjLeSwN9jWA</place_id>
 </result>
 <result>
  <type>embassy</type>
  <type>establishment</type>
  <type>point_of_interest</type>
  <formatted_address>Avenue Palmerston 24, 1000 Bruxelles, Belgium</formatted_address>
  <address_component>
   <long_name>24</long_name>
   <short_name>24</short_name>
   <type>street_number</type>
  </address_component>
  <address_component>
   <long_name>Avenue Palmerston</long_name>
   <short_name>Avenue Palmerston</short_name>
   <type>route</type>
  </address_component>
  <address_component>
   <long_name>Bruxelles</long_name>
   <short_name>Bruxelles</short_name>
   <type>locality</type>
   <type>political</type>
  </address_component>
  <address_component>
   <long_name>Bruxelles</long_name>
   <short_name>Bruxelles</short_name>
   <type>administrative_area_level_1</type>
   <type>political</type>
  </address_component>
  <address_component>
   <long_name>Belgium</long_name>
   <short_name>BE</short_name>
   <type>country</type>
   <type>political</type>
  </address_component>
  <address_component>
   <long_name>1000</long_name>
   <short_name>1000</short_name>
   <type>postal_code</type>
  </address_component>
  <geometry>
   <location>
    <lat>50.8472454</lat>
    <lng>4.3815965</lng>
   </location>
   <location_type>APPROXIMATE</location_type>
   <viewport>
    <southwest>
     <lat>50.8458964</lat>
     <lng>4.3802475</lng>
    </southwest>
    <northeast>
     <lat>50.8485944</lat>
     <lng>4.3829455</lng>
    </northeast>
   </viewport>
  </geometry>
  <place_id>ChIJ11DhI2DDw0cRnWn6fio_qiE</place_id>
 </result>
</GeocodeResponse>
