<?xml version="1.0" encoding="UTF-8"?>
<GeocodeResponse>
 <status>OK</status>
 <result>
  <type>route</type>
  <formatted_address>Mannertie, 97280 Rovaniemi, Finland</formatted_address>
  <address_component>
   <long_name>Mannertie</long_name>
   <short_name>Mannertie</short_name>
   <type>route</type>
  </address_component>
  <address_component>
   <long_name>Rovaniemi</long_name>
   <short_name>Rovaniemi</short_name>
   <type>locality</type>
   <type>political</type>
  </address_component>
  <address_component>
   <long_name>Finland</long_name>
   <short_name>FI</short_name>
   <type>country</type>
   <type>political</type>
  </address_component>
  <address_component>
   <long_name>97280</long_name>
   <short_name>97280</short_name>
   <type>postal_code</type>
  </address_component>
  <geometry>
   <location>
    <lat>66.7004132</lat>
    <lng>25.4408500</lng>
   </location>
   <location_type>GEOMETRIC_CENTER</location_type>
   <viewport>
    <southwest>
     <lat>66.6990699</lat>
     <lng>25.4397243</lng>
    </southwest>
    <northeast>
     <lat>66.7017678</lat>
     <lng>25.4424222</lng>
    </northeast>
   </viewport>
   <bounds>
    <southwest>
     <lat>66.6996513</lat>
     <lng>25.4400315</lng>
    </southwest>
    <northeast>
     <lat>66.7011864</lat>
     <lng>25.4421150</lng>
    </northeast>
   </bounds>
  </geometry>
  <partial_match>true</partial_match>
  <place_id>ChIJNdEEWrKv1EURP-ocYi13sgY</place_id>
 </result>
 <result>
  <type>route</type>
  <formatted_address>Mannerkuja, 45720 Kouvola, Finland</formatted_address>
  <address_component>
   <long_name>Mannerkuja</long_name>
   <short_name>Mannerkuja</short_name>
   <type>route</type>
  </address_component>
  <address_component>
   <long_name>Kouvola</long_name>
   <short_name>Kouvola</short_name>
   <type>locality</type>
   <type>political</type>
  </address_component>
  <address_component>
   <long_name>Finland</long_name>
   <short_name>FI</short_name>
   <type>country</type>
   <type>political</type>
  </address_component>
  <address_component>
   <long_name>45720</long_name>
   <short_name>45720</short_name>
   <type>postal_code</type>
  </address_component>
  <geometry>
   <location>
    <lat>60.8873412</lat>
    <lng>26.6553380</lng>
   </location>
   <location_type>GEOMETRIC_CENTER</location_type>
   <viewport>
    <southwest>
     <lat>60.8860193</lat>
     <lng>26.6542589</lng>
    </southwest>
    <northeast>
     <lat>60.8887173</lat>
     <lng>26.6569568</lng>
    </northeast>
   </viewport>
   <bounds>
    <southwest>
     <lat>60.8872532</lat>
     <lng>26.6551024</lng>
    </southwest>
    <northeast>
     <lat>60.8874834</lat>
     <lng>26.6561133</lng>
    </northeast>
   </bounds>
  </geometry>
  <partial_match>true</partial_match>
  <place_id>ChIJaXTLmHOzkUYR8Fym8pb4JZA</place_id>
 </result>
</GeocodeResponse>
