<?xml version="1.0" encoding="UTF-8"?>
<GeocodeResponse>
 <status>OK</status>
 <result>
  <type>route</type>
  <formatted_address>Hakkari-Van Yolu, Turkey</formatted_address>
  <address_component>
   <long_name>Hakkari-Van Yolu</long_name>
   <short_name>Hakkari-Van Yolu</short_name>
   <type>route</type>
  </address_component>
  <address_component>
   <long_name>Turkey</long_name>
   <short_name>TR</short_name>
   <type>country</type>
   <type>political</type>
  </address_component>
  <geometry>
   <location>
    <lat>37.6875259</lat>
    <lng>43.9206741</lng>
   </location>
   <location_type>GEOMETRIC_CENTER</location_type>
   <viewport>
    <southwest>
     <lat>37.5653164</lat>
     <lng>43.7670566</lng>
    </southwest>
    <northeast>
     <lat>37.7974823</lat>
     <lng>44.0878820</lng>
    </northeast>
   </viewport>
   <bounds>
    <southwest>
     <lat>37.5653164</lat>
     <lng>43.7670566</lng>
    </southwest>
    <northeast>
     <lat>37.7974823</lat>
     <lng>44.0878820</lng>
    </northeast>
   </bounds>
  </geometry>
  <partial_match>true</partial_match>
  <place_id>ChIJU2aH6ceyD0AR8gpvuWhaCPs</place_id>
 </result>
 <result>
  <type>route</type>
  <formatted_address>Hakkari Yolu, Van Merkez/Van, Turkey</formatted_address>
  <address_component>
   <long_name>Hakkari Yolu</long_name>
   <short_name>Hakkari Yolu</short_name>
   <type>route</type>
  </address_component>
  <address_component>
   <long_name>Van Merkez</long_name>
   <short_name>Van Merkez</short_name>
   <type>administrative_area_level_2</type>
   <type>political</type>
  </address_component>
  <address_component>
   <long_name>Van</long_name>
   <short_name>Van</short_name>
   <type>administrative_area_level_1</type>
   <type>political</type>
  </address_component>
  <address_component>
   <long_name>Turkey</long_name>
   <short_name>TR</short_name>
   <type>country</type>
   <type>political</type>
  </address_component>
  <geometry>
   <location>
    <lat>38.4708439</lat>
    <lng>43.3964017</lng>
   </location>
   <location_type>GEOMETRIC_CENTER</location_type>
   <viewport>
    <southwest>
     <lat>38.4629112</lat>
     <lng>43.3900198</lng>
    </southwest>
    <northeast>
     <lat>38.4786677</lat>
     <lng>43.4028371</lng>
    </northeast>
   </viewport>
   <bounds>
    <southwest>
     <lat>38.4629112</lat>
     <lng>43.3900198</lng>
    </southwest>
    <northeast>
     <lat>38.4786677</lat>
     <lng>43.4028371</lng>
    </northeast>
   </bounds>
  </geometry>
  <partial_match>true</partial_match>
  <place_id>ChIJuxhdshRxEkARkUP9g9rMeYI</place_id>
 </result>
 <result>
  <type>route</type>
  <formatted_address>Hakkari-Van Blv., Hakkâri Merkez/Hakkâri, Turkey</formatted_address>
  <address_component>
   <long_name>Hakkari-Van Bulvarı</long_name>
   <short_name>Hakkari-Van Blv.</short_name>
   <type>route</type>
  </address_component>
  <address_component>
   <long_name>Hakkâri Merkez</long_name>
   <short_name>Hakkâri Merkez</short_name>
   <type>administrative_area_level_2</type>
   <type>political</type>
  </address_component>
  <address_component>
   <long_name>Hakkâri</long_name>
   <short_name>Hakkâri</short_name>
   <type>administrative_area_level_1</type>
   <type>political</type>
  </address_component>
  <address_component>
   <long_name>Turkey</long_name>
   <short_name>TR</short_name>
   <type>country</type>
   <type>political</type>
  </address_component>
  <geometry>
   <location>
    <lat>37.5615950</lat>
    <lng>43.7523950</lng>
   </location>
   <location_type>GEOMETRIC_CENTER</location_type>
   <viewport>
    <southwest>
     <lat>37.5505971</lat>
     <lng>43.7386287</lng>
    </southwest>
    <northeast>
     <lat>37.5726720</lat>
     <lng>43.7674475</lng>
    </northeast>
   </viewport>
   <bounds>
    <southwest>
     <lat>37.5505971</lat>
     <lng>43.7386287</lng>
    </southwest>
    <northeast>
     <lat>37.5726720</lat>
     <lng>43.7674475</lng>
    </northeast>
   </bounds>
  </geometry>
  <partial_match>true</partial_match>
  <place_id>ChIJbcfxT_oAD0AR3KMmNhMxze4</place_id>
 </result>
 <result>
  <type>route</type>
  <formatted_address>Depin Köprüsü, 30000 Bayköy/Hakkâri Merkez/Hakkâri, Turkey</formatted_address>
  <address_component>
   <long_name>Depin Köprüsü</long_name>
   <short_name>Depin Köprüsü</short_name>
   <type>route</type>
  </address_component>
  <address_component>
   <long_name>Bayköy Köyü</long_name>
   <short_name>Bayköy</short_name>
   <type>administrative_area_level_3</type>
   <type>political</type>
  </address_component>
  <address_component>
   <long_name>Hakkâri Merkez</long_name>
   <short_name>Hakkâri Merkez</short_name>
   <type>administrative_area_level_2</type>
   <type>political</type>
  </address_component>
  <address_component>
   <long_name>Hakkâri</long_name>
   <short_name>Hakkâri</short_name>
   <type>administrative_area_level_1</type>
   <type>political</type>
  </address_component>
  <address_component>
   <long_name>Turkey</long_name>
   <short_name>TR</short_name>
   <type>country</type>
   <type>political</type>
  </address_component>
  <address_component>
   <long_name>30000</long_name>
   <short_name>30000</short_name>
   <type>postal_code</type>
  </address_component>
  <geometry>
   <location>
    <lat>37.5653904</lat>
    <lng>43.7668645</lng>
   </location>
   <location_type>GEOMETRIC_CENTER</location_type>
   <viewport>
    <southwest>
     <lat>37.5639473</lat>
     <lng>43.7657120</lng>
    </southwest>
    <northeast>
     <lat>37.5666453</lat>
     <lng>43.7684100</lng>
    </northeast>
   </viewport>
   <bounds>
    <southwest>
     <lat>37.5652022</lat>
     <lng>43.7668645</lng>
    </southwest>
    <northeast>
     <lat>37.5653904</lat>
     <lng>43.7672575</lng>
    </northeast>
   </bounds>
  </geometry>
  <partial_match>true</partial_match>
  <place_id>ChIJq4cmHvMAD0ARIS-8BXSRtrM</place_id>
 </result>
 <result>
  <type>route</type>
  <formatted_address>Van Hakkari Yolu, Van, Turkey</formatted_address>
  <address_component>
   <long_name>Van Hakkari Yolu</long_name>
   <short_name>Van Hakkari Yolu</short_name>
   <type>route</type>
  </address_component>
  <address_component>
   <long_name>Van</long_name>
   <short_name>Van</short_name>
   <type>administrative_area_level_1</type>
   <type>political</type>
  </address_component>
  <address_component>
   <long_name>Turkey</long_name>
   <short_name>TR</short_name>
   <type>country</type>
   <type>political</type>
  </address_component>
  <geometry>
   <location>
    <lat>38.1801785</lat>
    <lng>43.9064726</lng>
   </location>
   <location_type>GEOMETRIC_CENTER</location_type>
   <viewport>
    <southwest>
     <lat>37.7974823</lat>
     <lng>43.3819715</lng>
    </southwest>
    <northeast>
     <lat>38.4461608</lat>
     <lng>44.1134702</lng>
    </northeast>
   </viewport>
   <bounds>
    <southwest>
     <lat>37.7974823</lat>
     <lng>43.3819715</lng>
    </southwest>
    <northeast>
     <lat>38.4461608</lat>
     <lng>44.1134702</lng>
    </northeast>
   </bounds>
  </geometry>
  <partial_match>true</partial_match>
  <place_id>ChIJseOAgXYEDkARZrCxxt7tetA</place_id>
 </result>
</GeocodeResponse>
