<?xml version="1.0" encoding="UTF-8"?>
<GeocodeResponse>
 <status>OK</status>
 <result>
  <type>route</type>
  <formatted_address>İstanbul Cd., Saray/Tekirdağ, Turkey</formatted_address>
  <address_component>
   <long_name>İstanbul Caddesi</long_name>
   <short_name>İstanbul Cd.</short_name>
   <type>route</type>
  </address_component>
  <address_component>
   <long_name>Saray</long_name>
   <short_name>Saray</short_name>
   <type>administrative_area_level_2</type>
   <type>political</type>
  </address_component>
  <address_component>
   <long_name>Tekirdağ</long_name>
   <short_name>Tekirdağ</short_name>
   <type>administrative_area_level_1</type>
   <type>political</type>
  </address_component>
  <address_component>
   <long_name>Turkey</long_name>
   <short_name>TR</short_name>
   <type>country</type>
   <type>political</type>
  </address_component>
  <geometry>
   <location>
    <lat>41.4472168</lat>
    <lng>27.9320536</lng>
   </location>
   <location_type>GEOMETRIC_CENTER</location_type>
   <viewport>
    <southwest>
     <lat>41.4428378</lat>
     <lng>27.9239500</lng>
    </southwest>
    <northeast>
     <lat>41.4473382</lat>
     <lng>27.9395958</lng>
    </northeast>
   </viewport>
   <bounds>
    <southwest>
     <lat>41.4428378</lat>
     <lng>27.9239500</lng>
    </southwest>
    <northeast>
     <lat>41.4473382</lat>
     <lng>27.9395958</lng>
    </northeast>
   </bounds>
  </geometry>
  <partial_match>true</partial_match>
  <place_id>ChIJza3BzqMqtRQRQ0wn3tByo9U</place_id>
 </result>
 <result>
  <type>route</type>
  <formatted_address>Yeni, Vize Cd., 59610 Saray/Tekirdağ, Turkey</formatted_address>
  <address_component>
   <long_name>Vize Caddesi</long_name>
   <short_name>Vize Cd.</short_name>
   <type>route</type>
  </address_component>
  <address_component>
   <long_name>Yeni Mahallesi</long_name>
   <short_name>Yeni</short_name>
   <type>administrative_area_level_4</type>
   <type>political</type>
  </address_component>
  <address_component>
   <long_name>Saray</long_name>
   <short_name>Saray</short_name>
   <type>administrative_area_level_2</type>
   <type>political</type>
  </address_component>
  <address_component>
   <long_name>Tekirdağ</long_name>
   <short_name>Tekirdağ</short_name>
   <type>administrative_area_level_1</type>
   <type>political</type>
  </address_component>
  <address_component>
   <long_name>Turkey</long_name>
   <short_name>TR</short_name>
   <type>country</type>
   <type>political</type>
  </address_component>
  <address_component>
   <long_name>59610</long_name>
   <short_name>59610</short_name>
   <type>postal_code</type>
  </address_component>
  <geometry>
   <location>
    <lat>41.4476614</lat>
    <lng>27.9148511</lng>
   </location>
   <location_type>GEOMETRIC_CENTER</location_type>
   <viewport>
    <southwest>
     <lat>41.4444981</lat>
     <lng>27.9112857</lng>
    </southwest>
    <northeast>
     <lat>41.4511585</lat>
     <lng>27.9180251</lng>
    </northeast>
   </viewport>
   <bounds>
    <southwest>
     <lat>41.4444981</lat>
     <lng>27.9112857</lng>
    </southwest>
    <northeast>
     <lat>41.4511585</lat>
     <lng>27.9180251</lng>
    </northeast>
   </bounds>
  </geometry>
  <partial_match>true</partial_match>
  <place_id>ChIJ7XrcQV3VtBQR13pivpSeVKM</place_id>
 </result>
 <result>
  <type>route</type>
  <formatted_address>Gürsel Paşa Cd., Saray/Tekirdağ, Turkey</formatted_address>
  <address_component>
   <long_name>Gürsel Paşa Caddesi</long_name>
   <short_name>Gürsel Paşa Cd.</short_name>
   <type>route</type>
  </address_component>
  <address_component>
   <long_name>Saray</long_name>
   <short_name>Saray</short_name>
   <type>administrative_area_level_2</type>
   <type>political</type>
  </address_component>
  <address_component>
   <long_name>Tekirdağ</long_name>
   <short_name>Tekirdağ</short_name>
   <type>administrative_area_level_1</type>
   <type>political</type>
  </address_component>
  <address_component>
   <long_name>Turkey</long_name>
   <short_name>TR</short_name>
   <type>country</type>
   <type>political</type>
  </address_component>
  <geometry>
   <location>
    <lat>41.4428150</lat>
    <lng>27.9198179</lng>
   </location>
   <location_type>GEOMETRIC_CENTER</location_type>
   <viewport>
    <southwest>
     <lat>41.4411819</lat>
     <lng>27.9180032</lng>
    </southwest>
    <northeast>
     <lat>41.4444981</lat>
     <lng>27.9215818</lng>
    </northeast>
   </viewport>
   <bounds>
    <southwest>
     <lat>41.4411819</lat>
     <lng>27.9180032</lng>
    </southwest>
    <northeast>
     <lat>41.4444981</lat>
     <lng>27.9215818</lng>
    </northeast>
   </bounds>
  </geometry>
  <partial_match>true</partial_match>
  <place_id>ChIJydqQJWHVtBQR7BJBCC0F1BA</place_id>
 </result>
 <result>
  <type>route</type>
  <formatted_address>Nazırlar Cd., Saray/Tekirdağ, Turkey</formatted_address>
  <address_component>
   <long_name>Nazırlar Caddesi</long_name>
   <short_name>Nazırlar Cd.</short_name>
   <type>route</type>
  </address_component>
  <address_component>
   <long_name>Saray</long_name>
   <short_name>Saray</short_name>
   <type>administrative_area_level_2</type>
   <type>political</type>
  </address_component>
  <address_component>
   <long_name>Tekirdağ</long_name>
   <short_name>Tekirdağ</short_name>
   <type>administrative_area_level_1</type>
   <type>political</type>
  </address_component>
  <address_component>
   <long_name>Turkey</long_name>
   <short_name>TR</short_name>
   <type>country</type>
   <type>political</type>
  </address_component>
  <geometry>
   <location>
    <lat>41.4417509</lat>
    <lng>27.9224438</lng>
   </location>
   <location_type>GEOMETRIC_CENTER</location_type>
   <viewport>
    <southwest>
     <lat>41.4404078</lat>
     <lng>27.9206476</lng>
    </southwest>
    <northeast>
     <lat>41.4431057</lat>
     <lng>27.9239500</lng>
    </northeast>
   </viewport>
   <bounds>
    <southwest>
     <lat>41.4406757</lat>
     <lng>27.9206476</lng>
    </southwest>
    <northeast>
     <lat>41.4428378</lat>
     <lng>27.9239500</lng>
    </northeast>
   </bounds>
  </geometry>
  <partial_match>true</partial_match>
  <place_id>ChIJT8Y0sGHVtBQR-btVq4RUXQQ</place_id>
 </result>
 <result>
  <type>route</type>
  <formatted_address>Karşıyaka, Kırklareli Sk., 55080 Canik/Samsun, Turkey</formatted_address>
  <address_component>
   <long_name>Kırklareli Sokak</long_name>
   <short_name>Kırklareli Sk.</short_name>
   <type>route</type>
  </address_component>
  <address_component>
   <long_name>Karşıyaka Mahallesi</long_name>
   <short_name>Karşıyaka</short_name>
   <type>administrative_area_level_4</type>
   <type>political</type>
  </address_component>
  <address_component>
   <long_name>Canik</long_name>
   <short_name>Canik</short_name>
   <type>administrative_area_level_2</type>
   <type>political</type>
  </address_component>
  <address_component>
   <long_name>Samsun</long_name>
   <short_name>Samsun</short_name>
   <type>administrative_area_level_1</type>
   <type>political</type>
  </address_component>
  <address_component>
   <long_name>Turkey</long_name>
   <short_name>TR</short_name>
   <type>country</type>
   <type>political</type>
  </address_component>
  <address_component>
   <long_name>55080</long_name>
   <short_name>55080</short_name>
   <type>postal_code</type>
  </address_component>
  <geometry>
   <location>
    <lat>41.2649435</lat>
    <lng>36.3615233</lng>
   </location>
   <location_type>GEOMETRIC_CENTER</location_type>
   <viewport>
    <southwest>
     <lat>41.2636531</lat>
     <lng>36.3600690</lng>
    </southwest>
    <northeast>
     <lat>41.2663511</lat>
     <lng>36.3627669</lng>
    </northeast>
   </viewport>
   <bounds>
    <southwest>
     <lat>41.2647487</lat>
     <lng>36.3610470</lng>
    </southwest>
    <northeast>
     <lat>41.2652555</lat>
     <lng>36.3617889</lng>
    </northeast>
   </bounds>
  </geometry>
  <partial_match>true</partial_match>
  <place_id>ChIJn1g1Qhl2iEARut-mKPF-pdw</place_id>
 </result>
 <result>
  <type>route</type>
  <formatted_address>Edirne Tekirdağ Yolu, Babaeski/Kırklareli, Turkey</formatted_address>
  <address_component>
   <long_name>Edirne Tekirdağ Yolu</long_name>
   <short_name>Edirne Tekirdağ Yolu</short_name>
   <type>route</type>
  </address_component>
  <address_component>
   <long_name>Babaeski</long_name>
   <short_name>Babaeski</short_name>
   <type>administrative_area_level_2</type>
   <type>political</type>
  </address_component>
  <address_component>
   <long_name>Kırklareli</long_name>
   <short_name>Kırklareli</short_name>
   <type>administrative_area_level_1</type>
   <type>political</type>
  </address_component>
  <address_component>
   <long_name>Turkey</long_name>
   <short_name>TR</short_name>
   <type>country</type>
   <type>political</type>
  </address_component>
  <geometry>
   <location>
    <lat>41.3677719</lat>
    <lng>27.1432816</lng>
   </location>
   <location_type>GEOMETRIC_CENTER</location_type>
   <viewport>
    <southwest>
     <lat>41.3099716</lat>
     <lng>27.1356834</lng>
    </southwest>
    <northeast>
     <lat>41.4218193</lat>
     <lng>27.1615215</lng>
    </northeast>
   </viewport>
   <bounds>
    <southwest>
     <lat>41.3099716</lat>
     <lng>27.1356834</lng>
    </southwest>
    <northeast>
     <lat>41.4218193</lat>
     <lng>27.1615215</lng>
    </northeast>
   </bounds>
  </geometry>
  <partial_match>true</partial_match>
  <place_id>ChIJ4VD7SLBhsxQRj_FbG3f5EyA</place_id>
 </result>
 <result>
  <type>route</type>
  <formatted_address>Tekirdağ Lüleburgaz Yolu, 39750 Büyükkarıştıran/Lüleburgaz/Kırklareli, Turkey</formatted_address>
  <address_component>
   <long_name>Tekirdağ Lüleburgaz Yolu</long_name>
   <short_name>Tekirdağ Lüleburgaz Yolu</short_name>
   <type>route</type>
  </address_component>
  <address_component>
   <long_name>Büyükkarıştıran Belediyesi</long_name>
   <short_name>Büyükkarıştıran</short_name>
   <type>administrative_area_level_3</type>
   <type>political</type>
  </address_component>
  <address_component>
   <long_name>Lüleburgaz</long_name>
   <short_name>Lüleburgaz</short_name>
   <type>administrative_area_level_2</type>
   <type>political</type>
  </address_component>
  <address_component>
   <long_name>Kırklareli</long_name>
   <short_name>Kırklareli</short_name>
   <type>administrative_area_level_1</type>
   <type>political</type>
  </address_component>
  <address_component>
   <long_name>Turkey</long_name>
   <short_name>TR</short_name>
   <type>country</type>
   <type>political</type>
  </address_component>
  <address_component>
   <long_name>39750</long_name>
   <short_name>39750</short_name>
   <type>postal_code</type>
  </address_component>
  <geometry>
   <location>
    <lat>41.2768529</lat>
    <lng>27.5549439</lng>
   </location>
   <location_type>GEOMETRIC_CENTER</location_type>
   <viewport>
    <southwest>
     <lat>41.2667514</lat>
     <lng>27.5501715</lng>
    </southwest>
    <northeast>
     <lat>41.2867910</lat>
     <lng>27.5598111</lng>
    </northeast>
   </viewport>
   <bounds>
    <southwest>
     <lat>41.2667514</lat>
     <lng>27.5501715</lng>
    </southwest>
    <northeast>
     <lat>41.2867910</lat>
     <lng>27.5598111</lng>
    </northeast>
   </bounds>
  </geometry>
  <partial_match>true</partial_match>
  <place_id>ChIJTVJEyDCVtBQRbBTAcTSwCIQ</place_id>
 </result>
 <result>
  <type>route</type>
  <formatted_address>Ayaspaşa, Çarşı Cd., 59600 Saray/Tekirdağ, Turkey</formatted_address>
  <address_component>
   <long_name>Çarşı Caddesi</long_name>
   <short_name>Çarşı Cd.</short_name>
   <type>route</type>
  </address_component>
  <address_component>
   <long_name>Ayaspaşa Mahallesi</long_name>
   <short_name>Ayaspaşa</short_name>
   <type>administrative_area_level_4</type>
   <type>political</type>
  </address_component>
  <address_component>
   <long_name>Saray</long_name>
   <short_name>Saray</short_name>
   <type>administrative_area_level_2</type>
   <type>political</type>
  </address_component>
  <address_component>
   <long_name>Tekirdağ</long_name>
   <short_name>Tekirdağ</short_name>
   <type>administrative_area_level_1</type>
   <type>political</type>
  </address_component>
  <address_component>
   <long_name>Turkey</long_name>
   <short_name>TR</short_name>
   <type>country</type>
   <type>political</type>
  </address_component>
  <address_component>
   <long_name>59600</long_name>
   <short_name>59600</short_name>
   <type>postal_code</type>
  </address_component>
  <geometry>
   <location>
    <lat>41.4409024</lat>
    <lng>27.9203144</lng>
   </location>
   <location_type>GEOMETRIC_CENTER</location_type>
   <viewport>
    <southwest>
     <lat>41.4396597</lat>
     <lng>27.9187755</lng>
    </southwest>
    <northeast>
     <lat>41.4423576</lat>
     <lng>27.9214735</lng>
    </northeast>
   </viewport>
   <bounds>
    <southwest>
     <lat>41.4406757</lat>
     <lng>27.9196014</lng>
    </southwest>
    <northeast>
     <lat>41.4413416</lat>
     <lng>27.9206476</lng>
    </northeast>
   </bounds>
  </geometry>
  <partial_match>true</partial_match>
  <place_id>ChIJRzfzYGHVtBQROre-s_yQQr0</place_id>
 </result>
 <result>
  <type>route</type>
  <formatted_address>Ayaspaşa, Atatürk Myd., 59600 Saray/Tekirdağ, Turkey</formatted_address>
  <address_component>
   <long_name>Atatürk Meydani</long_name>
   <short_name>Atatürk Myd.</short_name>
   <type>route</type>
  </address_component>
  <address_component>
   <long_name>Ayaspaşa Mahallesi</long_name>
   <short_name>Ayaspaşa</short_name>
   <type>administrative_area_level_4</type>
   <type>political</type>
  </address_component>
  <address_component>
   <long_name>Saray</long_name>
   <short_name>Saray</short_name>
   <type>administrative_area_level_2</type>
   <type>political</type>
  </address_component>
  <address_component>
   <long_name>Tekirdağ</long_name>
   <short_name>Tekirdağ</short_name>
   <type>administrative_area_level_1</type>
   <type>political</type>
  </address_component>
  <address_component>
   <long_name>Turkey</long_name>
   <short_name>TR</short_name>
   <type>country</type>
   <type>political</type>
  </address_component>
  <address_component>
   <long_name>59600</long_name>
   <short_name>59600</short_name>
   <type>postal_code</type>
  </address_component>
  <geometry>
   <location>
    <lat>41.4417891</lat>
    <lng>27.9200283</lng>
   </location>
   <location_type>GEOMETRIC_CENTER</location_type>
   <viewport>
    <southwest>
     <lat>41.4404226</lat>
     <lng>27.9187064</lng>
    </southwest>
    <northeast>
     <lat>41.4431205</lat>
     <lng>27.9214043</lng>
    </northeast>
   </viewport>
   <bounds>
    <southwest>
     <lat>41.4413416</lat>
     <lng>27.9196014</lng>
    </southwest>
    <northeast>
     <lat>41.4422015</lat>
     <lng>27.9205093</lng>
    </northeast>
   </bounds>
  </geometry>
  <partial_match>true</partial_match>
  <place_id>ChIJmarBRmHVtBQRxAFBhe3c80Q</place_id>
 </result>
 <result>
  <type>route</type>
  <formatted_address>Eski İstanbul Kırklareli Yolu, 59600 Saray/Tekirdağ, Turkey</formatted_address>
  <address_component>
   <long_name>Eski İstanbul Kırklareli Yolu</long_name>
   <short_name>Eski İstanbul Kırklareli Yolu</short_name>
   <type>route</type>
  </address_component>
  <address_component>
   <long_name>Saray</long_name>
   <short_name>Saray</short_name>
   <type>administrative_area_level_2</type>
   <type>political</type>
  </address_component>
  <address_component>
   <long_name>Tekirdağ</long_name>
   <short_name>Tekirdağ</short_name>
   <type>administrative_area_level_1</type>
   <type>political</type>
  </address_component>
  <address_component>
   <long_name>Turkey</long_name>
   <short_name>TR</short_name>
   <type>country</type>
   <type>political</type>
  </address_component>
  <address_component>
   <long_name>59600</long_name>
   <short_name>59600</short_name>
   <type>postal_code</type>
  </address_component>
  <geometry>
   <location>
    <lat>41.4359389</lat>
    <lng>28.0237008</lng>
   </location>
   <location_type>GEOMETRIC_CENTER</location_type>
   <viewport>
    <southwest>
     <lat>41.4288557</lat>
     <lng>27.9395958</lng>
    </southwest>
    <northeast>
     <lat>41.4463867</lat>
     <lng>28.1108266</lng>
    </northeast>
   </viewport>
   <bounds>
    <southwest>
     <lat>41.4288557</lat>
     <lng>27.9395958</lng>
    </southwest>
    <northeast>
     <lat>41.4463867</lat>
     <lng>28.1108266</lng>
    </northeast>
   </bounds>
  </geometry>
  <partial_match>true</partial_match>
  <place_id>ChIJWd4N04wztRQRZ__7RIsfIkA</place_id>
 </result>
</GeocodeResponse>
