<?xml version="1.0" encoding="UTF-8"?>
<GeocodeResponse>
 <status>OK</status>
 <result>
  <type>administrative_area_level_1</type>
  <type>political</type>
  <formatted_address>North-East, Botswana</formatted_address>
  <address_component>
   <long_name>North-East</long_name>
   <short_name>North-East</short_name>
   <type>administrative_area_level_1</type>
   <type>political</type>
  </address_component>
  <address_component>
   <long_name>Botswana</long_name>
   <short_name>BW</short_name>
   <type>country</type>
   <type>political</type>
  </address_component>
  <geometry>
   <location>
    <lat>-20.9030555</lat>
    <lng>27.4556388</lng>
   </location>
   <location_type>APPROXIMATE</location_type>
   <viewport>
    <southwest>
     <lat>-21.5715560</lat>
     <lng>27.2119900</lng>
    </southwest>
    <northeast>
     <lat>-20.4733811</lat>
     <lng>28.0135779</lng>
    </northeast>
   </viewport>
   <bounds>
    <southwest>
     <lat>-21.5715560</lat>
     <lng>27.2119900</lng>
    </southwest>
    <northeast>
     <lat>-20.4733811</lat>
     <lng>28.0135779</lng>
    </northeast>
   </bounds>
  </geometry>
  <place_id>ChIJixxVUohotB4RLN4I5HkbPMw</place_id>
 </result>
 <result>
  <type>administrative_area_level_1</type>
  <type>political</type>
  <formatted_address>Togdheer, Somalia</formatted_address>
  <address_component>
   <long_name>Togdheer</long_name>
   <short_name>Togdheer</short_name>
   <type>administrative_area_level_1</type>
   <type>political</type>
  </address_component>
  <address_component>
   <long_name>Somalia</long_name>
   <short_name>SO</short_name>
   <type>country</type>
   <type>political</type>
  </address_component>
  <geometry>
   <location>
    <lat>9.4460587</lat>
    <lng>45.2993862</lng>
   </location>
   <location_type>APPROXIMATE</location_type>
   <viewport>
    <southwest>
     <lat>8.0030579</lat>
     <lng>44.6282670</lng>
    </southwest>
    <northeast>
     <lat>10.1261650</lat>
     <lng>46.9899801</lng>
    </northeast>
   </viewport>
   <bounds>
    <southwest>
     <lat>8.0030579</lat>
     <lng>44.6282670</lng>
    </southwest>
    <northeast>
     <lat>10.1261650</lat>
     <lng>46.9899801</lng>
    </northeast>
   </bounds>
  </geometry>
  <place_id>ChIJ2czvfsDshj0RMf-KZEVp2UU</place_id>
 </result>
 <result>
  <type>administrative_area_level_1</type>
  <type>political</type>
  <formatted_address>Nord-Est, Haiti</formatted_address>
  <address_component>
   <long_name>Nord-Est</long_name>
   <short_name>Nord-Est</short_name>
   <type>administrative_area_level_1</type>
   <type>political</type>
  </address_component>
  <address_component>
   <long_name>Haiti</long_name>
   <short_name>HT</short_name>
   <type>country</type>
   <type>political</type>
  </address_component>
  <geometry>
   <location>
    <lat>19.4889723</lat>
    <lng>-71.8571331</lng>
   </location>
   <location_type>APPROXIMATE</location_type>
   <viewport>
    <southwest>
     <lat>19.2588810</lat>
     <lng>-72.1178901</lng>
    </southwest>
    <northeast>
     <lat>19.7289300</lat>
     <lng>-71.6750341</lng>
    </northeast>
   </viewport>
   <bounds>
    <southwest>
     <lat>19.2588810</lat>
     <lng>-72.1178901</lng>
    </southwest>
    <northeast>
     <lat>19.7289300</lat>
     <lng>-71.6750341</lng>
    </northeast>
   </bounds>
  </geometry>
  <place_id>ChIJAxiDkiQlsY4R_DIgGcTFBPE</place_id>
 </result>
 <result>
  <type>administrative_area_level_2</type>
  <type>political</type>
  <formatted_address>North District, Hong Kong</formatted_address>
  <address_component>
   <long_name>North District</long_name>
   <short_name>North District</short_name>
   <type>administrative_area_level_2</type>
   <type>political</type>
  </address_component>
  <address_component>
   <long_name>New Territories</long_name>
   <short_name>New Territories</short_name>
   <type>administrative_area_level_1</type>
   <type>political</type>
  </address_component>
  <address_component>
   <long_name>Hong Kong</long_name>
   <short_name>HK</short_name>
   <type>country</type>
   <type>political</type>
  </address_component>
  <geometry>
   <location>
    <lat>22.5009081</lat>
    <lng>114.1558258</lng>
   </location>
   <location_type>APPROXIMATE</location_type>
   <viewport>
    <southwest>
     <lat>22.4628760</lat>
     <lng>114.0785908</lng>
    </southwest>
    <northeast>
     <lat>22.5619690</lat>
     <lng>114.2276901</lng>
    </northeast>
   </viewport>
   <bounds>
    <southwest>
     <lat>22.4628760</lat>
     <lng>114.0785908</lng>
    </southwest>
    <northeast>
     <lat>22.5619690</lat>
     <lng>114.2276901</lng>
    </northeast>
   </bounds>
  </geometry>
  <partial_match>true</partial_match>
  <place_id>ChIJky0XX9v1AzQR2MQ-BegIC-I</place_id>
 </result>
</GeocodeResponse>
