<?xml version="1.0" encoding="UTF-8"?>
<GeocodeResponse>
 <status>OK</status>
 <result>
  <type>route</type>
  <formatted_address>R. Aveiro - Aventureiro, Joinville - SC, 89226-420, Brazil</formatted_address>
  <address_component>
   <long_name>Rua Aveiro</long_name>
   <short_name>R. Aveiro</short_name>
   <type>route</type>
  </address_component>
  <address_component>
   <long_name>Aventureiro</long_name>
   <short_name>Aventureiro</short_name>
   <type>political</type>
   <type>sublocality</type>
   <type>sublocality_level_1</type>
  </address_component>
  <address_component>
   <long_name>Joinville</long_name>
   <short_name>Joinville</short_name>
   <type>locality</type>
   <type>political</type>
  </address_component>
  <address_component>
   <long_name>Joinville</long_name>
   <short_name>Joinville</short_name>
   <type>administrative_area_level_2</type>
   <type>political</type>
  </address_component>
  <address_component>
   <long_name>Santa Catarina</long_name>
   <short_name>SC</short_name>
   <type>administrative_area_level_1</type>
   <type>political</type>
  </address_component>
  <address_component>
   <long_name>Brazil</long_name>
   <short_name>BR</short_name>
   <type>country</type>
   <type>political</type>
  </address_component>
  <address_component>
   <long_name>89226-420</long_name>
   <short_name>89226-420</short_name>
   <type>postal_code</type>
  </address_component>
  <geometry>
   <location>
    <lat>-26.2369764</lat>
    <lng>-48.8139086</lng>
   </location>
   <location_type>GEOMETRIC_CENTER</location_type>
   <viewport>
    <southwest>
     <lat>-26.2401202</lat>
     <lng>-48.8174237</lng>
    </southwest>
    <northeast>
     <lat>-26.2340306</lat>
     <lng>-48.8100814</lng>
    </northeast>
   </viewport>
   <bounds>
    <southwest>
     <lat>-26.2401202</lat>
     <lng>-48.8174237</lng>
    </southwest>
    <northeast>
     <lat>-26.2340306</lat>
     <lng>-48.8100814</lng>
    </northeast>
   </bounds>
  </geometry>
  <partial_match>true</partial_match>
  <place_id>ChIJ8wOaPWSu3pQRki32WD725tw</place_id>
 </result>
 <result>
  <type>route</type>
  <formatted_address>Av. Zona Industrial, 4505, Portugal</formatted_address>
  <address_component>
   <long_name>Avenida Zona Industrial</long_name>
   <short_name>Av. Zona Industrial</short_name>
   <type>route</type>
  </address_component>
  <address_component>
   <long_name>Santa Maria da Feira</long_name>
   <short_name>Santa Maria da Feira</short_name>
   <type>administrative_area_level_2</type>
   <type>political</type>
  </address_component>
  <address_component>
   <long_name>Aveiro</long_name>
   <short_name>Aveiro</short_name>
   <type>administrative_area_level_1</type>
   <type>political</type>
  </address_component>
  <address_component>
   <long_name>Portugal</long_name>
   <short_name>PT</short_name>
   <type>country</type>
   <type>political</type>
  </address_component>
  <address_component>
   <long_name>4505</long_name>
   <short_name>4505</short_name>
   <type>postal_code</type>
   <type>postal_code_prefix</type>
  </address_component>
  <geometry>
   <location>
    <lat>40.9726876</lat>
    <lng>-8.5211223</lng>
   </location>
   <location_type>GEOMETRIC_CENTER</location_type>
   <viewport>
    <southwest>
     <lat>40.9706667</lat>
     <lng>-8.5246539</lng>
    </southwest>
    <northeast>
     <lat>40.9746474</lat>
     <lng>-8.5175146</lng>
    </northeast>
   </viewport>
   <bounds>
    <southwest>
     <lat>40.9706667</lat>
     <lng>-8.5246539</lng>
    </southwest>
    <northeast>
     <lat>40.9746474</lat>
     <lng>-8.5175146</lng>
    </northeast>
   </bounds>
  </geometry>
  <partial_match>true</partial_match>
  <place_id>ChIJ3STWQoR_JA0RM-bsY65hNmU</place_id>
 </result>
 <result>
  <type>route</type>
  <formatted_address>R. da Zona Industrial, 3870 Bunheiro, Portugal</formatted_address>
  <address_component>
   <long_name>Rua da Zona Industrial</long_name>
   <short_name>R. da Zona Industrial</short_name>
   <type>route</type>
  </address_component>
  <address_component>
   <long_name>Bunheiro</long_name>
   <short_name>Bunheiro</short_name>
   <type>locality</type>
   <type>political</type>
  </address_component>
  <address_component>
   <long_name>Aveiro</long_name>
   <short_name>Aveiro</short_name>
   <type>administrative_area_level_1</type>
   <type>political</type>
  </address_component>
  <address_component>
   <long_name>Portugal</long_name>
   <short_name>PT</short_name>
   <type>country</type>
   <type>political</type>
  </address_component>
  <address_component>
   <long_name>3870</long_name>
   <short_name>3870</short_name>
   <type>postal_code</type>
   <type>postal_code_prefix</type>
  </address_component>
  <geometry>
   <location>
    <lat>40.7632421</lat>
    <lng>-8.6329204</lng>
   </location>
   <location_type>GEOMETRIC_CENTER</location_type>
   <viewport>
    <southwest>
     <lat>40.7618346</lat>
     <lng>-8.6366285</lng>
    </southwest>
    <northeast>
     <lat>40.7645325</lat>
     <lng>-8.6254845</lng>
    </northeast>
   </viewport>
   <bounds>
    <southwest>
     <lat>40.7630768</lat>
     <lng>-8.6366285</lng>
    </southwest>
    <northeast>
     <lat>40.7632903</lat>
     <lng>-8.6254845</lng>
    </northeast>
   </bounds>
  </geometry>
  <partial_match>true</partial_match>
  <place_id>ChIJqStfDPqaIw0RZoBF403JbBo</place_id>
 </result>
 <result>
  <type>route</type>
  <formatted_address>R. Zona Industrial, 4525, Portugal</formatted_address>
  <address_component>
   <long_name>Rua Zona Industrial</long_name>
   <short_name>R. Zona Industrial</short_name>
   <type>route</type>
  </address_component>
  <address_component>
   <long_name>Santa Maria da Feira</long_name>
   <short_name>Santa Maria da Feira</short_name>
   <type>administrative_area_level_2</type>
   <type>political</type>
  </address_component>
  <address_component>
   <long_name>Aveiro</long_name>
   <short_name>Aveiro</short_name>
   <type>administrative_area_level_1</type>
   <type>political</type>
  </address_component>
  <address_component>
   <long_name>Portugal</long_name>
   <short_name>PT</short_name>
   <type>country</type>
   <type>political</type>
  </address_component>
  <address_component>
   <long_name>4525</long_name>
   <short_name>4525</short_name>
   <type>postal_code</type>
   <type>postal_code_prefix</type>
  </address_component>
  <geometry>
   <location>
    <lat>41.0110513</lat>
    <lng>-8.4747222</lng>
   </location>
   <location_type>GEOMETRIC_CENTER</location_type>
   <viewport>
    <southwest>
     <lat>41.0058478</lat>
     <lng>-8.4764952</lng>
    </southwest>
    <northeast>
     <lat>41.0162006</lat>
     <lng>-8.4714724</lng>
    </northeast>
   </viewport>
   <bounds>
    <southwest>
     <lat>41.0058478</lat>
     <lng>-8.4764952</lng>
    </southwest>
    <northeast>
     <lat>41.0162006</lat>
     <lng>-8.4714724</lng>
    </northeast>
   </bounds>
  </geometry>
  <partial_match>true</partial_match>
  <place_id>ChIJV6_GxIeAJA0RMgRiyIVh3t0</place_id>
 </result>
 <result>
  <type>route</type>
  <formatted_address>R. Zona Industrial, 4525 Guisande, Portugal</formatted_address>
  <address_component>
   <long_name>Rua Zona Industrial</long_name>
   <short_name>R. Zona Industrial</short_name>
   <type>route</type>
  </address_component>
  <address_component>
   <long_name>Guisande</long_name>
   <short_name>Guisande</short_name>
   <type>locality</type>
   <type>political</type>
  </address_component>
  <address_component>
   <long_name>Guisande</long_name>
   <short_name>Guisande</short_name>
   <type>administrative_area_level_3</type>
   <type>political</type>
  </address_component>
  <address_component>
   <long_name>Santa Maria da Feira</long_name>
   <short_name>Santa Maria da Feira</short_name>
   <type>administrative_area_level_2</type>
   <type>political</type>
  </address_component>
  <address_component>
   <long_name>Aveiro</long_name>
   <short_name>Aveiro</short_name>
   <type>administrative_area_level_1</type>
   <type>political</type>
  </address_component>
  <address_component>
   <long_name>Portugal</long_name>
   <short_name>PT</short_name>
   <type>country</type>
   <type>political</type>
  </address_component>
  <address_component>
   <long_name>4525</long_name>
   <short_name>4525</short_name>
   <type>postal_code</type>
   <type>postal_code_prefix</type>
  </address_component>
  <geometry>
   <location>
    <lat>40.9738116</lat>
    <lng>-8.4810976</lng>
   </location>
   <location_type>GEOMETRIC_CENTER</location_type>
   <viewport>
    <southwest>
     <lat>40.9702859</lat>
     <lng>-8.4833978</lng>
    </southwest>
    <northeast>
     <lat>40.9772441</lat>
     <lng>-8.4806998</lng>
    </northeast>
   </viewport>
   <bounds>
    <southwest>
     <lat>40.9702859</lat>
     <lng>-8.4833255</lng>
    </southwest>
    <northeast>
     <lat>40.9772441</lat>
     <lng>-8.4807721</lng>
    </northeast>
   </bounds>
  </geometry>
  <partial_match>true</partial_match>
  <place_id>ChIJI9UaLQeAJA0R2fmQ3EU1GgM</place_id>
 </result>
 <result>
  <type>route</type>
  <formatted_address>R. Zona Industrial, 4520-115, Portugal</formatted_address>
  <address_component>
   <long_name>Rua Zona Industrial</long_name>
   <short_name>R. Zona Industrial</short_name>
   <type>route</type>
  </address_component>
  <address_component>
   <long_name>Zona Industrial de Roligo</long_name>
   <short_name>Zona Industrial de Roligo</short_name>
   <type>neighborhood</type>
   <type>political</type>
  </address_component>
  <address_component>
   <long_name>Espargo</long_name>
   <short_name>Espargo</short_name>
   <type>administrative_area_level_3</type>
   <type>political</type>
  </address_component>
  <address_component>
   <long_name>Santa Maria da Feira</long_name>
   <short_name>Santa Maria da Feira</short_name>
   <type>administrative_area_level_2</type>
   <type>political</type>
  </address_component>
  <address_component>
   <long_name>Aveiro</long_name>
   <short_name>Aveiro</short_name>
   <type>administrative_area_level_1</type>
   <type>political</type>
  </address_component>
  <address_component>
   <long_name>Portugal</long_name>
   <short_name>PT</short_name>
   <type>country</type>
   <type>political</type>
  </address_component>
  <address_component>
   <long_name>4520-115</long_name>
   <short_name>4520-115</short_name>
   <type>postal_code</type>
  </address_component>
  <geometry>
   <location>
    <lat>40.9198609</lat>
    <lng>-8.5693735</lng>
   </location>
   <location_type>GEOMETRIC_CENTER</location_type>
   <viewport>
    <southwest>
     <lat>40.9160936</lat>
     <lng>-8.5703749</lng>
    </southwest>
    <northeast>
     <lat>40.9237688</lat>
     <lng>-8.5676769</lng>
    </northeast>
   </viewport>
   <bounds>
    <southwest>
     <lat>40.9160936</lat>
     <lng>-8.5699750</lng>
    </southwest>
    <northeast>
     <lat>40.9237688</lat>
     <lng>-8.5680768</lng>
    </northeast>
   </bounds>
  </geometry>
  <partial_match>true</partial_match>
  <place_id>ChIJWWNtVyqBIw0RzyO04moB9D0</place_id>
 </result>
 <result>
  <type>route</type>
  <formatted_address>R. Zona Industrial, 3740, Portugal</formatted_address>
  <address_component>
   <long_name>Rua Zona Industrial</long_name>
   <short_name>R. Zona Industrial</short_name>
   <type>route</type>
  </address_component>
  <address_component>
   <long_name>Sever do Vouga</long_name>
   <short_name>Sever do Vouga</short_name>
   <type>administrative_area_level_2</type>
   <type>political</type>
  </address_component>
  <address_component>
   <long_name>Aveiro</long_name>
   <short_name>Aveiro</short_name>
   <type>administrative_area_level_1</type>
   <type>political</type>
  </address_component>
  <address_component>
   <long_name>Portugal</long_name>
   <short_name>PT</short_name>
   <type>country</type>
   <type>political</type>
  </address_component>
  <address_component>
   <long_name>3740</long_name>
   <short_name>3740</short_name>
   <type>postal_code</type>
   <type>postal_code_prefix</type>
  </address_component>
  <geometry>
   <location>
    <lat>40.7827062</lat>
    <lng>-8.3810637</lng>
   </location>
   <location_type>GEOMETRIC_CENTER</location_type>
   <viewport>
    <southwest>
     <lat>40.7810084</lat>
     <lng>-8.3824424</lng>
    </southwest>
    <northeast>
     <lat>40.7844136</lat>
     <lng>-8.3797445</lng>
    </northeast>
   </viewport>
   <bounds>
    <southwest>
     <lat>40.7810084</lat>
     <lng>-8.3818470</lng>
    </southwest>
    <northeast>
     <lat>40.7844136</lat>
     <lng>-8.3803399</lng>
    </northeast>
   </bounds>
  </geometry>
  <partial_match>true</partial_match>
  <place_id>ChIJ9SnkcNtwIw0Ra6luj_V4GOM</place_id>
 </result>
 <result>
  <type>route</type>
  <formatted_address>Tv. Zona Industrial, 4535 Mozelos, Portugal</formatted_address>
  <address_component>
   <long_name>Travessa Zona Industrial</long_name>
   <short_name>Tv. Zona Industrial</short_name>
   <type>route</type>
  </address_component>
  <address_component>
   <long_name>Vergada</long_name>
   <short_name>Vergada</short_name>
   <type>neighborhood</type>
   <type>political</type>
  </address_component>
  <address_component>
   <long_name>Mozelos</long_name>
   <short_name>Mozelos</short_name>
   <type>locality</type>
   <type>political</type>
  </address_component>
  <address_component>
   <long_name>Mozelos</long_name>
   <short_name>Mozelos</short_name>
   <type>administrative_area_level_3</type>
   <type>political</type>
  </address_component>
  <address_component>
   <long_name>Santa Maria da Feira</long_name>
   <short_name>Santa Maria da Feira</short_name>
   <type>administrative_area_level_2</type>
   <type>political</type>
  </address_component>
  <address_component>
   <long_name>Aveiro</long_name>
   <short_name>Aveiro</short_name>
   <type>administrative_area_level_1</type>
   <type>political</type>
  </address_component>
  <address_component>
   <long_name>Portugal</long_name>
   <short_name>PT</short_name>
   <type>country</type>
   <type>political</type>
  </address_component>
  <address_component>
   <long_name>4535</long_name>
   <short_name>4535</short_name>
   <type>postal_code</type>
   <type>postal_code_prefix</type>
  </address_component>
  <geometry>
   <location>
    <lat>41.0010049</lat>
    <lng>-8.5502143</lng>
   </location>
   <location_type>GEOMETRIC_CENTER</location_type>
   <viewport>
    <southwest>
     <lat>40.9996661</lat>
     <lng>-8.5517159</lng>
    </southwest>
    <northeast>
     <lat>41.0023640</lat>
     <lng>-8.5490179</lng>
    </northeast>
   </viewport>
   <bounds>
    <southwest>
     <lat>40.9999509</lat>
     <lng>-8.5505629</lng>
    </southwest>
    <northeast>
     <lat>41.0020792</lat>
     <lng>-8.5501709</lng>
    </northeast>
   </bounds>
  </geometry>
  <partial_match>true</partial_match>
  <place_id>ChIJLdSn1SF_JA0RWouzVxYr7q4</place_id>
 </result>
 <result>
  <type>route</type>
  <formatted_address>R. 1 Zona Industrial, 4520-475 Rio Meão, Portugal</formatted_address>
  <address_component>
   <long_name>Rua 1 Zona Industrial</long_name>
   <short_name>R. 1 Zona Industrial</short_name>
   <type>route</type>
  </address_component>
  <address_component>
   <long_name>Zona Industrial de Rio Meão</long_name>
   <short_name>Zona Industrial de Rio Meão</short_name>
   <type>neighborhood</type>
   <type>political</type>
  </address_component>
  <address_component>
   <long_name>Rio Meão</long_name>
   <short_name>Rio Meão</short_name>
   <type>locality</type>
   <type>political</type>
  </address_component>
  <address_component>
   <long_name>Rio Meão</long_name>
   <short_name>Rio Meão</short_name>
   <type>administrative_area_level_3</type>
   <type>political</type>
  </address_component>
  <address_component>
   <long_name>Santa Maria da Feira</long_name>
   <short_name>Santa Maria da Feira</short_name>
   <type>administrative_area_level_2</type>
   <type>political</type>
  </address_component>
  <address_component>
   <long_name>Aveiro</long_name>
   <short_name>Aveiro</short_name>
   <type>administrative_area_level_1</type>
   <type>political</type>
  </address_component>
  <address_component>
   <long_name>Portugal</long_name>
   <short_name>PT</short_name>
   <type>country</type>
   <type>political</type>
  </address_component>
  <address_component>
   <long_name>4520-475</long_name>
   <short_name>4520-475</short_name>
   <type>postal_code</type>
  </address_component>
  <address_component>
   <long_name>4520</long_name>
   <short_name>4520</short_name>
   <type>postal_code</type>
   <type>postal_code_prefix</type>
  </address_component>
  <geometry>
   <location>
    <lat>40.9629584</lat>
    <lng>-8.5985662</lng>
   </location>
   <location_type>GEOMETRIC_CENTER</location_type>
   <viewport>
    <southwest>
     <lat>40.9618640</lat>
     <lng>-8.6013663</lng>
    </southwest>
    <northeast>
     <lat>40.9649751</lat>
     <lng>-8.5964232</lng>
    </northeast>
   </viewport>
   <bounds>
    <southwest>
     <lat>40.9618640</lat>
     <lng>-8.6013663</lng>
    </southwest>
    <northeast>
     <lat>40.9649751</lat>
     <lng>-8.5964232</lng>
    </northeast>
   </bounds>
  </geometry>
  <partial_match>true</partial_match>
  <place_id>ChIJKdn7mZ54JA0RLerLCAPf9RY</place_id>
 </result>
 <result>
  <type>route</type>
  <formatted_address>R. 3 Zona Industrial, 4520-475 Rio Meão, Portugal</formatted_address>
  <address_component>
   <long_name>Rua 3 Zona Industrial</long_name>
   <short_name>R. 3 Zona Industrial</short_name>
   <type>route</type>
  </address_component>
  <address_component>
   <long_name>Rio Meão</long_name>
   <short_name>Rio Meão</short_name>
   <type>locality</type>
   <type>political</type>
  </address_component>
  <address_component>
   <long_name>Aveiro</long_name>
   <short_name>Aveiro</short_name>
   <type>administrative_area_level_1</type>
   <type>political</type>
  </address_component>
  <address_component>
   <long_name>Portugal</long_name>
   <short_name>PT</short_name>
   <type>country</type>
   <type>political</type>
  </address_component>
  <address_component>
   <long_name>4520-475</long_name>
   <short_name>4520-475</short_name>
   <type>postal_code</type>
  </address_component>
  <address_component>
   <long_name>4520</long_name>
   <short_name>4520</short_name>
   <type>postal_code</type>
   <type>postal_code_prefix</type>
  </address_component>
  <geometry>
   <location>
    <lat>40.9615941</lat>
    <lng>-8.5979290</lng>
   </location>
   <location_type>GEOMETRIC_CENTER</location_type>
   <viewport>
    <southwest>
     <lat>40.9602995</lat>
     <lng>-8.5992329</lng>
    </southwest>
    <northeast>
     <lat>40.9629974</lat>
     <lng>-8.5965349</lng>
    </northeast>
   </viewport>
   <bounds>
    <southwest>
     <lat>40.9603498</lat>
     <lng>-8.5989598</lng>
    </southwest>
    <northeast>
     <lat>40.9629471</lat>
     <lng>-8.5968080</lng>
    </northeast>
   </bounds>
  </geometry>
  <partial_match>true</partial_match>
  <place_id>ChIJCxIHRJ54JA0RvmD15v1PUhk</place_id>
 </result>
</GeocodeResponse>
