<?xml version="1.0" encoding="UTF-8"?>
<GeocodeResponse>
 <status>OK</status>
 <result>
  <type>locality</type>
  <type>political</type>
  <formatted_address>Padua, Province of Padua, Italy</formatted_address>
  <address_component>
   <long_name>Padua</long_name>
   <short_name>Padua</short_name>
   <type>locality</type>
   <type>political</type>
  </address_component>
  <address_component>
   <long_name>Padua</long_name>
   <short_name>Padua</short_name>
   <type>administrative_area_level_3</type>
   <type>political</type>
  </address_component>
  <address_component>
   <long_name>Province of Padua</long_name>
   <short_name>PD</short_name>
   <type>administrative_area_level_2</type>
   <type>political</type>
  </address_component>
  <address_component>
   <long_name>Veneto</long_name>
   <short_name>Veneto</short_name>
   <type>administrative_area_level_1</type>
   <type>political</type>
  </address_component>
  <address_component>
   <long_name>Italy</long_name>
   <short_name>IT</short_name>
   <type>country</type>
   <type>political</type>
  </address_component>
  <geometry>
   <location>
    <lat>45.4064349</lat>
    <lng>11.8767611</lng>
   </location>
   <location_type>APPROXIMATE</location_type>
   <viewport>
    <southwest>
     <lat>45.3555074</lat>
     <lng>11.8096260</lng>
    </southwest>
    <northeast>
     <lat>45.4575001</lat>
     <lng>11.9728649</lng>
    </northeast>
   </viewport>
   <bounds>
    <southwest>
     <lat>45.3555074</lat>
     <lng>11.8096260</lng>
    </southwest>
    <northeast>
     <lat>45.4575001</lat>
     <lng>11.9728649</lng>
    </northeast>
   </bounds>
  </geometry>
  <place_id>ChIJzzCrQVjafkcRLC4aqu02gsE</place_id>
 </result>
 <result>
  <type>locality</type>
  <type>political</type>
  <formatted_address>35043 Padua, Province of Padua, Italy</formatted_address>
  <address_component>
   <long_name>Padua</long_name>
   <short_name>Padua</short_name>
   <type>locality</type>
   <type>political</type>
  </address_component>
  <address_component>
   <long_name>Monselice</long_name>
   <short_name>Monselice</short_name>
   <type>administrative_area_level_3</type>
   <type>political</type>
  </address_component>
  <address_component>
   <long_name>Province of Padua</long_name>
   <short_name>PD</short_name>
   <type>administrative_area_level_2</type>
   <type>political</type>
  </address_component>
  <address_component>
   <long_name>Veneto</long_name>
   <short_name>Veneto</short_name>
   <type>administrative_area_level_1</type>
   <type>political</type>
  </address_component>
  <address_component>
   <long_name>Italy</long_name>
   <short_name>IT</short_name>
   <type>country</type>
   <type>political</type>
  </address_component>
  <address_component>
   <long_name>35043</long_name>
   <short_name>35043</short_name>
   <type>postal_code</type>
  </address_component>
  <geometry>
   <location>
    <lat>45.2662016</lat>
    <lng>11.7717091</lng>
   </location>
   <location_type>APPROXIMATE</location_type>
   <viewport>
    <southwest>
     <lat>45.2647889</lat>
     <lng>11.7708021</lng>
    </southwest>
    <northeast>
     <lat>45.2674869</lat>
     <lng>11.7735000</lng>
    </northeast>
   </viewport>
   <bounds>
    <southwest>
     <lat>45.2655665</lat>
     <lng>11.7709595</lng>
    </southwest>
    <northeast>
     <lat>45.2667093</lat>
     <lng>11.7733426</lng>
    </northeast>
   </bounds>
  </geometry>
  <place_id>ChIJ3a3_5NHgfkcRN7sgiEUSWpI</place_id>
 </result>
</GeocodeResponse>
