<?xml version="1.0" encoding="UTF-8"?>
<GeocodeResponse>
 <status>OK</status>
 <result>
  <type>route</type>
  <formatted_address>Allée Sud-Ouest, 33300 Bordeaux, France</formatted_address>
  <address_component>
   <long_name>Allée Sud-Ouest</long_name>
   <short_name>Allée Sud-Ouest</short_name>
   <type>route</type>
  </address_component>
  <address_component>
   <long_name>Bordeaux</long_name>
   <short_name>Bordeaux</short_name>
   <type>locality</type>
   <type>political</type>
  </address_component>
  <address_component>
   <long_name>Gironde</long_name>
   <short_name>Gironde</short_name>
   <type>administrative_area_level_2</type>
   <type>political</type>
  </address_component>
  <address_component>
   <long_name>Aquitaine Limousin Poitou-Charentes</long_name>
   <short_name>Aquitaine Limousin Poitou-Charentes</short_name>
   <type>administrative_area_level_1</type>
   <type>political</type>
  </address_component>
  <address_component>
   <long_name>France</long_name>
   <short_name>FR</short_name>
   <type>country</type>
   <type>political</type>
  </address_component>
  <address_component>
   <long_name>33300</long_name>
   <short_name>33300</short_name>
   <type>postal_code</type>
  </address_component>
  <geometry>
   <location>
    <lat>44.8945390</lat>
    <lng>-0.5723100</lng>
   </location>
   <location_type>GEOMETRIC_CENTER</location_type>
   <viewport>
    <southwest>
     <lat>44.8931776</lat>
     <lng>-0.5736692</lng>
    </southwest>
    <northeast>
     <lat>44.8958755</lat>
     <lng>-0.5709712</lng>
    </northeast>
   </viewport>
   <bounds>
    <southwest>
     <lat>44.8944830</lat>
     <lng>-0.5733760</lng>
    </southwest>
    <northeast>
     <lat>44.8945701</lat>
     <lng>-0.5712644</lng>
    </northeast>
   </bounds>
  </geometry>
  <partial_match>true</partial_match>
  <place_id>ChIJkQOov68pVQ0RCjM7ACJcdA0</place_id>
 </result>
</GeocodeResponse>
