<?xml version="1.0" encoding="UTF-8"?>
<GeocodeResponse>
 <status>OK</status>
 <result>
  <type>administrative_area_level_3</type>
  <type>political</type>
  <formatted_address>Evros, Greece</formatted_address>
  <address_component>
   <long_name>Evros</long_name>
   <short_name>Evros</short_name>
   <type>administrative_area_level_3</type>
   <type>political</type>
  </address_component>
  <address_component>
   <long_name>East Macedonia and Thrace</long_name>
   <short_name>East Macedonia and Thrace</short_name>
   <type>administrative_area_level_2</type>
   <type>political</type>
  </address_component>
  <address_component>
   <long_name>Makedonia Thraki</long_name>
   <short_name>Makedonia Thraki</short_name>
   <type>administrative_area_level_1</type>
   <type>political</type>
  </address_component>
  <address_component>
   <long_name>Greece</long_name>
   <short_name>GR</short_name>
   <type>country</type>
   <type>political</type>
  </address_component>
  <geometry>
   <location>
    <lat>41.2443761</lat>
    <lng>26.1359431</lng>
   </location>
   <location_type>APPROXIMATE</location_type>
   <viewport>
    <southwest>
     <lat>40.7267989</lat>
     <lng>25.6188954</lng>
    </southwest>
    <northeast>
     <lat>41.7490577</lat>
     <lng>26.6352367</lng>
    </northeast>
   </viewport>
   <bounds>
    <southwest>
     <lat>40.3922362</lat>
     <lng>25.4436325</lng>
    </southwest>
    <northeast>
     <lat>41.7490577</lat>
     <lng>26.6352367</lng>
    </northeast>
   </bounds>
  </geometry>
  <partial_match>true</partial_match>
  <place_id>ChIJNeBpMJ1qshQRIMO54iy9AAM</place_id>
 </result>
 <result>
  <type>route</type>
  <formatted_address>Makedonia, Didimoticho 683 00, Greece</formatted_address>
  <address_component>
   <long_name>Makedonia</long_name>
   <short_name>Makedonia</short_name>
   <type>route</type>
  </address_component>
  <address_component>
   <long_name>Didimoticho</long_name>
   <short_name>Didimoticho</short_name>
   <type>locality</type>
   <type>political</type>
  </address_component>
  <address_component>
   <long_name>Didimoticho</long_name>
   <short_name>Didimoticho</short_name>
   <type>administrative_area_level_5</type>
   <type>political</type>
  </address_component>
  <address_component>
   <long_name>Didymoteicho</long_name>
   <short_name>Didymoteicho</short_name>
   <type>administrative_area_level_4</type>
   <type>political</type>
  </address_component>
  <address_component>
   <long_name>Evros</long_name>
   <short_name>Evros</short_name>
   <type>administrative_area_level_3</type>
   <type>political</type>
  </address_component>
  <address_component>
   <long_name>Greece</long_name>
   <short_name>GR</short_name>
   <type>country</type>
   <type>political</type>
  </address_component>
  <address_component>
   <long_name>683 00</long_name>
   <short_name>683 00</short_name>
   <type>postal_code</type>
  </address_component>
  <geometry>
   <location>
    <lat>41.3465327</lat>
    <lng>26.4969276</lng>
   </location>
   <location_type>GEOMETRIC_CENTER</location_type>
   <viewport>
    <southwest>
     <lat>41.3452131</lat>
     <lng>26.4955626</lng>
    </southwest>
    <northeast>
     <lat>41.3479110</lat>
     <lng>26.4982605</lng>
    </northeast>
   </viewport>
   <bounds>
    <southwest>
     <lat>41.3458428</lat>
     <lng>26.4965228</lng>
    </southwest>
    <northeast>
     <lat>41.3472813</lat>
     <lng>26.4973003</lng>
    </northeast>
   </bounds>
  </geometry>
  <partial_match>true</partial_match>
  <place_id>ChIJMW2hl3YDsxQRMUDK5VsZikE</place_id>
 </result>
</GeocodeResponse>
