<?xml version="1.0" encoding="UTF-8"?>
<GeocodeResponse>
 <status>OK</status>
 <result>
  <type>route</type>
  <formatted_address>Rheinhessenstraße, 55545 Bad Kreuznach, Germany</formatted_address>
  <address_component>
   <long_name>Rheinhessenstraße</long_name>
   <short_name>Rheinhessenstraße</short_name>
   <type>route</type>
  </address_component>
  <address_component>
   <long_name>Bad Kreuznach</long_name>
   <short_name>Bad Kreuznach</short_name>
   <type>locality</type>
   <type>political</type>
  </address_component>
  <address_component>
   <long_name>Rheinland-Pfalz</long_name>
   <short_name>RP</short_name>
   <type>administrative_area_level_1</type>
   <type>political</type>
  </address_component>
  <address_component>
   <long_name>Germany</long_name>
   <short_name>DE</short_name>
   <type>country</type>
   <type>political</type>
  </address_component>
  <address_component>
   <long_name>55545</long_name>
   <short_name>55545</short_name>
   <type>postal_code</type>
  </address_component>
  <geometry>
   <location>
    <lat>49.8453060</lat>
    <lng>7.9136510</lng>
   </location>
   <location_type>GEOMETRIC_CENTER</location_type>
   <viewport>
    <southwest>
     <lat>49.8449300</lat>
     <lng>7.9084651</lng>
    </southwest>
    <northeast>
     <lat>49.8479632</lat>
     <lng>7.9199639</lng>
    </northeast>
   </viewport>
   <bounds>
    <southwest>
     <lat>49.8449300</lat>
     <lng>7.9084651</lng>
    </southwest>
    <northeast>
     <lat>49.8479632</lat>
     <lng>7.9199639</lng>
    </northeast>
   </bounds>
  </geometry>
  <partial_match>true</partial_match>
  <place_id>ChIJw5mGTSHxvUcRhhiDz2QhJwU</place_id>
 </result>
 <result>
  <type>route</type>
  <formatted_address>Rheinhessenring, 55597 Wöllstein, Germany</formatted_address>
  <address_component>
   <long_name>Rheinhessenring</long_name>
   <short_name>Rheinhessenring</short_name>
   <type>route</type>
  </address_component>
  <address_component>
   <long_name>Wöllstein</long_name>
   <short_name>Wöllstein</short_name>
   <type>locality</type>
   <type>political</type>
  </address_component>
  <address_component>
   <long_name>Rheinland-Pfalz</long_name>
   <short_name>RP</short_name>
   <type>administrative_area_level_1</type>
   <type>political</type>
  </address_component>
  <address_component>
   <long_name>Germany</long_name>
   <short_name>DE</short_name>
   <type>country</type>
   <type>political</type>
  </address_component>
  <address_component>
   <long_name>55597</long_name>
   <short_name>55597</short_name>
   <type>postal_code</type>
  </address_component>
  <geometry>
   <location>
    <lat>49.8086392</lat>
    <lng>7.9631581</lng>
   </location>
   <location_type>GEOMETRIC_CENTER</location_type>
   <viewport>
    <southwest>
     <lat>49.8066775</lat>
     <lng>7.9604299</lng>
    </southwest>
    <northeast>
     <lat>49.8093755</lat>
     <lng>7.9661800</lng>
    </northeast>
   </viewport>
   <bounds>
    <southwest>
     <lat>49.8068776</lat>
     <lng>7.9604299</lng>
    </southwest>
    <northeast>
     <lat>49.8091754</lat>
     <lng>7.9661800</lng>
    </northeast>
   </bounds>
  </geometry>
  <partial_match>true</partial_match>
  <place_id>ChIJ269y6xf0vUcREICHTIDISWQ</place_id>
 </result>
 <result>
  <type>route</type>
  <formatted_address>Rheinhessenstraße, 55546 Neu-Bamberg, Germany</formatted_address>
  <address_component>
   <long_name>Rheinhessenstraße</long_name>
   <short_name>Rheinhessenstraße</short_name>
   <type>route</type>
  </address_component>
  <address_component>
   <long_name>Neu-Bamberg</long_name>
   <short_name>Neu-Bamberg</short_name>
   <type>locality</type>
   <type>political</type>
  </address_component>
  <address_component>
   <long_name>Rheinland-Pfalz</long_name>
   <short_name>RP</short_name>
   <type>administrative_area_level_1</type>
   <type>political</type>
  </address_component>
  <address_component>
   <long_name>Germany</long_name>
   <short_name>DE</short_name>
   <type>country</type>
   <type>political</type>
  </address_component>
  <address_component>
   <long_name>55546</long_name>
   <short_name>55546</short_name>
   <type>postal_code</type>
  </address_component>
  <geometry>
   <location>
    <lat>49.8017204</lat>
    <lng>7.9259483</lng>
   </location>
   <location_type>GEOMETRIC_CENTER</location_type>
   <viewport>
    <southwest>
     <lat>49.7996979</lat>
     <lng>7.9236466</lng>
    </southwest>
    <northeast>
     <lat>49.8023958</lat>
     <lng>7.9263446</lng>
    </northeast>
   </viewport>
   <bounds>
    <southwest>
     <lat>49.8003733</lat>
     <lng>7.9240429</lng>
    </southwest>
    <northeast>
     <lat>49.8017204</lat>
     <lng>7.9259483</lng>
    </northeast>
   </bounds>
  </geometry>
  <partial_match>true</partial_match>
  <place_id>ChIJpwNVWpL2vUcRmY0YqMaB6GE</place_id>
 </result>
</GeocodeResponse>
