<?xml version="1.0" encoding="UTF-8"?>
<GeocodeResponse>
 <status>OK</status>
 <result>
  <type>administrative_area_level_1</type>
  <type>political</type>
  <formatted_address>Oriental, Morocco</formatted_address>
  <address_component>
   <long_name>Oriental</long_name>
   <short_name>Oriental</short_name>
   <type>administrative_area_level_1</type>
   <type>political</type>
  </address_component>
  <address_component>
   <long_name>Morocco</long_name>
   <short_name>MA</short_name>
   <type>country</type>
   <type>political</type>
  </address_component>
  <geometry>
   <location>
    <lat>33.4198879</lat>
    <lng>-2.1450245</lng>
   </location>
   <location_type>APPROXIMATE</location_type>
   <viewport>
    <southwest>
     <lat>31.7321127</lat>
     <lng>-4.0242251</lng>
    </southwest>
    <northeast>
     <lat>35.4401591</lat>
     <lng>-0.9969758</lng>
    </northeast>
   </viewport>
   <bounds>
    <southwest>
     <lat>31.7321127</lat>
     <lng>-4.0242251</lng>
    </southwest>
    <northeast>
     <lat>35.4401591</lat>
     <lng>-0.9969758</lng>
    </northeast>
   </bounds>
  </geometry>
  <place_id>ChIJDy688WvNnA0RlYrk7xTAOQ8</place_id>
 </result>
 <result>
  <type>administrative_area_level_1</type>
  <type>political</type>
  <formatted_address>East, Cameroon</formatted_address>
  <address_component>
   <long_name>East</long_name>
   <short_name>East</short_name>
   <type>administrative_area_level_1</type>
   <type>political</type>
  </address_component>
  <address_component>
   <long_name>Cameroon</long_name>
   <short_name>CM</short_name>
   <type>country</type>
   <type>political</type>
  </address_component>
  <geometry>
   <location>
    <lat>3.9505128</lat>
    <lng>13.9143990</lng>
   </location>
   <location_type>APPROXIMATE</location_type>
   <viewport>
    <southwest>
     <lat>1.6525478</lat>
     <lng>12.5253720</lng>
    </southwest>
    <northeast>
     <lat>6.0856640</lat>
     <lng>16.1921160</lng>
    </northeast>
   </viewport>
   <bounds>
    <southwest>
     <lat>1.6525478</lat>
     <lng>12.5253720</lng>
    </southwest>
    <northeast>
     <lat>6.0856640</lat>
     <lng>16.1921160</lng>
    </northeast>
   </bounds>
  </geometry>
  <place_id>ChIJfYUIQ2CYkhARegFaQ-sQo-k</place_id>
 </result>
 <result>
  <type>administrative_area_level_1</type>
  <type>political</type>
  <formatted_address>Eastern, Ghana</formatted_address>
  <address_component>
   <long_name>Eastern</long_name>
   <short_name>Eastern</short_name>
   <type>administrative_area_level_1</type>
   <type>political</type>
  </address_component>
  <address_component>
   <long_name>Ghana</long_name>
   <short_name>GH</short_name>
   <type>country</type>
   <type>political</type>
  </address_component>
  <geometry>
   <location>
    <lat>6.2374036</lat>
    <lng>-0.4502368</lng>
   </location>
   <location_type>APPROXIMATE</location_type>
   <viewport>
    <southwest>
     <lat>5.7293479</lat>
     <lng>-1.2483401</lng>
    </southwest>
    <northeast>
     <lat>7.1865409</lat>
     <lng>0.3226440</lng>
    </northeast>
   </viewport>
   <bounds>
    <southwest>
     <lat>5.7293479</lat>
     <lng>-1.2483401</lng>
    </southwest>
    <northeast>
     <lat>7.1865409</lat>
     <lng>0.3226440</lng>
    </northeast>
   </bounds>
  </geometry>
  <place_id>ChIJX-_ADEQw2Q8RFn-r_jYXEi4</place_id>
 </result>
</GeocodeResponse>
