<?xml version="1.0" encoding="UTF-8"?>
<GeocodeResponse>
 <status>OK</status>
 <result>
  <type>administrative_area_level_2</type>
  <type>political</type>
  <formatted_address>Poznański, Poland</formatted_address>
  <address_component>
   <long_name>Poznański</long_name>
   <short_name>Poznański</short_name>
   <type>administrative_area_level_2</type>
   <type>political</type>
  </address_component>
  <address_component>
   <long_name>wielkopolskie</long_name>
   <short_name>wielkopolskie</short_name>
   <type>administrative_area_level_1</type>
   <type>political</type>
  </address_component>
  <address_component>
   <long_name>Poland</long_name>
   <short_name>PL</short_name>
   <type>country</type>
   <type>political</type>
  </address_component>
  <geometry>
   <location>
    <lat>52.3373001</lat>
    <lng>16.6691174</lng>
   </location>
   <location_type>APPROXIMATE</location_type>
   <viewport>
    <southwest>
     <lat>52.1515259</lat>
     <lng>16.4529101</lng>
    </southwest>
    <northeast>
     <lat>52.6811869</lat>
     <lng>17.3976979</lng>
    </northeast>
   </viewport>
   <bounds>
    <southwest>
     <lat>52.1515259</lat>
     <lng>16.4529101</lng>
    </southwest>
    <northeast>
     <lat>52.6811869</lat>
     <lng>17.3976979</lng>
    </northeast>
   </bounds>
  </geometry>
  <place_id>ChIJOUzM6U5bBEcRi7Y72qTSObc</place_id>
 </result>
 <result>
  <type>administrative_area_level_2</type>
  <type>political</type>
  <formatted_address>Poznań County, Poland</formatted_address>
  <address_component>
   <long_name>Poznań County</long_name>
   <short_name>Poznań County</short_name>
   <type>administrative_area_level_2</type>
   <type>political</type>
  </address_component>
  <address_component>
   <long_name>Greater Poland Voivodeship</long_name>
   <short_name>Greater Poland Voivodeship</short_name>
   <type>administrative_area_level_1</type>
   <type>political</type>
  </address_component>
  <address_component>
   <long_name>Poland</long_name>
   <short_name>PL</short_name>
   <type>country</type>
   <type>political</type>
  </address_component>
  <geometry>
   <location>
    <lat>52.4071021</lat>
    <lng>16.9412479</lng>
   </location>
   <location_type>APPROXIMATE</location_type>
   <viewport>
    <southwest>
     <lat>52.2919161</lat>
     <lng>16.7316725</lng>
    </southwest>
    <northeast>
     <lat>52.5091410</lat>
     <lng>17.0716593</lng>
    </northeast>
   </viewport>
   <bounds>
    <southwest>
     <lat>52.2919161</lat>
     <lng>16.7316725</lng>
    </southwest>
    <northeast>
     <lat>52.5091410</lat>
     <lng>17.0716593</lng>
    </northeast>
   </bounds>
  </geometry>
  <place_id>ChIJtwrh7NJEBEcRn0cciViyNPQ</place_id>
 </result>
</GeocodeResponse>
