<?xml version="1.0" encoding="UTF-8"?>
<GeocodeResponse>
 <status>OK</status>
 <result>
  <type>route</type>
  <formatted_address>Oeste, Atlántida, Departamento de Canelones, Uruguay</formatted_address>
  <address_component>
   <long_name>Oeste</long_name>
   <short_name>Oeste</short_name>
   <type>route</type>
  </address_component>
  <address_component>
   <long_name>Atlántida</long_name>
   <short_name>Atlántida</short_name>
   <type>locality</type>
   <type>political</type>
  </address_component>
  <address_component>
   <long_name>Departamento de Canelones</long_name>
   <short_name>Departamento de Canelones</short_name>
   <type>administrative_area_level_1</type>
   <type>political</type>
  </address_component>
  <address_component>
   <long_name>Uruguay</long_name>
   <short_name>UY</short_name>
   <type>country</type>
   <type>political</type>
  </address_component>
  <geometry>
   <location>
    <lat>-34.7739896</lat>
    <lng>-55.7499695</lng>
   </location>
   <location_type>GEOMETRIC_CENTER</location_type>
   <viewport>
    <southwest>
     <lat>-34.7766363</lat>
     <lng>-55.7511412</lng>
    </southwest>
    <northeast>
     <lat>-34.7721781</lat>
     <lng>-55.7484432</lng>
    </northeast>
   </viewport>
   <bounds>
    <southwest>
     <lat>-34.7766363</lat>
     <lng>-55.7506374</lng>
    </southwest>
    <northeast>
     <lat>-34.7721781</lat>
     <lng>-55.7489470</lng>
    </northeast>
   </bounds>
  </geometry>
  <partial_match>true</partial_match>
  <place_id>ChIJOX0p4YT2n5URffAUWKruXec</place_id>
 </result>
 <result>
  <type>political</type>
  <type>sublocality</type>
  <type>sublocality_level_1</type>
  <formatted_address>Centro, Santa Bárbara D'Oeste - SP, Brazil</formatted_address>
  <address_component>
   <long_name>Centro</long_name>
   <short_name>Centro</short_name>
   <type>political</type>
   <type>sublocality</type>
   <type>sublocality_level_1</type>
  </address_component>
  <address_component>
   <long_name>Santa Bárbara D'Oeste</long_name>
   <short_name>Santa Bárbara D'Oeste</short_name>
   <type>locality</type>
   <type>political</type>
  </address_component>
  <address_component>
   <long_name>Santa Bárbara D'Oeste</long_name>
   <short_name>Santa Bárbara D'Oeste</short_name>
   <type>administrative_area_level_2</type>
   <type>political</type>
  </address_component>
  <address_component>
   <long_name>São Paulo</long_name>
   <short_name>SP</short_name>
   <type>administrative_area_level_1</type>
   <type>political</type>
  </address_component>
  <address_component>
   <long_name>Brazil</long_name>
   <short_name>BR</short_name>
   <type>country</type>
   <type>political</type>
  </address_component>
  <address_component>
   <long_name>13450</long_name>
   <short_name>13450</short_name>
   <type>postal_code</type>
   <type>postal_code_prefix</type>
  </address_component>
  <geometry>
   <location>
    <lat>-22.7586464</lat>
    <lng>-47.4183125</lng>
   </location>
   <location_type>APPROXIMATE</location_type>
   <viewport>
    <southwest>
     <lat>-22.7599954</lat>
     <lng>-47.4196615</lng>
    </southwest>
    <northeast>
     <lat>-22.7572974</lat>
     <lng>-47.4169635</lng>
    </northeast>
   </viewport>
  </geometry>
  <partial_match>true</partial_match>
  <place_id>ChIJp-b1wredyJQRYAsIzP1K4Kk</place_id>
 </result>
 <result>
  <type>political</type>
  <type>sublocality</type>
  <type>sublocality_level_1</type>
  <formatted_address>Centro, São Miguel do Oeste - SC, Brazil</formatted_address>
  <address_component>
   <long_name>Centro</long_name>
   <short_name>Centro</short_name>
   <type>political</type>
   <type>sublocality</type>
   <type>sublocality_level_1</type>
  </address_component>
  <address_component>
   <long_name>São Miguel do Oeste</long_name>
   <short_name>São Miguel do Oeste</short_name>
   <type>locality</type>
   <type>political</type>
  </address_component>
  <address_component>
   <long_name>São Miguel do Oeste</long_name>
   <short_name>São Miguel do Oeste</short_name>
   <type>administrative_area_level_2</type>
   <type>political</type>
  </address_component>
  <address_component>
   <long_name>Santa Catarina</long_name>
   <short_name>SC</short_name>
   <type>administrative_area_level_1</type>
   <type>political</type>
  </address_component>
  <address_component>
   <long_name>Brazil</long_name>
   <short_name>BR</short_name>
   <type>country</type>
   <type>political</type>
  </address_component>
  <geometry>
   <location>
    <lat>-26.7277889</lat>
    <lng>-53.5175835</lng>
   </location>
   <location_type>APPROXIMATE</location_type>
   <viewport>
    <southwest>
     <lat>-26.7397668</lat>
     <lng>-53.5271366</lng>
    </southwest>
    <northeast>
     <lat>-26.7190778</lat>
     <lng>-53.5090101</lng>
    </northeast>
   </viewport>
   <bounds>
    <southwest>
     <lat>-26.7397668</lat>
     <lng>-53.5271366</lng>
    </southwest>
    <northeast>
     <lat>-26.7190778</lat>
     <lng>-53.5090101</lng>
    </northeast>
   </bounds>
  </geometry>
  <partial_match>true</partial_match>
  <place_id>ChIJOf-2rl9c-pQRP2_En9PTj1k</place_id>
 </result>
 <result>
  <type>political</type>
  <type>sublocality</type>
  <type>sublocality_level_1</type>
  <formatted_address>Centro, Herval D'Oeste - SC, Brazil</formatted_address>
  <address_component>
   <long_name>Centro</long_name>
   <short_name>Centro</short_name>
   <type>political</type>
   <type>sublocality</type>
   <type>sublocality_level_1</type>
  </address_component>
  <address_component>
   <long_name>Joaçaba</long_name>
   <short_name>Joaçaba</short_name>
   <type>locality</type>
   <type>political</type>
  </address_component>
  <address_component>
   <long_name>Herval D'Oeste</long_name>
   <short_name>Herval D'Oeste</short_name>
   <type>administrative_area_level_2</type>
   <type>political</type>
  </address_component>
  <address_component>
   <long_name>Santa Catarina</long_name>
   <short_name>SC</short_name>
   <type>administrative_area_level_1</type>
   <type>political</type>
  </address_component>
  <address_component>
   <long_name>Brazil</long_name>
   <short_name>BR</short_name>
   <type>country</type>
   <type>political</type>
  </address_component>
  <geometry>
   <location>
    <lat>-27.1704882</lat>
    <lng>-51.4953362</lng>
   </location>
   <location_type>APPROXIMATE</location_type>
   <viewport>
    <southwest>
     <lat>-27.1785814</lat>
     <lng>-51.5021782</lng>
    </southwest>
    <northeast>
     <lat>-27.1663417</lat>
     <lng>-51.4880652</lng>
    </northeast>
   </viewport>
   <bounds>
    <southwest>
     <lat>-27.1785814</lat>
     <lng>-51.5021782</lng>
    </southwest>
    <northeast>
     <lat>-27.1663417</lat>
     <lng>-51.4880652</lng>
    </northeast>
   </bounds>
  </geometry>
  <partial_match>true</partial_match>
  <place_id>ChIJLTjIi0rl45QRBBX6rose9DE</place_id>
 </result>
 <result>
  <type>political</type>
  <type>sublocality</type>
  <type>sublocality_level_1</type>
  <formatted_address>Centro, Colorado do Oeste - RO, Brazil</formatted_address>
  <address_component>
   <long_name>Centro</long_name>
   <short_name>Centro</short_name>
   <type>political</type>
   <type>sublocality</type>
   <type>sublocality_level_1</type>
  </address_component>
  <address_component>
   <long_name>Colorado do Oeste</long_name>
   <short_name>Colorado do Oeste</short_name>
   <type>locality</type>
   <type>political</type>
  </address_component>
  <address_component>
   <long_name>Colorado do Oeste</long_name>
   <short_name>Colorado do Oeste</short_name>
   <type>administrative_area_level_2</type>
   <type>political</type>
  </address_component>
  <address_component>
   <long_name>Rondônia</long_name>
   <short_name>RO</short_name>
   <type>administrative_area_level_1</type>
   <type>political</type>
  </address_component>
  <address_component>
   <long_name>Brazil</long_name>
   <short_name>BR</short_name>
   <type>country</type>
   <type>political</type>
  </address_component>
  <geometry>
   <location>
    <lat>-13.1227821</lat>
    <lng>-60.5443448</lng>
   </location>
   <location_type>APPROXIMATE</location_type>
   <viewport>
    <southwest>
     <lat>-13.1276382</lat>
     <lng>-60.5487459</lng>
    </southwest>
    <northeast>
     <lat>-13.1139889</lat>
     <lng>-60.5385508</lng>
    </northeast>
   </viewport>
   <bounds>
    <southwest>
     <lat>-13.1276382</lat>
     <lng>-60.5487459</lng>
    </southwest>
    <northeast>
     <lat>-13.1139889</lat>
     <lng>-60.5385508</lng>
    </northeast>
   </bounds>
  </geometry>
  <partial_match>true</partial_match>
  <place_id>ChIJ0cvt2VcquZMRSE4W0-DiNp8</place_id>
 </result>
 <result>
  <type>route</type>
  <formatted_address>Oeste, Naucalpan de Juárez, Méx., Mexico</formatted_address>
  <address_component>
   <long_name>Oeste</long_name>
   <short_name>Oeste</short_name>
   <type>route</type>
  </address_component>
  <address_component>
   <long_name>Naucalpan de Juárez</long_name>
   <short_name>Naucalpan de Juárez</short_name>
   <type>locality</type>
   <type>political</type>
  </address_component>
  <address_component>
   <long_name>Estado de México</long_name>
   <short_name>Méx.</short_name>
   <type>administrative_area_level_1</type>
   <type>political</type>
  </address_component>
  <address_component>
   <long_name>Mexico</long_name>
   <short_name>MX</short_name>
   <type>country</type>
   <type>political</type>
  </address_component>
  <geometry>
   <location>
    <lat>19.4642193</lat>
    <lng>-99.2390696</lng>
   </location>
   <location_type>GEOMETRIC_CENTER</location_type>
   <viewport>
    <southwest>
     <lat>19.4627498</lat>
     <lng>-99.2410081</lng>
    </southwest>
    <northeast>
     <lat>19.4655522</lat>
     <lng>-99.2383101</lng>
    </northeast>
   </viewport>
   <bounds>
    <southwest>
     <lat>19.4627498</lat>
     <lng>-99.2404204</lng>
    </southwest>
    <northeast>
     <lat>19.4655522</lat>
     <lng>-99.2388978</lng>
    </northeast>
   </bounds>
  </geometry>
  <partial_match>true</partial_match>
  <place_id>ChIJ3UTI4q0D0oURX7t4Tg3QQt8</place_id>
 </result>
 <result>
  <type>political</type>
  <type>sublocality</type>
  <type>sublocality_level_1</type>
  <formatted_address>Centro, Mirassol D'Oeste - MT, Brazil</formatted_address>
  <address_component>
   <long_name>Centro</long_name>
   <short_name>Centro</short_name>
   <type>political</type>
   <type>sublocality</type>
   <type>sublocality_level_1</type>
  </address_component>
  <address_component>
   <long_name>Mirassol D'Oeste</long_name>
   <short_name>Mirassol D'Oeste</short_name>
   <type>locality</type>
   <type>political</type>
  </address_component>
  <address_component>
   <long_name>Mirassol D'Oeste</long_name>
   <short_name>Mirassol D'Oeste</short_name>
   <type>administrative_area_level_2</type>
   <type>political</type>
  </address_component>
  <address_component>
   <long_name>Mato Grosso</long_name>
   <short_name>MT</short_name>
   <type>administrative_area_level_1</type>
   <type>political</type>
  </address_component>
  <address_component>
   <long_name>Brazil</long_name>
   <short_name>BR</short_name>
   <type>country</type>
   <type>political</type>
  </address_component>
  <geometry>
   <location>
    <lat>-15.6762136</lat>
    <lng>-58.0967819</lng>
   </location>
   <location_type>APPROXIMATE</location_type>
   <viewport>
    <southwest>
     <lat>-15.6812255</lat>
     <lng>-58.1023796</lng>
    </southwest>
    <northeast>
     <lat>-15.6709476</lat>
     <lng>-58.0916299</lng>
    </northeast>
   </viewport>
   <bounds>
    <southwest>
     <lat>-15.6812255</lat>
     <lng>-58.1023796</lng>
    </southwest>
    <northeast>
     <lat>-15.6709476</lat>
     <lng>-58.0916299</lng>
    </northeast>
   </bounds>
  </geometry>
  <partial_match>true</partial_match>
  <place_id>ChIJfVMdQdMWmpMRVywzaDl--5k</place_id>
 </result>
 <result>
  <type>political</type>
  <type>sublocality</type>
  <type>sublocality_level_1</type>
  <formatted_address>Centro, Espigão D'Oeste - RO, Brazil</formatted_address>
  <address_component>
   <long_name>Centro</long_name>
   <short_name>Centro</short_name>
   <type>political</type>
   <type>sublocality</type>
   <type>sublocality_level_1</type>
  </address_component>
  <address_component>
   <long_name>Espigão D'Oeste</long_name>
   <short_name>Espigão D'Oeste</short_name>
   <type>locality</type>
   <type>political</type>
  </address_component>
  <address_component>
   <long_name>Espigão D'Oeste</long_name>
   <short_name>Espigão D'Oeste</short_name>
   <type>administrative_area_level_2</type>
   <type>political</type>
  </address_component>
  <address_component>
   <long_name>Rondônia</long_name>
   <short_name>RO</short_name>
   <type>administrative_area_level_1</type>
   <type>political</type>
  </address_component>
  <address_component>
   <long_name>Brazil</long_name>
   <short_name>BR</short_name>
   <type>country</type>
   <type>political</type>
  </address_component>
  <geometry>
   <location>
    <lat>-11.5296313</lat>
    <lng>-61.0165127</lng>
   </location>
   <location_type>APPROXIMATE</location_type>
   <viewport>
    <southwest>
     <lat>-11.5344594</lat>
     <lng>-61.0209520</lng>
    </southwest>
    <northeast>
     <lat>-11.5234651</lat>
     <lng>-61.0095299</lng>
    </northeast>
   </viewport>
   <bounds>
    <southwest>
     <lat>-11.5344594</lat>
     <lng>-61.0209520</lng>
    </southwest>
    <northeast>
     <lat>-11.5234651</lat>
     <lng>-61.0095299</lng>
    </northeast>
   </bounds>
  </geometry>
  <partial_match>true</partial_match>
  <place_id>ChIJyalwsAnBt5MRGT3lqxzHWRE</place_id>
 </result>
 <result>
  <type>route</type>
  <formatted_address>Oeste, La Habana, Cuba</formatted_address>
  <address_component>
   <long_name>Oeste</long_name>
   <short_name>Oeste</short_name>
   <type>route</type>
  </address_component>
  <address_component>
   <long_name>La Habana</long_name>
   <short_name>La Habana</short_name>
   <type>locality</type>
   <type>political</type>
  </address_component>
  <address_component>
   <long_name>Diez de Octubre</long_name>
   <short_name>Diez de Octubre</short_name>
   <type>administrative_area_level_2</type>
   <type>political</type>
  </address_component>
  <address_component>
   <long_name>La Habana</long_name>
   <short_name>La Habana</short_name>
   <type>administrative_area_level_1</type>
   <type>political</type>
  </address_component>
  <address_component>
   <long_name>Cuba</long_name>
   <short_name>CU</short_name>
   <type>country</type>
   <type>political</type>
  </address_component>
  <geometry>
   <location>
    <lat>23.0823358</lat>
    <lng>-82.3798384</lng>
   </location>
   <location_type>GEOMETRIC_CENTER</location_type>
   <viewport>
    <southwest>
     <lat>23.0804157</lat>
     <lng>-82.3811939</lng>
    </southwest>
    <northeast>
     <lat>23.0842958</lat>
     <lng>-82.3784959</lng>
    </northeast>
   </viewport>
   <bounds>
    <southwest>
     <lat>23.0804157</lat>
     <lng>-82.3801559</lng>
    </southwest>
    <northeast>
     <lat>23.0842958</lat>
     <lng>-82.3795339</lng>
    </northeast>
   </bounds>
  </geometry>
  <partial_match>true</partial_match>
  <place_id>ChIJGxXzBw16zYgRXJyglzd8hfk</place_id>
 </result>
 <result>
  <type>political</type>
  <type>sublocality</type>
  <type>sublocality_level_1</type>
  <formatted_address>Centro, São Lourenço do Oeste - SC, Brazil</formatted_address>
  <address_component>
   <long_name>Centro</long_name>
   <short_name>Centro</short_name>
   <type>political</type>
   <type>sublocality</type>
   <type>sublocality_level_1</type>
  </address_component>
  <address_component>
   <long_name>São Lourenço do Oeste</long_name>
   <short_name>São Lourenço do Oeste</short_name>
   <type>locality</type>
   <type>political</type>
  </address_component>
  <address_component>
   <long_name>São Lourenço do Oeste</long_name>
   <short_name>São Lourenço do Oeste</short_name>
   <type>administrative_area_level_2</type>
   <type>political</type>
  </address_component>
  <address_component>
   <long_name>Santa Catarina</long_name>
   <short_name>SC</short_name>
   <type>administrative_area_level_1</type>
   <type>political</type>
  </address_component>
  <address_component>
   <long_name>Brazil</long_name>
   <short_name>BR</short_name>
   <type>country</type>
   <type>political</type>
  </address_component>
  <geometry>
   <location>
    <lat>-26.3542385</lat>
    <lng>-52.8486809</lng>
   </location>
   <location_type>APPROXIMATE</location_type>
   <viewport>
    <southwest>
     <lat>-26.3586101</lat>
     <lng>-52.8539563</lng>
    </southwest>
    <northeast>
     <lat>-26.3489441</lat>
     <lng>-52.8435866</lng>
    </northeast>
   </viewport>
   <bounds>
    <southwest>
     <lat>-26.3586101</lat>
     <lng>-52.8539563</lng>
    </southwest>
    <northeast>
     <lat>-26.3489441</lat>
     <lng>-52.8435866</lng>
    </northeast>
   </bounds>
  </geometry>
  <partial_match>true</partial_match>
  <place_id>ChIJhb97hvuw-pQRZrV_YDWQtB8</place_id>
 </result>
</GeocodeResponse>
