<?xml version="1.0" encoding="UTF-8"?>
<GeocodeResponse>
 <status>OK</status>
 <result>
  <type>premise</type>
  <formatted_address>Serra da Estrela, Araçariguama - SP, Brazil</formatted_address>
  <address_component>
   <long_name>Serra da Estrela</long_name>
   <short_name>Serra da Estrela</short_name>
   <type>premise</type>
  </address_component>
  <address_component>
   <long_name>Araçariguama</long_name>
   <short_name>Araçariguama</short_name>
   <type>administrative_area_level_2</type>
   <type>political</type>
  </address_component>
  <address_component>
   <long_name>São Paulo</long_name>
   <short_name>SP</short_name>
   <type>administrative_area_level_1</type>
   <type>political</type>
  </address_component>
  <address_component>
   <long_name>Brazil</long_name>
   <short_name>BR</short_name>
   <type>country</type>
   <type>political</type>
  </address_component>
  <geometry>
   <location>
    <lat>-23.4186361</lat>
    <lng>-47.0731544</lng>
   </location>
   <location_type>APPROXIMATE</location_type>
   <viewport>
    <southwest>
     <lat>-23.4288746</lat>
     <lng>-47.0891618</lng>
    </southwest>
    <northeast>
     <lat>-23.4083968</lat>
     <lng>-47.0571470</lng>
    </northeast>
   </viewport>
  </geometry>
  <partial_match>true</partial_match>
  <place_id>ChIJe2zH1hMUz5QRzO09SIuU-oQ</place_id>
 </result>
 <result>
  <type>route</type>
  <formatted_address>R. Serra da Estrela - Jardim Paranapanema, Campinas - SP, Brazil</formatted_address>
  <address_component>
   <long_name>Rua Serra da Estrela</long_name>
   <short_name>R. Serra da Estrela</short_name>
   <type>route</type>
  </address_component>
  <address_component>
   <long_name>Jardim Paranapanema</long_name>
   <short_name>Jardim Paranapanema</short_name>
   <type>political</type>
   <type>sublocality</type>
   <type>sublocality_level_1</type>
  </address_component>
  <address_component>
   <long_name>Campinas</long_name>
   <short_name>Campinas</short_name>
   <type>locality</type>
   <type>political</type>
  </address_component>
  <address_component>
   <long_name>Campinas</long_name>
   <short_name>Campinas</short_name>
   <type>administrative_area_level_2</type>
   <type>political</type>
  </address_component>
  <address_component>
   <long_name>São Paulo</long_name>
   <short_name>SP</short_name>
   <type>administrative_area_level_1</type>
   <type>political</type>
  </address_component>
  <address_component>
   <long_name>Brazil</long_name>
   <short_name>BR</short_name>
   <type>country</type>
   <type>political</type>
  </address_component>
  <address_component>
   <long_name>13100</long_name>
   <short_name>13100</short_name>
   <type>postal_code</type>
   <type>postal_code_prefix</type>
  </address_component>
  <geometry>
   <location>
    <lat>-22.9143880</lat>
    <lng>-47.0347758</lng>
   </location>
   <location_type>GEOMETRIC_CENTER</location_type>
   <viewport>
    <southwest>
     <lat>-22.9159186</lat>
     <lng>-47.0364150</lng>
    </southwest>
    <northeast>
     <lat>-22.9128877</lat>
     <lng>-47.0337170</lng>
    </northeast>
   </viewport>
   <bounds>
    <southwest>
     <lat>-22.9159186</lat>
     <lng>-47.0354140</lng>
    </southwest>
    <northeast>
     <lat>-22.9128877</lat>
     <lng>-47.0347180</lng>
    </northeast>
   </bounds>
  </geometry>
  <partial_match>true</partial_match>
  <place_id>ChIJRyJUQBnPyJQRBaFDCPWlmdM</place_id>
 </result>
 <result>
  <type>route</type>
  <formatted_address>R. Serra da Estrela - Jardim Paineira, Itaquaquecetuba - SP, Brazil</formatted_address>
  <address_component>
   <long_name>Rua Serra da Estrela</long_name>
   <short_name>R. Serra da Estrela</short_name>
   <type>route</type>
  </address_component>
  <address_component>
   <long_name>Jardim Paineira</long_name>
   <short_name>Jardim Paineira</short_name>
   <type>political</type>
   <type>sublocality</type>
   <type>sublocality_level_1</type>
  </address_component>
  <address_component>
   <long_name>Itaquaquecetuba</long_name>
   <short_name>Itaquaquecetuba</short_name>
   <type>locality</type>
   <type>political</type>
  </address_component>
  <address_component>
   <long_name>Itaquaquecetuba</long_name>
   <short_name>Itaquaquecetuba</short_name>
   <type>administrative_area_level_2</type>
   <type>political</type>
  </address_component>
  <address_component>
   <long_name>São Paulo</long_name>
   <short_name>SP</short_name>
   <type>administrative_area_level_1</type>
   <type>political</type>
  </address_component>
  <address_component>
   <long_name>Brazil</long_name>
   <short_name>BR</short_name>
   <type>country</type>
   <type>political</type>
  </address_component>
  <address_component>
   <long_name>08581</long_name>
   <short_name>08581</short_name>
   <type>postal_code</type>
   <type>postal_code_prefix</type>
  </address_component>
  <geometry>
   <location>
    <lat>-23.4568069</lat>
    <lng>-46.3510565</lng>
   </location>
   <location_type>GEOMETRIC_CENTER</location_type>
   <viewport>
    <southwest>
     <lat>-23.4580322</lat>
     <lng>-46.3524237</lng>
    </southwest>
    <northeast>
     <lat>-23.4553342</lat>
     <lng>-46.3497258</lng>
    </northeast>
   </viewport>
   <bounds>
    <southwest>
     <lat>-23.4575824</lat>
     <lng>-46.3512062</lng>
    </southwest>
    <northeast>
     <lat>-23.4557840</lat>
     <lng>-46.3509433</lng>
    </northeast>
   </bounds>
  </geometry>
  <partial_match>true</partial_match>
  <place_id>ChIJ7ce_UNp8zpQR_hVaQ4aKaBc</place_id>
 </result>
</GeocodeResponse>
