<?xml version="1.0" encoding="UTF-8"?>
<GeocodeResponse>
 <status>OK</status>
 <result>
  <type>route</type>
  <formatted_address>Kadıköy, Ahmet Yesevi Sk., 55040 İlkadım/Samsun, Turkey</formatted_address>
  <address_component>
   <long_name>Ahmet Yesevi Sokak</long_name>
   <short_name>Ahmet Yesevi Sk.</short_name>
   <type>route</type>
  </address_component>
  <address_component>
   <long_name>Kadıköy Mahallesi</long_name>
   <short_name>Kadıköy</short_name>
   <type>administrative_area_level_4</type>
   <type>political</type>
  </address_component>
  <address_component>
   <long_name>İlkadım</long_name>
   <short_name>İlkadım</short_name>
   <type>administrative_area_level_2</type>
   <type>political</type>
  </address_component>
  <address_component>
   <long_name>Samsun</long_name>
   <short_name>Samsun</short_name>
   <type>administrative_area_level_1</type>
   <type>political</type>
  </address_component>
  <address_component>
   <long_name>Turkey</long_name>
   <short_name>TR</short_name>
   <type>country</type>
   <type>political</type>
  </address_component>
  <address_component>
   <long_name>55040</long_name>
   <short_name>55040</short_name>
   <type>postal_code</type>
  </address_component>
  <geometry>
   <location>
    <lat>41.2831662</lat>
    <lng>36.3150731</lng>
   </location>
   <location_type>GEOMETRIC_CENTER</location_type>
   <viewport>
    <southwest>
     <lat>41.2818404</lat>
     <lng>36.3137757</lng>
    </southwest>
    <northeast>
     <lat>41.2845384</lat>
     <lng>36.3164737</lng>
    </northeast>
   </viewport>
   <bounds>
    <southwest>
     <lat>41.2830525</lat>
     <lng>36.3148424</lng>
    </southwest>
    <northeast>
     <lat>41.2833263</lat>
     <lng>36.3154070</lng>
    </northeast>
   </bounds>
  </geometry>
  <partial_match>true</partial_match>
  <place_id>ChIJN0N1Vdx3iEAR38C8ht0wvaY</place_id>
 </result>
</GeocodeResponse>
