<?xml version="1.0" encoding="UTF-8"?>
<GeocodeResponse>
 <status>OK</status>
 <result>
  <type>locality</type>
  <type>political</type>
  <formatted_address>Roth, Germany</formatted_address>
  <address_component>
   <long_name>Roth</long_name>
   <short_name>Roth</short_name>
   <type>locality</type>
   <type>political</type>
  </address_component>
  <address_component>
   <long_name>Roth</long_name>
   <short_name>Roth</short_name>
   <type>administrative_area_level_3</type>
   <type>political</type>
  </address_component>
  <address_component>
   <long_name>Middle Franconia</long_name>
   <short_name>Middle Franconia</short_name>
   <type>administrative_area_level_2</type>
   <type>political</type>
  </address_component>
  <address_component>
   <long_name>Bavaria</long_name>
   <short_name>BY</short_name>
   <type>administrative_area_level_1</type>
   <type>political</type>
  </address_component>
  <address_component>
   <long_name>Germany</long_name>
   <short_name>DE</short_name>
   <type>country</type>
   <type>political</type>
  </address_component>
  <geometry>
   <location>
    <lat>49.2456337</lat>
    <lng>11.0911607</lng>
   </location>
   <location_type>APPROXIMATE</location_type>
   <viewport>
    <southwest>
     <lat>49.1758608</lat>
     <lng>11.0314860</lng>
    </southwest>
    <northeast>
     <lat>49.2978777</lat>
     <lng>11.2164660</lng>
    </northeast>
   </viewport>
   <bounds>
    <southwest>
     <lat>49.1758608</lat>
     <lng>11.0314860</lng>
    </southwest>
    <northeast>
     <lat>49.2978777</lat>
     <lng>11.2164660</lng>
    </northeast>
   </bounds>
  </geometry>
  <place_id>ChIJjTUkcB1En0cRgAe2vjLaHgQ</place_id>
 </result>
 <result>
  <type>locality</type>
  <type>political</type>
  <formatted_address>Roth, IL 62962, USA</formatted_address>
  <address_component>
   <long_name>Roth</long_name>
   <short_name>Roth</short_name>
   <type>locality</type>
   <type>political</type>
  </address_component>
  <address_component>
   <long_name>Cache Precinct</long_name>
   <short_name>Cache Precinct</short_name>
   <type>administrative_area_level_3</type>
   <type>political</type>
  </address_component>
  <address_component>
   <long_name>Alexander County</long_name>
   <short_name>Alexander County</short_name>
   <type>administrative_area_level_2</type>
   <type>political</type>
  </address_component>
  <address_component>
   <long_name>Illinois</long_name>
   <short_name>IL</short_name>
   <type>administrative_area_level_1</type>
   <type>political</type>
  </address_component>
  <address_component>
   <long_name>United States</long_name>
   <short_name>US</short_name>
   <type>country</type>
   <type>political</type>
  </address_component>
  <address_component>
   <long_name>62962</long_name>
   <short_name>62962</short_name>
   <type>postal_code</type>
  </address_component>
  <geometry>
   <location>
    <lat>37.0976910</lat>
    <lng>-89.3062060</lng>
   </location>
   <location_type>APPROXIMATE</location_type>
   <viewport>
    <southwest>
     <lat>37.0963420</lat>
     <lng>-89.3075550</lng>
    </southwest>
    <northeast>
     <lat>37.0990400</lat>
     <lng>-89.3048570</lng>
    </northeast>
   </viewport>
  </geometry>
  <place_id>ChIJtfqC0mvOeYgROuM8WM71pv8</place_id>
 </result>
 <result>
  <type>locality</type>
  <type>political</type>
  <formatted_address>Roth, ND 58783, USA</formatted_address>
  <address_component>
   <long_name>Roth</long_name>
   <short_name>Roth</short_name>
   <type>locality</type>
   <type>political</type>
  </address_component>
  <address_component>
   <long_name>Scandia</long_name>
   <short_name>Scandia</short_name>
   <type>administrative_area_level_3</type>
   <type>political</type>
  </address_component>
  <address_component>
   <long_name>Bottineau County</long_name>
   <short_name>Bottineau County</short_name>
   <type>administrative_area_level_2</type>
   <type>political</type>
  </address_component>
  <address_component>
   <long_name>North Dakota</long_name>
   <short_name>ND</short_name>
   <type>administrative_area_level_1</type>
   <type>political</type>
  </address_component>
  <address_component>
   <long_name>United States</long_name>
   <short_name>US</short_name>
   <type>country</type>
   <type>political</type>
  </address_component>
  <address_component>
   <long_name>58783</long_name>
   <short_name>58783</short_name>
   <type>postal_code</type>
  </address_component>
  <geometry>
   <location>
    <lat>48.9077954</lat>
    <lng>-100.8026521</lng>
   </location>
   <location_type>APPROXIMATE</location_type>
   <viewport>
    <southwest>
     <lat>48.9064464</lat>
     <lng>-100.8040011</lng>
    </southwest>
    <northeast>
     <lat>48.9091444</lat>
     <lng>-100.8013031</lng>
    </northeast>
   </viewport>
  </geometry>
  <place_id>ChIJ3Uk6xih83lIRD4uO1V3mL34</place_id>
 </result>
</GeocodeResponse>
