<?xml version="1.0" encoding="UTF-8"?>
<GeocodeResponse>
 <status>OK</status>
 <result>
  <type>administrative_area_level_4</type>
  <type>political</type>
  <formatted_address>Akdeniz, 01280 Yüreğir/Adana, Turkey</formatted_address>
  <address_component>
   <long_name>Akdeniz Mahallesi</long_name>
   <short_name>Akdeniz</short_name>
   <type>administrative_area_level_4</type>
   <type>political</type>
  </address_component>
  <address_component>
   <long_name>Yüreğir</long_name>
   <short_name>Yüreğir</short_name>
   <type>administrative_area_level_2</type>
   <type>political</type>
  </address_component>
  <address_component>
   <long_name>Adana</long_name>
   <short_name>Adana</short_name>
   <type>administrative_area_level_1</type>
   <type>political</type>
  </address_component>
  <address_component>
   <long_name>Turkey</long_name>
   <short_name>TR</short_name>
   <type>country</type>
   <type>political</type>
  </address_component>
  <address_component>
   <long_name>01280</long_name>
   <short_name>01280</short_name>
   <type>postal_code</type>
  </address_component>
  <geometry>
   <location>
    <lat>36.9650966</lat>
    <lng>35.3452537</lng>
   </location>
   <location_type>APPROXIMATE</location_type>
   <viewport>
    <southwest>
     <lat>36.9493350</lat>
     <lng>35.3407939</lng>
    </southwest>
    <northeast>
     <lat>36.9743900</lat>
     <lng>35.3575400</lng>
    </northeast>
   </viewport>
   <bounds>
    <southwest>
     <lat>36.9493350</lat>
     <lng>35.3407939</lng>
    </southwest>
    <northeast>
     <lat>36.9743900</lat>
     <lng>35.3575400</lng>
    </northeast>
   </bounds>
  </geometry>
  <place_id>ChIJ8SKpWXaFKBUR2CQ1MpfNQQY</place_id>
 </result>
 <result>
  <type>administrative_area_level_4</type>
  <type>political</type>
  <formatted_address>Akdeniz, 01680 Yumurtalık/Adana, Turkey</formatted_address>
  <address_component>
   <long_name>Akdeniz Mahallesi</long_name>
   <short_name>Akdeniz</short_name>
   <type>administrative_area_level_4</type>
   <type>political</type>
  </address_component>
  <address_component>
   <long_name>Yumurtalık</long_name>
   <short_name>Yumurtalık</short_name>
   <type>administrative_area_level_2</type>
   <type>political</type>
  </address_component>
  <address_component>
   <long_name>Adana</long_name>
   <short_name>Adana</short_name>
   <type>administrative_area_level_1</type>
   <type>political</type>
  </address_component>
  <address_component>
   <long_name>Turkey</long_name>
   <short_name>TR</short_name>
   <type>country</type>
   <type>political</type>
  </address_component>
  <address_component>
   <long_name>01680</long_name>
   <short_name>01680</short_name>
   <type>postal_code</type>
  </address_component>
  <geometry>
   <location>
    <lat>36.7952845</lat>
    <lng>35.8089055</lng>
   </location>
   <location_type>APPROXIMATE</location_type>
   <viewport>
    <southwest>
     <lat>36.7744610</lat>
     <lng>35.7935499</lng>
    </southwest>
    <northeast>
     <lat>36.8029630</lat>
     <lng>35.8255439</lng>
    </northeast>
   </viewport>
   <bounds>
    <southwest>
     <lat>36.7744610</lat>
     <lng>35.7935499</lng>
    </southwest>
    <northeast>
     <lat>36.8029630</lat>
     <lng>35.8255439</lng>
    </northeast>
   </bounds>
  </geometry>
  <place_id>ChIJKyXNeveuKBURqAlcDt_5moU</place_id>
 </result>
 <result>
  <type>route</type>
  <formatted_address>Akdeniz Cd., 01280 Yüreğir/Adana, Turkey</formatted_address>
  <address_component>
   <long_name>Akdeniz Caddesi</long_name>
   <short_name>Akdeniz Cd.</short_name>
   <type>route</type>
  </address_component>
  <address_component>
   <long_name>Yüreğir</long_name>
   <short_name>Yüreğir</short_name>
   <type>administrative_area_level_2</type>
   <type>political</type>
  </address_component>
  <address_component>
   <long_name>Adana</long_name>
   <short_name>Adana</short_name>
   <type>administrative_area_level_1</type>
   <type>political</type>
  </address_component>
  <address_component>
   <long_name>Turkey</long_name>
   <short_name>TR</short_name>
   <type>country</type>
   <type>political</type>
  </address_component>
  <address_component>
   <long_name>01280</long_name>
   <short_name>01280</short_name>
   <type>postal_code</type>
  </address_component>
  <geometry>
   <location>
    <lat>36.9737210</lat>
    <lng>35.3468159</lng>
   </location>
   <location_type>GEOMETRIC_CENTER</location_type>
   <viewport>
    <southwest>
     <lat>36.9712370</lat>
     <lng>35.3408410</lng>
    </southwest>
    <northeast>
     <lat>36.9757640</lat>
     <lng>35.3534370</lng>
    </northeast>
   </viewport>
   <bounds>
    <southwest>
     <lat>36.9712370</lat>
     <lng>35.3408410</lng>
    </southwest>
    <northeast>
     <lat>36.9757640</lat>
     <lng>35.3534370</lng>
    </northeast>
   </bounds>
  </geometry>
  <partial_match>true</partial_match>
  <place_id>ChIJ_zxgjn-FKBUR_vqC5z87MBE</place_id>
 </result>
 <result>
  <type>route</type>
  <formatted_address>Şevkiye, Akdeniz Sk., 01500 Kozan/Adana, Turkey</formatted_address>
  <address_component>
   <long_name>Akdeniz Sokak</long_name>
   <short_name>Akdeniz Sk.</short_name>
   <type>route</type>
  </address_component>
  <address_component>
   <long_name>Şevkiye Mahallesi</long_name>
   <short_name>Şevkiye</short_name>
   <type>administrative_area_level_4</type>
   <type>political</type>
  </address_component>
  <address_component>
   <long_name>Kozan</long_name>
   <short_name>Kozan</short_name>
   <type>administrative_area_level_2</type>
   <type>political</type>
  </address_component>
  <address_component>
   <long_name>Adana</long_name>
   <short_name>Adana</short_name>
   <type>administrative_area_level_1</type>
   <type>political</type>
  </address_component>
  <address_component>
   <long_name>Turkey</long_name>
   <short_name>TR</short_name>
   <type>country</type>
   <type>political</type>
  </address_component>
  <address_component>
   <long_name>01500</long_name>
   <short_name>01500</short_name>
   <type>postal_code</type>
  </address_component>
  <geometry>
   <location>
    <lat>37.4512100</lat>
    <lng>35.8064490</lng>
   </location>
   <location_type>GEOMETRIC_CENTER</location_type>
   <viewport>
    <southwest>
     <lat>37.4498176</lat>
     <lng>35.8051145</lng>
    </southwest>
    <northeast>
     <lat>37.4525155</lat>
     <lng>35.8078124</lng>
    </northeast>
   </viewport>
   <bounds>
    <southwest>
     <lat>37.4498707</lat>
     <lng>35.8059402</lng>
    </southwest>
    <northeast>
     <lat>37.4524624</lat>
     <lng>35.8069867</lng>
    </northeast>
   </bounds>
  </geometry>
  <partial_match>true</partial_match>
  <place_id>ChIJwS3YYJ8xKRURQOxFsqxKgmM</place_id>
 </result>
</GeocodeResponse>
