<?xml version="1.0" encoding="UTF-8"?>
<GeocodeResponse>
 <status>OK</status>
 <result>
  <type>route</type>
  <formatted_address>R. do Tâmega, 4600 Fregim, Portugal</formatted_address>
  <address_component>
   <long_name>Rua do Tâmega</long_name>
   <short_name>R. do Tâmega</short_name>
   <type>route</type>
  </address_component>
  <address_component>
   <long_name>Fregim</long_name>
   <short_name>Fregim</short_name>
   <type>locality</type>
   <type>political</type>
  </address_component>
  <address_component>
   <long_name>Amarante</long_name>
   <short_name>Amarante</short_name>
   <type>administrative_area_level_2</type>
   <type>political</type>
  </address_component>
  <address_component>
   <long_name>Porto</long_name>
   <short_name>Porto</short_name>
   <type>administrative_area_level_1</type>
   <type>political</type>
  </address_component>
  <address_component>
   <long_name>Portugal</long_name>
   <short_name>PT</short_name>
   <type>country</type>
   <type>political</type>
  </address_component>
  <address_component>
   <long_name>4600</long_name>
   <short_name>4600</short_name>
   <type>postal_code</type>
   <type>postal_code_prefix</type>
  </address_component>
  <geometry>
   <location>
    <lat>41.2575557</lat>
    <lng>-8.0989186</lng>
   </location>
   <location_type>GEOMETRIC_CENTER</location_type>
   <viewport>
    <southwest>
     <lat>41.2518790</lat>
     <lng>-8.1041839</lng>
    </southwest>
    <northeast>
     <lat>41.2648712</lat>
     <lng>-8.0954197</lng>
    </northeast>
   </viewport>
   <bounds>
    <southwest>
     <lat>41.2518790</lat>
     <lng>-8.1041839</lng>
    </southwest>
    <northeast>
     <lat>41.2648712</lat>
     <lng>-8.0954197</lng>
    </northeast>
   </bounds>
  </geometry>
  <partial_match>true</partial_match>
  <place_id>ChIJIzR3Il2-JA0RQVVdE3ZrOTI</place_id>
 </result>
 <result>
  <type>route</type>
  <formatted_address>Linha do Tamega, 4600, Portugal</formatted_address>
  <address_component>
   <long_name>Linha do Tamega</long_name>
   <short_name>Linha do Tamega</short_name>
   <type>route</type>
  </address_component>
  <address_component>
   <long_name>Porto</long_name>
   <short_name>Porto</short_name>
   <type>administrative_area_level_1</type>
   <type>political</type>
  </address_component>
  <address_component>
   <long_name>Portugal</long_name>
   <short_name>PT</short_name>
   <type>country</type>
   <type>political</type>
  </address_component>
  <address_component>
   <long_name>4600</long_name>
   <short_name>4600</short_name>
   <type>postal_code</type>
   <type>postal_code_prefix</type>
  </address_component>
  <geometry>
   <location>
    <lat>41.2765686</lat>
    <lng>-8.0818735</lng>
   </location>
   <location_type>GEOMETRIC_CENTER</location_type>
   <viewport>
    <southwest>
     <lat>41.2749873</lat>
     <lng>-8.0831151</lng>
    </southwest>
    <northeast>
     <lat>41.2781078</lat>
     <lng>-8.0804172</lng>
    </northeast>
   </viewport>
   <bounds>
    <southwest>
     <lat>41.2749873</lat>
     <lng>-8.0821401</lng>
    </southwest>
    <northeast>
     <lat>41.2781078</lat>
     <lng>-8.0813922</lng>
    </northeast>
   </bounds>
  </geometry>
  <partial_match>true</partial_match>
  <place_id>ChIJ-yJ9xzi_JA0RxercyukBhzU</place_id>
 </result>
</GeocodeResponse>
