<?xml version="1.0" encoding="UTF-8"?>
<GeocodeResponse>
 <status>OK</status>
 <result>
  <type>locality</type>
  <type>political</type>
  <formatted_address>Sosnowiec, Poland</formatted_address>
  <address_component>
   <long_name>Sosnowiec</long_name>
   <short_name>Sosnowiec</short_name>
   <type>locality</type>
   <type>political</type>
  </address_component>
  <address_component>
   <long_name>Sosnowiec</long_name>
   <short_name>Sosnowiec</short_name>
   <type>administrative_area_level_3</type>
   <type>political</type>
  </address_component>
  <address_component>
   <long_name>Sosnowiec</long_name>
   <short_name>Sosnowiec</short_name>
   <type>administrative_area_level_2</type>
   <type>political</type>
  </address_component>
  <address_component>
   <long_name>Silesian Voivodeship</long_name>
   <short_name>Silesian Voivodeship</short_name>
   <type>administrative_area_level_1</type>
   <type>political</type>
  </address_component>
  <address_component>
   <long_name>Poland</long_name>
   <short_name>PL</short_name>
   <type>country</type>
   <type>political</type>
  </address_component>
  <geometry>
   <location>
    <lat>50.2862638</lat>
    <lng>19.1040791</lng>
   </location>
   <location_type>APPROXIMATE</location_type>
   <viewport>
    <southwest>
     <lat>50.2256140</lat>
     <lng>19.0717962</lng>
    </southwest>
    <northeast>
     <lat>50.3171831</lat>
     <lng>19.3179559</lng>
    </northeast>
   </viewport>
   <bounds>
    <southwest>
     <lat>50.2256140</lat>
     <lng>19.0717962</lng>
    </southwest>
    <northeast>
     <lat>50.3171831</lat>
     <lng>19.3179559</lng>
    </northeast>
   </bounds>
  </geometry>
  <partial_match>true</partial_match>
  <place_id>ChIJKUva_pnaFkcR2wdlK6EqbMs</place_id>
 </result>
 <result>
  <type>route</type>
  <formatted_address>Sosnowiecka, Dąbrowa Górnicza, Poland</formatted_address>
  <address_component>
   <long_name>Sosnowiecka</long_name>
   <short_name>Sosnowiecka</short_name>
   <type>route</type>
  </address_component>
  <address_component>
   <long_name>Dąbrowa Górnicza</long_name>
   <short_name>Dąbrowa Górnicza</short_name>
   <type>locality</type>
   <type>political</type>
  </address_component>
  <address_component>
   <long_name>śląskie</long_name>
   <short_name>śląskie</short_name>
   <type>administrative_area_level_1</type>
   <type>political</type>
  </address_component>
  <address_component>
   <long_name>Poland</long_name>
   <short_name>PL</short_name>
   <type>country</type>
   <type>political</type>
  </address_component>
  <geometry>
   <location>
    <lat>50.3015957</lat>
    <lng>19.2608807</lng>
   </location>
   <location_type>GEOMETRIC_CENTER</location_type>
   <viewport>
    <southwest>
     <lat>50.2989416</lat>
     <lng>19.2541249</lng>
    </southwest>
    <northeast>
     <lat>50.3038970</lat>
     <lng>19.2665988</lng>
    </northeast>
   </viewport>
   <bounds>
    <southwest>
     <lat>50.2989416</lat>
     <lng>19.2541249</lng>
    </southwest>
    <northeast>
     <lat>50.3038970</lat>
     <lng>19.2665988</lng>
    </northeast>
   </bounds>
  </geometry>
  <partial_match>true</partial_match>
  <place_id>ChIJBeo7E3XcFkcRaPAQr7uT4OQ</place_id>
 </result>
 <result>
  <type>route</type>
  <formatted_address>Sosnowiecka, Katowice, Poland</formatted_address>
  <address_component>
   <long_name>Sosnowiecka</long_name>
   <short_name>Sosnowiecka</short_name>
   <type>route</type>
  </address_component>
  <address_component>
   <long_name>Katowice</long_name>
   <short_name>Katowice</short_name>
   <type>locality</type>
   <type>political</type>
  </address_component>
  <address_component>
   <long_name>Katowice</long_name>
   <short_name>Katowice</short_name>
   <type>administrative_area_level_2</type>
   <type>political</type>
  </address_component>
  <address_component>
   <long_name>śląskie</long_name>
   <short_name>śląskie</short_name>
   <type>administrative_area_level_1</type>
   <type>political</type>
  </address_component>
  <address_component>
   <long_name>Poland</long_name>
   <short_name>PL</short_name>
   <type>country</type>
   <type>political</type>
  </address_component>
  <geometry>
   <location>
    <lat>50.2671037</lat>
    <lng>19.1093823</lng>
   </location>
   <location_type>GEOMETRIC_CENTER</location_type>
   <viewport>
    <southwest>
     <lat>50.2639750</lat>
     <lng>19.1073087</lng>
    </southwest>
    <northeast>
     <lat>50.2708846</lat>
     <lng>19.1122372</lng>
    </northeast>
   </viewport>
   <bounds>
    <southwest>
     <lat>50.2639750</lat>
     <lng>19.1073087</lng>
    </southwest>
    <northeast>
     <lat>50.2708846</lat>
     <lng>19.1122372</lng>
    </northeast>
   </bounds>
  </geometry>
  <partial_match>true</partial_match>
  <place_id>ChIJLzme_6raFkcRQwmLORqKiic</place_id>
 </result>
 <result>
  <type>route</type>
  <formatted_address>Sosnowiecka, Mysłowice, Poland</formatted_address>
  <address_component>
   <long_name>Sosnowiecka</long_name>
   <short_name>Sosnowiecka</short_name>
   <type>route</type>
  </address_component>
  <address_component>
   <long_name>Mysłowice</long_name>
   <short_name>Mysłowice</short_name>
   <type>locality</type>
   <type>political</type>
  </address_component>
  <address_component>
   <long_name>Mysłowice</long_name>
   <short_name>Mysłowice</short_name>
   <type>administrative_area_level_2</type>
   <type>political</type>
  </address_component>
  <address_component>
   <long_name>śląskie</long_name>
   <short_name>śląskie</short_name>
   <type>administrative_area_level_1</type>
   <type>political</type>
  </address_component>
  <address_component>
   <long_name>Poland</long_name>
   <short_name>PL</short_name>
   <type>country</type>
   <type>political</type>
  </address_component>
  <geometry>
   <location>
    <lat>50.2554705</lat>
    <lng>19.1352561</lng>
   </location>
   <location_type>GEOMETRIC_CENTER</location_type>
   <viewport>
    <southwest>
     <lat>50.2525321</lat>
     <lng>19.1345470</lng>
    </southwest>
    <northeast>
     <lat>50.2567646</lat>
     <lng>19.1374240</lng>
    </northeast>
   </viewport>
   <bounds>
    <southwest>
     <lat>50.2525321</lat>
     <lng>19.1345470</lng>
    </southwest>
    <northeast>
     <lat>50.2567646</lat>
     <lng>19.1374240</lng>
    </northeast>
   </bounds>
  </geometry>
  <partial_match>true</partial_match>
  <place_id>ChIJ02U3nzbFFkcRdK40qgk6Ooc</place_id>
 </result>
 <result>
  <type>route</type>
  <formatted_address>Sosnowiecka, Częstochowa, Poland</formatted_address>
  <address_component>
   <long_name>Sosnowiecka</long_name>
   <short_name>Sosnowiecka</short_name>
   <type>route</type>
  </address_component>
  <address_component>
   <long_name>Lisiniec</long_name>
   <short_name>Lisiniec</short_name>
   <type>political</type>
   <type>sublocality</type>
   <type>sublocality_level_1</type>
  </address_component>
  <address_component>
   <long_name>Częstochowa</long_name>
   <short_name>Częstochowa</short_name>
   <type>locality</type>
   <type>political</type>
  </address_component>
  <address_component>
   <long_name>Częstochowa</long_name>
   <short_name>Częstochowa</short_name>
   <type>administrative_area_level_2</type>
   <type>political</type>
  </address_component>
  <address_component>
   <long_name>śląskie</long_name>
   <short_name>śląskie</short_name>
   <type>administrative_area_level_1</type>
   <type>political</type>
  </address_component>
  <address_component>
   <long_name>Poland</long_name>
   <short_name>PL</short_name>
   <type>country</type>
   <type>political</type>
  </address_component>
  <geometry>
   <location>
    <lat>50.8239894</lat>
    <lng>19.0602068</lng>
   </location>
   <location_type>GEOMETRIC_CENTER</location_type>
   <viewport>
    <southwest>
     <lat>50.8208307</lat>
     <lng>19.0592211</lng>
    </southwest>
    <northeast>
     <lat>50.8269476</lat>
     <lng>19.0619191</lng>
    </northeast>
   </viewport>
   <bounds>
    <southwest>
     <lat>50.8208307</lat>
     <lng>19.0599199</lng>
    </southwest>
    <northeast>
     <lat>50.8269476</lat>
     <lng>19.0612203</lng>
    </northeast>
   </bounds>
  </geometry>
  <partial_match>true</partial_match>
  <place_id>ChIJn3Ud9FC2EEcR2EiufCuB6RE</place_id>
 </result>
 <result>
  <type>route</type>
  <formatted_address>Sosnowiecka, Racibórz, Poland</formatted_address>
  <address_component>
   <long_name>Sosnowiecka</long_name>
   <short_name>Sosnowiecka</short_name>
   <type>route</type>
  </address_component>
  <address_component>
   <long_name>Racibórz</long_name>
   <short_name>R-rz</short_name>
   <type>locality</type>
   <type>political</type>
  </address_component>
  <address_component>
   <long_name>raciborski</long_name>
   <short_name>raciborski</short_name>
   <type>administrative_area_level_2</type>
   <type>political</type>
  </address_component>
  <address_component>
   <long_name>śląskie</long_name>
   <short_name>śląskie</short_name>
   <type>administrative_area_level_1</type>
   <type>political</type>
  </address_component>
  <address_component>
   <long_name>Poland</long_name>
   <short_name>PL</short_name>
   <type>country</type>
   <type>political</type>
  </address_component>
  <address_component>
   <long_name>47</long_name>
   <short_name>47</short_name>
   <type>postal_code</type>
   <type>postal_code_prefix</type>
  </address_component>
  <geometry>
   <location>
    <lat>50.0574309</lat>
    <lng>18.2123825</lng>
   </location>
   <location_type>GEOMETRIC_CENTER</location_type>
   <viewport>
    <southwest>
     <lat>50.0488005</lat>
     <lng>18.2054613</lng>
    </southwest>
    <northeast>
     <lat>50.0659608</lat>
     <lng>18.2185494</lng>
    </northeast>
   </viewport>
   <bounds>
    <southwest>
     <lat>50.0488005</lat>
     <lng>18.2054613</lng>
    </southwest>
    <northeast>
     <lat>50.0659608</lat>
     <lng>18.2185494</lng>
    </northeast>
   </bounds>
  </geometry>
  <partial_match>true</partial_match>
  <place_id>ChIJ8xo_jFtdEUcRaKO2aA-Hahs</place_id>
 </result>
</GeocodeResponse>
