<?xml version="1.0" encoding="UTF-8"?>
<GeocodeResponse>
 <status>OK</status>
 <result>
  <type>establishment</type>
  <type>natural_feature</type>
  <formatted_address>Itä-Pohjola, 89600 Suomussalmi, Finland</formatted_address>
  <address_component>
   <long_name>Itä-Pohjola</long_name>
   <short_name>Itä-Pohjola</short_name>
   <type>establishment</type>
   <type>natural_feature</type>
  </address_component>
  <address_component>
   <long_name>Suomussalmi</long_name>
   <short_name>Suomussalmi</short_name>
   <type>administrative_area_level_3</type>
   <type>political</type>
  </address_component>
  <address_component>
   <long_name>Finland</long_name>
   <short_name>FI</short_name>
   <type>country</type>
   <type>political</type>
  </address_component>
  <address_component>
   <long_name>89600</long_name>
   <short_name>89600</short_name>
   <type>postal_code</type>
  </address_component>
  <geometry>
   <location>
    <lat>64.9624115</lat>
    <lng>28.7035501</lng>
   </location>
   <location_type>APPROXIMATE</location_type>
   <viewport>
    <southwest>
     <lat>64.9576889</lat>
     <lng>28.6875427</lng>
    </southwest>
    <northeast>
     <lat>64.9671333</lat>
     <lng>28.7195575</lng>
    </northeast>
   </viewport>
  </geometry>
  <partial_match>true</partial_match>
  <place_id>ChIJMTlOWGfIKUQRiPI8Nb20drQ</place_id>
 </result>
 <result>
  <type>establishment</type>
  <type>natural_feature</type>
  <formatted_address>Itä-Ryötti, Finland</formatted_address>
  <address_component>
   <long_name>Itä-Ryötti</long_name>
   <short_name>Itä-Ryötti</short_name>
   <type>establishment</type>
   <type>natural_feature</type>
  </address_component>
  <address_component>
   <long_name>Finland</long_name>
   <short_name>FI</short_name>
   <type>country</type>
   <type>political</type>
  </address_component>
  <geometry>
   <location>
    <lat>64.6549929</lat>
    <lng>29.1840299</lng>
   </location>
   <location_type>APPROXIMATE</location_type>
   <viewport>
    <southwest>
     <lat>64.6518662</lat>
     <lng>29.1794155</lng>
    </southwest>
    <northeast>
     <lat>64.6570348</lat>
     <lng>29.1900752</lng>
    </northeast>
   </viewport>
   <bounds>
    <southwest>
     <lat>64.6518662</lat>
     <lng>29.1794155</lng>
    </southwest>
    <northeast>
     <lat>64.6570348</lat>
     <lng>29.1900752</lng>
    </northeast>
   </bounds>
  </geometry>
  <partial_match>true</partial_match>
  <place_id>ChIJ_00yl3ElKEQRtoFE0hrNP5g</place_id>
 </result>
</GeocodeResponse>
