<?xml version="1.0" encoding="UTF-8"?>
<GeocodeResponse>
 <status>OK</status>
 <result>
  <type>route</type>
  <formatted_address>Södra Skånevägen, 432 64 Bua, Sweden</formatted_address>
  <address_component>
   <long_name>Södra Skånevägen</long_name>
   <short_name>Södra Skånevägen</short_name>
   <type>route</type>
  </address_component>
  <address_component>
   <long_name>Varberg V</long_name>
   <short_name>Varberg V</short_name>
   <type>political</type>
   <type>sublocality</type>
   <type>sublocality_level_1</type>
  </address_component>
  <address_component>
   <long_name>Bua</long_name>
   <short_name>Bua</short_name>
   <type>postal_town</type>
  </address_component>
  <address_component>
   <long_name>Hallands län</long_name>
   <short_name>Hallands län</short_name>
   <type>administrative_area_level_1</type>
   <type>political</type>
  </address_component>
  <address_component>
   <long_name>Sweden</long_name>
   <short_name>SE</short_name>
   <type>country</type>
   <type>political</type>
  </address_component>
  <address_component>
   <long_name>432 64</long_name>
   <short_name>432 64</short_name>
   <type>postal_code</type>
  </address_component>
  <geometry>
   <location>
    <lat>57.2381702</lat>
    <lng>12.1193818</lng>
   </location>
   <location_type>GEOMETRIC_CENTER</location_type>
   <viewport>
    <southwest>
     <lat>57.2367442</lat>
     <lng>12.1180030</lng>
    </southwest>
    <northeast>
     <lat>57.2394422</lat>
     <lng>12.1207010</lng>
    </northeast>
   </viewport>
   <bounds>
    <southwest>
     <lat>57.2378342</lat>
     <lng>12.1187358</lng>
    </southwest>
    <northeast>
     <lat>57.2383522</lat>
     <lng>12.1199682</lng>
    </northeast>
   </bounds>
  </geometry>
  <partial_match>true</partial_match>
  <place_id>ChIJVXYUSarQT0YRHbfastbKo8Y</place_id>
 </result>
 <result>
  <type>route</type>
  <formatted_address>Skånegatan, Stockholm, Sweden</formatted_address>
  <address_component>
   <long_name>Skånegatan</long_name>
   <short_name>Skånegatan</short_name>
   <type>route</type>
  </address_component>
  <address_component>
   <long_name>Södermalm</long_name>
   <short_name>Södermalm</short_name>
   <type>political</type>
   <type>sublocality</type>
   <type>sublocality_level_1</type>
  </address_component>
  <address_component>
   <long_name>Stockholm</long_name>
   <short_name>Stockholm</short_name>
   <type>postal_town</type>
  </address_component>
  <address_component>
   <long_name>Stockholms län</long_name>
   <short_name>Stockholms län</short_name>
   <type>administrative_area_level_1</type>
   <type>political</type>
  </address_component>
  <address_component>
   <long_name>Sweden</long_name>
   <short_name>SE</short_name>
   <type>country</type>
   <type>political</type>
  </address_component>
  <geometry>
   <location>
    <lat>59.3128964</lat>
    <lng>18.0841382</lng>
   </location>
   <location_type>GEOMETRIC_CENTER</location_type>
   <viewport>
    <southwest>
     <lat>59.3110756</lat>
     <lng>18.0750633</lng>
    </southwest>
    <northeast>
     <lat>59.3137736</lat>
     <lng>18.0941111</lng>
    </northeast>
   </viewport>
   <bounds>
    <southwest>
     <lat>59.3113135</lat>
     <lng>18.0750633</lng>
    </southwest>
    <northeast>
     <lat>59.3135357</lat>
     <lng>18.0941111</lng>
    </northeast>
   </bounds>
  </geometry>
  <partial_match>true</partial_match>
  <place_id>ChIJBTXgJ_h3X0YRqmrmP95agSM</place_id>
 </result>
</GeocodeResponse>
