<?xml version="1.0" encoding="UTF-8"?>
<GeocodeResponse>
 <status>OK</status>
 <result>
  <type>locality</type>
  <type>political</type>
  <formatted_address>Thasos 640 04, Greece</formatted_address>
  <address_component>
   <long_name>Thasos</long_name>
   <short_name>Thasos</short_name>
   <type>locality</type>
   <type>political</type>
  </address_component>
  <address_component>
   <long_name>Thasos</long_name>
   <short_name>Thasos</short_name>
   <type>administrative_area_level_5</type>
   <type>political</type>
  </address_component>
  <address_component>
   <long_name>Thasos</long_name>
   <short_name>Thasos</short_name>
   <type>administrative_area_level_4</type>
   <type>political</type>
  </address_component>
  <address_component>
   <long_name>Thasos</long_name>
   <short_name>Thasos</short_name>
   <type>administrative_area_level_3</type>
   <type>political</type>
  </address_component>
  <address_component>
   <long_name>East Macedonia and Thrace</long_name>
   <short_name>East Macedonia and Thrace</short_name>
   <type>administrative_area_level_2</type>
   <type>political</type>
  </address_component>
  <address_component>
   <long_name>Makedonia Thraki</long_name>
   <short_name>Makedonia Thraki</short_name>
   <type>administrative_area_level_1</type>
   <type>political</type>
  </address_component>
  <address_component>
   <long_name>Greece</long_name>
   <short_name>GR</short_name>
   <type>country</type>
   <type>political</type>
  </address_component>
  <address_component>
   <long_name>640 04</long_name>
   <short_name>640 04</short_name>
   <type>postal_code</type>
  </address_component>
  <geometry>
   <location>
    <lat>40.7766956</lat>
    <lng>24.7090705</lng>
   </location>
   <location_type>APPROXIMATE</location_type>
   <viewport>
    <southwest>
     <lat>40.7700207</lat>
     <lng>24.6918829</lng>
    </southwest>
    <northeast>
     <lat>40.7834094</lat>
     <lng>24.7161995</lng>
    </northeast>
   </viewport>
   <bounds>
    <southwest>
     <lat>40.7700207</lat>
     <lng>24.6918829</lng>
    </southwest>
    <northeast>
     <lat>40.7834094</lat>
     <lng>24.7161995</lng>
    </northeast>
   </bounds>
  </geometry>
  <partial_match>true</partial_match>
  <place_id>ChIJh-z3qjzsrhQRoKa54iy9AAQ</place_id>
 </result>
 <result>
  <type>establishment</type>
  <type>natural_feature</type>
  <formatted_address>Thasos, Thasos, Greece</formatted_address>
  <address_component>
   <long_name>Thasos</long_name>
   <short_name>Thasos</short_name>
   <type>establishment</type>
   <type>natural_feature</type>
  </address_component>
  <address_component>
   <long_name>Thasos</long_name>
   <short_name>Thasos</short_name>
   <type>administrative_area_level_5</type>
   <type>political</type>
  </address_component>
  <address_component>
   <long_name>Thasos</long_name>
   <short_name>Thasos</short_name>
   <type>administrative_area_level_4</type>
   <type>political</type>
  </address_component>
  <address_component>
   <long_name>Thasos</long_name>
   <short_name>Thasos</short_name>
   <type>administrative_area_level_3</type>
   <type>political</type>
  </address_component>
  <address_component>
   <long_name>Greece</long_name>
   <short_name>GR</short_name>
   <type>country</type>
   <type>political</type>
  </address_component>
  <geometry>
   <location>
    <lat>40.6844991</lat>
    <lng>24.6483706</lng>
   </location>
   <location_type>APPROXIMATE</location_type>
   <viewport>
    <southwest>
     <lat>40.5678581</lat>
     <lng>24.5113328</lng>
    </southwest>
    <northeast>
     <lat>40.8011324</lat>
     <lng>24.7854200</lng>
    </northeast>
   </viewport>
   <bounds>
    <southwest>
     <lat>40.5678581</lat>
     <lng>24.5113328</lng>
    </southwest>
    <northeast>
     <lat>40.8011324</lat>
     <lng>24.7854200</lng>
    </northeast>
   </bounds>
  </geometry>
  <partial_match>true</partial_match>
  <place_id>ChIJ49IbDp7urhQR3FWHZ7QQ39Q</place_id>
 </result>
</GeocodeResponse>
