<?xml version="1.0" encoding="UTF-8"?>
<GeocodeResponse>
 <status>OK</status>
 <result>
  <type>locality</type>
  <type>political</type>
  <formatted_address>Katowice, Poland</formatted_address>
  <address_component>
   <long_name>Katowice</long_name>
   <short_name>Katowice</short_name>
   <type>locality</type>
   <type>political</type>
  </address_component>
  <address_component>
   <long_name>Katowice</long_name>
   <short_name>Katowice</short_name>
   <type>administrative_area_level_3</type>
   <type>political</type>
  </address_component>
  <address_component>
   <long_name>Katowice</long_name>
   <short_name>Katowice</short_name>
   <type>administrative_area_level_2</type>
   <type>political</type>
  </address_component>
  <address_component>
   <long_name>Silesian Voivodeship</long_name>
   <short_name>Silesian Voivodeship</short_name>
   <type>administrative_area_level_1</type>
   <type>political</type>
  </address_component>
  <address_component>
   <long_name>Poland</long_name>
   <short_name>PL</short_name>
   <type>country</type>
   <type>political</type>
  </address_component>
  <geometry>
   <location>
    <lat>50.2648919</lat>
    <lng>19.0237815</lng>
   </location>
   <location_type>APPROXIMATE</location_type>
   <viewport>
    <southwest>
     <lat>50.1300271</lat>
     <lng>18.8914664</lng>
    </southwest>
    <northeast>
     <lat>50.2973176</lat>
     <lng>19.1229190</lng>
    </northeast>
   </viewport>
   <bounds>
    <southwest>
     <lat>50.1300271</lat>
     <lng>18.8914664</lng>
    </southwest>
    <northeast>
     <lat>50.2973176</lat>
     <lng>19.1229190</lng>
    </northeast>
   </bounds>
  </geometry>
  <partial_match>true</partial_match>
  <place_id>ChIJ0cyhNiPOFkcRu_pZBTUqr7k</place_id>
 </result>
 <result>
  <type>route</type>
  <formatted_address>Katowicka, Poland</formatted_address>
  <address_component>
   <long_name>Katowicka</long_name>
   <short_name>Katowicka</short_name>
   <type>route</type>
  </address_component>
  <address_component>
   <long_name>śląskie</long_name>
   <short_name>śląskie</short_name>
   <type>administrative_area_level_1</type>
   <type>political</type>
  </address_component>
  <address_component>
   <long_name>Poland</long_name>
   <short_name>PL</short_name>
   <type>country</type>
   <type>political</type>
  </address_component>
  <geometry>
   <location>
    <lat>50.3158325</lat>
    <lng>19.3071140</lng>
   </location>
   <location_type>GEOMETRIC_CENTER</location_type>
   <viewport>
    <southwest>
     <lat>50.2997125</lat>
     <lng>19.1970437</lng>
    </southwest>
    <northeast>
     <lat>50.3206989</lat>
     <lng>19.4094228</lng>
    </northeast>
   </viewport>
   <bounds>
    <southwest>
     <lat>50.2997125</lat>
     <lng>19.1970437</lng>
    </southwest>
    <northeast>
     <lat>50.3206989</lat>
     <lng>19.4094228</lng>
    </northeast>
   </bounds>
  </geometry>
  <partial_match>true</partial_match>
  <place_id>ChIJ0WvugSTcFkcRUZIgJOgQVis</place_id>
 </result>
 <result>
  <type>route</type>
  <formatted_address>Katowicka, 43-430, Poland</formatted_address>
  <address_component>
   <long_name>Katowicka</long_name>
   <short_name>Katowicka</short_name>
   <type>route</type>
  </address_component>
  <address_component>
   <long_name>cieszyński</long_name>
   <short_name>cieszyński</short_name>
   <type>administrative_area_level_2</type>
   <type>political</type>
  </address_component>
  <address_component>
   <long_name>śląskie</long_name>
   <short_name>śląskie</short_name>
   <type>administrative_area_level_1</type>
   <type>political</type>
  </address_component>
  <address_component>
   <long_name>Poland</long_name>
   <short_name>PL</short_name>
   <type>country</type>
   <type>political</type>
  </address_component>
  <address_component>
   <long_name>43-430</long_name>
   <short_name>43-430</short_name>
   <type>postal_code</type>
  </address_component>
  <geometry>
   <location>
    <lat>49.8115916</lat>
    <lng>18.7914989</lng>
   </location>
   <location_type>GEOMETRIC_CENTER</location_type>
   <viewport>
    <southwest>
     <lat>49.7846015</lat>
     <lng>18.7754049</lng>
    </southwest>
    <northeast>
     <lat>49.8358806</lat>
     <lng>18.8233323</lng>
    </northeast>
   </viewport>
   <bounds>
    <southwest>
     <lat>49.7846015</lat>
     <lng>18.7754049</lng>
    </southwest>
    <northeast>
     <lat>49.8358806</lat>
     <lng>18.8233323</lng>
    </northeast>
   </bounds>
  </geometry>
  <partial_match>true</partial_match>
  <place_id>ChIJx9cqTFcdFEcRTsqFOUe64YU</place_id>
 </result>
 <result>
  <type>route</type>
  <formatted_address>Katowicka, 43-450 Ustroń, Poland</formatted_address>
  <address_component>
   <long_name>Katowicka</long_name>
   <short_name>Katowicka</short_name>
   <type>route</type>
  </address_component>
  <address_component>
   <long_name>Ustroń</long_name>
   <short_name>Ustroń</short_name>
   <type>locality</type>
   <type>political</type>
  </address_component>
  <address_component>
   <long_name>cieszyński</long_name>
   <short_name>cieszyński</short_name>
   <type>administrative_area_level_2</type>
   <type>political</type>
  </address_component>
  <address_component>
   <long_name>śląskie</long_name>
   <short_name>śląskie</short_name>
   <type>administrative_area_level_1</type>
   <type>political</type>
  </address_component>
  <address_component>
   <long_name>Poland</long_name>
   <short_name>PL</short_name>
   <type>country</type>
   <type>political</type>
  </address_component>
  <address_component>
   <long_name>43-450</long_name>
   <short_name>43-450</short_name>
   <type>postal_code</type>
  </address_component>
  <geometry>
   <location>
    <lat>49.7494867</lat>
    <lng>18.7928814</lng>
   </location>
   <location_type>GEOMETRIC_CENTER</location_type>
   <viewport>
    <southwest>
     <lat>49.7201964</lat>
     <lng>18.7852440</lng>
    </southwest>
    <northeast>
     <lat>49.7741336</lat>
     <lng>18.8098800</lng>
    </northeast>
   </viewport>
   <bounds>
    <southwest>
     <lat>49.7201964</lat>
     <lng>18.7852440</lng>
    </southwest>
    <northeast>
     <lat>49.7741336</lat>
     <lng>18.8098800</lng>
    </northeast>
   </bounds>
  </geometry>
  <partial_match>true</partial_match>
  <place_id>ChIJE88yU_EcFEcR3VsMU1C3I88</place_id>
 </result>
 <result>
  <type>route</type>
  <formatted_address>Katowicka, Żory, Poland</formatted_address>
  <address_component>
   <long_name>Katowicka</long_name>
   <short_name>Katowicka</short_name>
   <type>route</type>
  </address_component>
  <address_component>
   <long_name>Żory</long_name>
   <short_name>Żory</short_name>
   <type>locality</type>
   <type>political</type>
  </address_component>
  <address_component>
   <long_name>śląskie</long_name>
   <short_name>śląskie</short_name>
   <type>administrative_area_level_1</type>
   <type>political</type>
  </address_component>
  <address_component>
   <long_name>Poland</long_name>
   <short_name>PL</short_name>
   <type>country</type>
   <type>political</type>
  </address_component>
  <geometry>
   <location>
    <lat>50.0542021</lat>
    <lng>18.7202409</lng>
   </location>
   <location_type>GEOMETRIC_CENTER</location_type>
   <viewport>
    <southwest>
     <lat>50.0409437</lat>
     <lng>18.6986607</lng>
    </southwest>
    <northeast>
     <lat>50.0697100</lat>
     <lng>18.7358107</lng>
    </northeast>
   </viewport>
   <bounds>
    <southwest>
     <lat>50.0409437</lat>
     <lng>18.6986607</lng>
    </southwest>
    <northeast>
     <lat>50.0697100</lat>
     <lng>18.7358107</lng>
    </northeast>
   </bounds>
  </geometry>
  <partial_match>true</partial_match>
  <place_id>ChIJA7lLqUmzFkcR7d-EhYVI1G0</place_id>
 </result>
 <result>
  <type>route</type>
  <formatted_address>Katowicka, 42-263 Wrzosowa, Poland</formatted_address>
  <address_component>
   <long_name>Katowicka</long_name>
   <short_name>Katowicka</short_name>
   <type>route</type>
  </address_component>
  <address_component>
   <long_name>Wrzosowa</long_name>
   <short_name>Wrzosowa</short_name>
   <type>locality</type>
   <type>political</type>
  </address_component>
  <address_component>
   <long_name>częstochowski</long_name>
   <short_name>częstochowski</short_name>
   <type>administrative_area_level_2</type>
   <type>political</type>
  </address_component>
  <address_component>
   <long_name>śląskie</long_name>
   <short_name>śląskie</short_name>
   <type>administrative_area_level_1</type>
   <type>political</type>
  </address_component>
  <address_component>
   <long_name>Poland</long_name>
   <short_name>PL</short_name>
   <type>country</type>
   <type>political</type>
  </address_component>
  <address_component>
   <long_name>42-263</long_name>
   <short_name>42-263</short_name>
   <type>postal_code</type>
  </address_component>
  <geometry>
   <location>
    <lat>50.7472283</lat>
    <lng>19.1542983</lng>
   </location>
   <location_type>GEOMETRIC_CENTER</location_type>
   <viewport>
    <southwest>
     <lat>50.7379279</lat>
     <lng>19.1511030</lng>
    </southwest>
    <northeast>
     <lat>50.7565640</lat>
     <lng>19.1599310</lng>
    </northeast>
   </viewport>
   <bounds>
    <southwest>
     <lat>50.7379279</lat>
     <lng>19.1511030</lng>
    </southwest>
    <northeast>
     <lat>50.7565640</lat>
     <lng>19.1599310</lng>
    </northeast>
   </bounds>
  </geometry>
  <partial_match>true</partial_match>
  <place_id>ChIJn-4oJZTKEEcR-kxt6fVDp5U</place_id>
 </result>
 <result>
  <type>route</type>
  <formatted_address>Katowicka, 41-500 Chorzów, Poland</formatted_address>
  <address_component>
   <long_name>Katowicka</long_name>
   <short_name>Katowicka</short_name>
   <type>route</type>
  </address_component>
  <address_component>
   <long_name>Chorzów</long_name>
   <short_name>Chorzów</short_name>
   <type>locality</type>
   <type>political</type>
  </address_component>
  <address_component>
   <long_name>Chorzów</long_name>
   <short_name>Chorzów</short_name>
   <type>administrative_area_level_2</type>
   <type>political</type>
  </address_component>
  <address_component>
   <long_name>śląskie</long_name>
   <short_name>śląskie</short_name>
   <type>administrative_area_level_1</type>
   <type>political</type>
  </address_component>
  <address_component>
   <long_name>Poland</long_name>
   <short_name>PL</short_name>
   <type>country</type>
   <type>political</type>
  </address_component>
  <address_component>
   <long_name>41-500</long_name>
   <short_name>41-500</short_name>
   <type>postal_code</type>
  </address_component>
  <geometry>
   <location>
    <lat>50.3054280</lat>
    <lng>18.9508059</lng>
   </location>
   <location_type>GEOMETRIC_CENTER</location_type>
   <viewport>
    <southwest>
     <lat>50.2868852</lat>
     <lng>18.9438803</lng>
    </southwest>
    <northeast>
     <lat>50.3261980</lat>
     <lng>18.9729639</lng>
    </northeast>
   </viewport>
   <bounds>
    <southwest>
     <lat>50.2868852</lat>
     <lng>18.9438803</lng>
    </southwest>
    <northeast>
     <lat>50.3261980</lat>
     <lng>18.9729639</lng>
    </northeast>
   </bounds>
  </geometry>
  <partial_match>true</partial_match>
  <place_id>ChIJg8272m_SFkcRUw_2grfwn-A</place_id>
 </result>
 <result>
  <type>route</type>
  <formatted_address>Katowicka, Mikołów, Poland</formatted_address>
  <address_component>
   <long_name>Katowicka</long_name>
   <short_name>Katowicka</short_name>
   <type>route</type>
  </address_component>
  <address_component>
   <long_name>Mikołów</long_name>
   <short_name>Mikołów</short_name>
   <type>locality</type>
   <type>political</type>
  </address_component>
  <address_component>
   <long_name>śląskie</long_name>
   <short_name>śląskie</short_name>
   <type>administrative_area_level_1</type>
   <type>political</type>
  </address_component>
  <address_component>
   <long_name>Poland</long_name>
   <short_name>PL</short_name>
   <type>country</type>
   <type>political</type>
  </address_component>
  <geometry>
   <location>
    <lat>50.1855518</lat>
    <lng>18.9166684</lng>
   </location>
   <location_type>GEOMETRIC_CENTER</location_type>
   <viewport>
    <southwest>
     <lat>50.1715596</lat>
     <lng>18.9053276</lng>
    </southwest>
    <northeast>
     <lat>50.1961572</lat>
     <lng>18.9318604</lng>
    </northeast>
   </viewport>
   <bounds>
    <southwest>
     <lat>50.1715596</lat>
     <lng>18.9053276</lng>
    </southwest>
    <northeast>
     <lat>50.1961572</lat>
     <lng>18.9318604</lng>
    </northeast>
   </bounds>
  </geometry>
  <partial_match>true</partial_match>
  <place_id>ChIJBet_jdjLFkcRSacpyJtZ1pU</place_id>
 </result>
 <result>
  <type>route</type>
  <formatted_address>Katowicka, Mysłowice, Poland</formatted_address>
  <address_component>
   <long_name>Katowicka</long_name>
   <short_name>Katowicka</short_name>
   <type>route</type>
  </address_component>
  <address_component>
   <long_name>Mysłowice</long_name>
   <short_name>Mysłowice</short_name>
   <type>locality</type>
   <type>political</type>
  </address_component>
  <address_component>
   <long_name>śląskie</long_name>
   <short_name>śląskie</short_name>
   <type>administrative_area_level_1</type>
   <type>political</type>
  </address_component>
  <address_component>
   <long_name>Poland</long_name>
   <short_name>PL</short_name>
   <type>country</type>
   <type>political</type>
  </address_component>
  <geometry>
   <location>
    <lat>50.2465989</lat>
    <lng>19.1228774</lng>
   </location>
   <location_type>GEOMETRIC_CENTER</location_type>
   <viewport>
    <southwest>
     <lat>50.2402701</lat>
     <lng>19.1097885</lng>
    </southwest>
    <northeast>
     <lat>50.2524200</lat>
     <lng>19.1380159</lng>
    </northeast>
   </viewport>
   <bounds>
    <southwest>
     <lat>50.2402701</lat>
     <lng>19.1097885</lng>
    </southwest>
    <northeast>
     <lat>50.2524200</lat>
     <lng>19.1380159</lng>
    </northeast>
   </bounds>
  </geometry>
  <partial_match>true</partial_match>
  <place_id>ChIJC7EARz_FFkcR-2-wFGuCDCk</place_id>
 </result>
</GeocodeResponse>
