<?xml version="1.0" encoding="UTF-8"?>
<GeocodeResponse>
 <status>OK</status>
 <result>
  <type>administrative_area_level_2</type>
  <type>political</type>
  <formatted_address>Wrocław County, Poland</formatted_address>
  <address_component>
   <long_name>Wrocław County</long_name>
   <short_name>Wrocław County</short_name>
   <type>administrative_area_level_2</type>
   <type>political</type>
  </address_component>
  <address_component>
   <long_name>Lower Silesian Voivodeship</long_name>
   <short_name>Lower Silesian Voivodeship</short_name>
   <type>administrative_area_level_1</type>
   <type>political</type>
  </address_component>
  <address_component>
   <long_name>Poland</long_name>
   <short_name>PL</short_name>
   <type>country</type>
   <type>political</type>
  </address_component>
  <geometry>
   <location>
    <lat>51.1407764</lat>
    <lng>16.9831788</lng>
   </location>
   <location_type>APPROXIMATE</location_type>
   <viewport>
    <southwest>
     <lat>51.0426822</lat>
     <lng>16.8073801</lng>
    </southwest>
    <northeast>
     <lat>51.2114735</lat>
     <lng>17.1763479</lng>
    </northeast>
   </viewport>
   <bounds>
    <southwest>
     <lat>51.0426822</lat>
     <lng>16.8073801</lng>
    </southwest>
    <northeast>
     <lat>51.2114735</lat>
     <lng>17.1763479</lng>
    </northeast>
   </bounds>
  </geometry>
  <place_id>ChIJv4q11MLpD0cRwFAALURV1YE</place_id>
 </result>
 <result>
  <type>administrative_area_level_2</type>
  <type>political</type>
  <formatted_address>wrocławski, Poland</formatted_address>
  <address_component>
   <long_name>wrocławski</long_name>
   <short_name>wrocławski</short_name>
   <type>administrative_area_level_2</type>
   <type>political</type>
  </address_component>
  <address_component>
   <long_name>Województwo dolnośląskie</long_name>
   <short_name>Województwo dolnośląskie</short_name>
   <type>administrative_area_level_1</type>
   <type>political</type>
  </address_component>
  <address_component>
   <long_name>Poland</long_name>
   <short_name>PL</short_name>
   <type>country</type>
   <type>political</type>
  </address_component>
  <geometry>
   <location>
    <lat>50.9902334</lat>
    <lng>16.9837614</lng>
   </location>
   <location_type>APPROXIMATE</location_type>
   <viewport>
    <southwest>
     <lat>50.8094228</lat>
     <lng>16.5659700</lng>
    </southwest>
    <northeast>
     <lat>51.2763943</lat>
     <lng>17.3761241</lng>
    </northeast>
   </viewport>
   <bounds>
    <southwest>
     <lat>50.8094228</lat>
     <lng>16.5659700</lng>
    </southwest>
    <northeast>
     <lat>51.2763943</lat>
     <lng>17.3761241</lng>
    </northeast>
   </bounds>
  </geometry>
  <place_id>ChIJy_01ivDDD0cRki2JgXrl_pA</place_id>
 </result>
</GeocodeResponse>
