<?xml version="1.0" encoding="UTF-8"?>
<GeocodeResponse>
 <status>OK</status>
 <result>
  <type>locality</type>
  <type>political</type>
  <formatted_address>50770 Pohjois-Munakka, Finland</formatted_address>
  <address_component>
   <long_name>Pohjois-Munakka</long_name>
   <short_name>Pohjois-Munakka</short_name>
   <type>locality</type>
   <type>political</type>
  </address_component>
  <address_component>
   <long_name>Finland</long_name>
   <short_name>FI</short_name>
   <type>country</type>
   <type>political</type>
  </address_component>
  <address_component>
   <long_name>50770</long_name>
   <short_name>50770</short_name>
   <type>postal_code</type>
  </address_component>
  <geometry>
   <location>
    <lat>61.7762780</lat>
    <lng>26.9632575</lng>
   </location>
   <location_type>APPROXIMATE</location_type>
   <viewport>
    <southwest>
     <lat>61.7749290</lat>
     <lng>26.9619085</lng>
    </southwest>
    <northeast>
     <lat>61.7776270</lat>
     <lng>26.9646065</lng>
    </northeast>
   </viewport>
  </geometry>
  <partial_match>true</partial_match>
  <place_id>ChIJRR1djtSumkYRa6YqCq3XPxM</place_id>
 </result>
 <result>
  <type>locality</type>
  <type>political</type>
  <formatted_address>51900 Pohjois-Näärinki, Finland</formatted_address>
  <address_component>
   <long_name>Pohjois-Näärinki</long_name>
   <short_name>Pohjois-Näärinki</short_name>
   <type>locality</type>
   <type>political</type>
  </address_component>
  <address_component>
   <long_name>Finland</long_name>
   <short_name>FI</short_name>
   <type>country</type>
   <type>political</type>
  </address_component>
  <address_component>
   <long_name>51900</long_name>
   <short_name>51900</short_name>
   <type>postal_code</type>
  </address_component>
  <geometry>
   <location>
    <lat>61.9298430</lat>
    <lng>27.6067332</lng>
   </location>
   <location_type>APPROXIMATE</location_type>
   <viewport>
    <southwest>
     <lat>61.9284940</lat>
     <lng>27.6053842</lng>
    </southwest>
    <northeast>
     <lat>61.9311920</lat>
     <lng>27.6080822</lng>
    </northeast>
   </viewport>
  </geometry>
  <partial_match>true</partial_match>
  <place_id>ChIJCSuVlY-_mkYRwVVkLefzKXE</place_id>
 </result>
 <result>
  <type>route</type>
  <formatted_address>Tappuvirrantie (pohjoinen) - Tappuvirrantie (etelä), Finland</formatted_address>
  <address_component>
   <long_name>Tappuvirrantie (pohjoinen) - Tappuvirrantie (etelä)</long_name>
   <short_name>Tappuvirrantie (pohjoinen) - Tappuvirrantie (etelä)</short_name>
   <type>route</type>
  </address_component>
  <address_component>
   <long_name>Finland</long_name>
   <short_name>FI</short_name>
   <type>country</type>
   <type>political</type>
  </address_component>
  <geometry>
   <location>
    <lat>62.2021061</lat>
    <lng>28.4663708</lng>
   </location>
   <location_type>GEOMETRIC_CENTER</location_type>
   <viewport>
    <southwest>
     <lat>62.2005827</lat>
     <lng>28.4650219</lng>
    </southwest>
    <northeast>
     <lat>62.2036295</lat>
     <lng>28.4677198</lng>
    </northeast>
   </viewport>
   <bounds>
    <southwest>
     <lat>62.2005827</lat>
     <lng>28.4656948</lng>
    </southwest>
    <northeast>
     <lat>62.2036295</lat>
     <lng>28.4670469</lng>
    </northeast>
   </bounds>
  </geometry>
  <partial_match>true</partial_match>
  <place_id>ChIJU5D50tMCm0YRC7CIA8GPnxM</place_id>
 </result>
</GeocodeResponse>
