<?xml version="1.0" encoding="UTF-8"?>
<GeocodeResponse>
 <status>OK</status>
 <result>
  <type>political</type>
  <type>sublocality</type>
  <type>sublocality_level_1</type>
  <formatted_address>Amsterdam-West, Amsterdam, Netherlands</formatted_address>
  <address_component>
   <long_name>Amsterdam-West</long_name>
   <short_name>Amsterdam-West</short_name>
   <type>political</type>
   <type>sublocality</type>
   <type>sublocality_level_1</type>
  </address_component>
  <address_component>
   <long_name>Amsterdam</long_name>
   <short_name>Amsterdam</short_name>
   <type>locality</type>
   <type>political</type>
  </address_component>
  <address_component>
   <long_name>Government of Amsterdam</long_name>
   <short_name>Government of Amsterdam</short_name>
   <type>administrative_area_level_2</type>
   <type>political</type>
  </address_component>
  <address_component>
   <long_name>North Holland</long_name>
   <short_name>NH</short_name>
   <type>administrative_area_level_1</type>
   <type>political</type>
  </address_component>
  <address_component>
   <long_name>Netherlands</long_name>
   <short_name>NL</short_name>
   <type>country</type>
   <type>political</type>
  </address_component>
  <geometry>
   <location>
    <lat>52.3733543</lat>
    <lng>4.8625133</lng>
   </location>
   <location_type>APPROXIMATE</location_type>
   <viewport>
    <southwest>
     <lat>52.3562440</lat>
     <lng>4.8352539</lng>
    </southwest>
    <northeast>
     <lat>52.3995910</lat>
     <lng>4.8957800</lng>
    </northeast>
   </viewport>
   <bounds>
    <southwest>
     <lat>52.3562440</lat>
     <lng>4.8352539</lng>
    </southwest>
    <northeast>
     <lat>52.3995910</lat>
     <lng>4.8957800</lng>
    </northeast>
   </bounds>
  </geometry>
  <place_id>ChIJ62y-3XbixUcRPNCRJGjuTYY</place_id>
 </result>
 <result>
  <type>country</type>
  <type>political</type>
  <formatted_address>Netherlands</formatted_address>
  <address_component>
   <long_name>Netherlands</long_name>
   <short_name>NL</short_name>
   <type>country</type>
   <type>political</type>
  </address_component>
  <geometry>
   <location>
    <lat>52.1326330</lat>
    <lng>5.2912660</lng>
   </location>
   <location_type>APPROXIMATE</location_type>
   <viewport>
    <southwest>
     <lat>50.7503837</lat>
     <lng>3.3316000</lng>
    </southwest>
    <northeast>
     <lat>53.6756000</lat>
     <lng>7.2271405</lng>
    </northeast>
   </viewport>
   <bounds>
    <southwest>
     <lat>50.7503838</lat>
     <lng>3.3316001</lng>
    </southwest>
    <northeast>
     <lat>53.6316000</lat>
     <lng>7.2275102</lng>
    </northeast>
   </bounds>
  </geometry>
  <partial_match>true</partial_match>
  <place_id>ChIJu-SH28MJxkcRnwq9_851obM</place_id>
 </result>
</GeocodeResponse>
