<?xml version="1.0" encoding="UTF-8"?>
<GeocodeResponse>
 <status>OK</status>
 <result>
  <type>route</type>
  <formatted_address>Pohjoiskuja, 50600 Mikkeli, Finland</formatted_address>
  <address_component>
   <long_name>Pohjoiskuja</long_name>
   <short_name>Pohjoiskuja</short_name>
   <type>route</type>
  </address_component>
  <address_component>
   <long_name>Mikkeli</long_name>
   <short_name>Mikkeli</short_name>
   <type>locality</type>
   <type>political</type>
  </address_component>
  <address_component>
   <long_name>Mikkeli Province</long_name>
   <short_name>Mikkeli Province</short_name>
   <type>administrative_area_level_3</type>
   <type>political</type>
  </address_component>
  <address_component>
   <long_name>Finland</long_name>
   <short_name>FI</short_name>
   <type>country</type>
   <type>political</type>
  </address_component>
  <address_component>
   <long_name>50600</long_name>
   <short_name>50600</short_name>
   <type>postal_code</type>
  </address_component>
  <geometry>
   <location>
    <lat>61.6786449</lat>
    <lng>27.2116766</lng>
   </location>
   <location_type>GEOMETRIC_CENTER</location_type>
   <viewport>
    <southwest>
     <lat>61.6773395</lat>
     <lng>27.2098869</lng>
    </southwest>
    <northeast>
     <lat>61.6800374</lat>
     <lng>27.2125848</lng>
    </northeast>
   </viewport>
   <bounds>
    <southwest>
     <lat>61.6781562</lat>
     <lng>27.2105160</lng>
    </southwest>
    <northeast>
     <lat>61.6792207</lat>
     <lng>27.2119557</lng>
    </northeast>
   </bounds>
  </geometry>
  <partial_match>true</partial_match>
  <place_id>ChIJg-MCbyKhmkYR9VFfpL6xK6E</place_id>
 </result>
 <result>
  <type>establishment</type>
  <type>natural_feature</type>
  <formatted_address>Pohjois-Virmas, 77330 Pieksämäki, Finland</formatted_address>
  <address_component>
   <long_name>Pohjois-Virmas</long_name>
   <short_name>Pohjois-Virmas</short_name>
   <type>establishment</type>
   <type>natural_feature</type>
  </address_component>
  <address_component>
   <long_name>Pieksämäki</long_name>
   <short_name>Pieksämäki</short_name>
   <type>administrative_area_level_3</type>
   <type>political</type>
  </address_component>
  <address_component>
   <long_name>Finland</long_name>
   <short_name>FI</short_name>
   <type>country</type>
   <type>political</type>
  </address_component>
  <address_component>
   <long_name>77330</long_name>
   <short_name>77330</short_name>
   <type>postal_code</type>
  </address_component>
  <geometry>
   <location>
    <lat>62.0854491</lat>
    <lng>27.5608072</lng>
   </location>
   <location_type>APPROXIMATE</location_type>
   <viewport>
    <southwest>
     <lat>62.0426874</lat>
     <lng>27.4965897</lng>
    </southwest>
    <northeast>
     <lat>62.1339185</lat>
     <lng>27.6211035</lng>
    </northeast>
   </viewport>
   <bounds>
    <southwest>
     <lat>62.0426874</lat>
     <lng>27.4965897</lng>
    </southwest>
    <northeast>
     <lat>62.1339185</lat>
     <lng>27.6211035</lng>
    </northeast>
   </bounds>
  </geometry>
  <partial_match>true</partial_match>
  <place_id>ChIJy6tlSrLFmkYRFjef5ucZNFQ</place_id>
 </result>
 <result>
  <type>establishment</type>
  <type>natural_feature</type>
  <formatted_address>Pohjois-Surnui, 76100 Pieksämäki, Finland</formatted_address>
  <address_component>
   <long_name>Pohjois-Surnui</long_name>
   <short_name>Pohjois-Surnui</short_name>
   <type>establishment</type>
   <type>natural_feature</type>
  </address_component>
  <address_component>
   <long_name>Pieksämäki</long_name>
   <short_name>Pieksämäki</short_name>
   <type>administrative_area_level_3</type>
   <type>political</type>
  </address_component>
  <address_component>
   <long_name>Finland</long_name>
   <short_name>FI</short_name>
   <type>country</type>
   <type>political</type>
  </address_component>
  <address_component>
   <long_name>76100</long_name>
   <short_name>76100</short_name>
   <type>postal_code</type>
  </address_component>
  <geometry>
   <location>
    <lat>62.4384573</lat>
    <lng>27.0420161</lng>
   </location>
   <location_type>APPROXIMATE</location_type>
   <viewport>
    <southwest>
     <lat>62.4172103</lat>
     <lng>27.0282859</lng>
    </southwest>
    <northeast>
     <lat>62.4513280</lat>
     <lng>27.0659144</lng>
    </northeast>
   </viewport>
   <bounds>
    <southwest>
     <lat>62.4172103</lat>
     <lng>27.0282859</lng>
    </southwest>
    <northeast>
     <lat>62.4513280</lat>
     <lng>27.0659144</lng>
    </northeast>
   </bounds>
  </geometry>
  <partial_match>true</partial_match>
  <place_id>ChIJnSZsXdknhUYRT1uQmwJCZlU</place_id>
 </result>
 <result>
  <type>establishment</type>
  <type>natural_feature</type>
  <formatted_address>Pohjois-Vuorijärvi, Finland</formatted_address>
  <address_component>
   <long_name>Pohjois-Vuorijärvi</long_name>
   <short_name>Pohjois-Vuorijärvi</short_name>
   <type>establishment</type>
   <type>natural_feature</type>
  </address_component>
  <address_component>
   <long_name>Finland</long_name>
   <short_name>FI</short_name>
   <type>country</type>
   <type>political</type>
  </address_component>
  <geometry>
   <location>
    <lat>62.3237657</lat>
    <lng>27.6461019</lng>
   </location>
   <location_type>APPROXIMATE</location_type>
   <viewport>
    <southwest>
     <lat>62.3173681</lat>
     <lng>27.6219801</lng>
    </southwest>
    <northeast>
     <lat>62.3390115</lat>
     <lng>27.6537652</lng>
    </northeast>
   </viewport>
   <bounds>
    <southwest>
     <lat>62.3173681</lat>
     <lng>27.6219801</lng>
    </southwest>
    <northeast>
     <lat>62.3390115</lat>
     <lng>27.6537652</lng>
    </northeast>
   </bounds>
  </geometry>
  <partial_match>true</partial_match>
  <place_id>ChIJ9bEQEjDWmkYRcHymMAEDMOw</place_id>
 </result>
 <result>
  <type>establishment</type>
  <type>natural_feature</type>
  <formatted_address>Pohjois-Huhtijärvi, 77570 Pieksämäki, Finland</formatted_address>
  <address_component>
   <long_name>Pohjois-Huhtijärvi</long_name>
   <short_name>Pohjois-Huhtijärvi</short_name>
   <type>establishment</type>
   <type>natural_feature</type>
  </address_component>
  <address_component>
   <long_name>Pieksämäki</long_name>
   <short_name>Pieksämäki</short_name>
   <type>administrative_area_level_3</type>
   <type>political</type>
  </address_component>
  <address_component>
   <long_name>Finland</long_name>
   <short_name>FI</short_name>
   <type>country</type>
   <type>political</type>
  </address_component>
  <address_component>
   <long_name>77570</long_name>
   <short_name>77570</short_name>
   <type>postal_code</type>
  </address_component>
  <geometry>
   <location>
    <lat>62.4238747</lat>
    <lng>27.4986273</lng>
   </location>
   <location_type>APPROXIMATE</location_type>
   <viewport>
    <southwest>
     <lat>62.4170203</lat>
     <lng>27.4960028</lng>
    </southwest>
    <northeast>
     <lat>62.4267776</lat>
     <lng>27.5036561</lng>
    </northeast>
   </viewport>
   <bounds>
    <southwest>
     <lat>62.4170203</lat>
     <lng>27.4960028</lng>
    </southwest>
    <northeast>
     <lat>62.4267776</lat>
     <lng>27.5036561</lng>
    </northeast>
   </bounds>
  </geometry>
  <partial_match>true</partial_match>
  <place_id>ChIJ07Adkdgqm0YRrooy0BxVk60</place_id>
 </result>
 <result>
  <type>establishment</type>
  <type>natural_feature</type>
  <formatted_address>Pohjois-Kattilalampi, 19470 Pertunmaa, Finland</formatted_address>
  <address_component>
   <long_name>Pohjois-Kattilalampi</long_name>
   <short_name>Pohjois-Kattilalampi</short_name>
   <type>establishment</type>
   <type>natural_feature</type>
  </address_component>
  <address_component>
   <long_name>Pertunmaa</long_name>
   <short_name>Pertunmaa</short_name>
   <type>administrative_area_level_3</type>
   <type>political</type>
  </address_component>
  <address_component>
   <long_name>Finland</long_name>
   <short_name>FI</short_name>
   <type>country</type>
   <type>political</type>
  </address_component>
  <address_component>
   <long_name>19470</long_name>
   <short_name>19470</short_name>
   <type>postal_code</type>
  </address_component>
  <geometry>
   <location>
    <lat>61.5735435</lat>
    <lng>26.4923319</lng>
   </location>
   <location_type>APPROXIMATE</location_type>
   <viewport>
    <southwest>
     <lat>61.5727662</lat>
     <lng>26.4916094</lng>
    </southwest>
    <northeast>
     <lat>61.5767519</lat>
     <lng>26.4950356</lng>
    </northeast>
   </viewport>
   <bounds>
    <southwest>
     <lat>61.5727662</lat>
     <lng>26.4916094</lng>
    </southwest>
    <northeast>
     <lat>61.5767519</lat>
     <lng>26.4950356</lng>
    </northeast>
   </bounds>
  </geometry>
  <partial_match>true</partial_match>
  <place_id>ChIJm55WJMwCkEYRhQdt1d83Ayw</place_id>
 </result>
 <result>
  <type>route</type>
  <formatted_address>Pohjois-Niskamäentie, 76850 Pieksämäki, Finland</formatted_address>
  <address_component>
   <long_name>Pohjois-Niskamäentie</long_name>
   <short_name>Pohjois-Niskamäentie</short_name>
   <type>route</type>
  </address_component>
  <address_component>
   <long_name>Pieksämäki</long_name>
   <short_name>Pieksämäki</short_name>
   <type>administrative_area_level_3</type>
   <type>political</type>
  </address_component>
  <address_component>
   <long_name>Finland</long_name>
   <short_name>FI</short_name>
   <type>country</type>
   <type>political</type>
  </address_component>
  <address_component>
   <long_name>76850</long_name>
   <short_name>76850</short_name>
   <type>postal_code</type>
  </address_component>
  <geometry>
   <location>
    <lat>62.2602651</lat>
    <lng>26.9619210</lng>
   </location>
   <location_type>GEOMETRIC_CENTER</location_type>
   <viewport>
    <southwest>
     <lat>62.2420097</lat>
     <lng>26.9419626</lng>
    </southwest>
    <northeast>
     <lat>62.2778847</lat>
     <lng>26.9789534</lng>
    </northeast>
   </viewport>
   <bounds>
    <southwest>
     <lat>62.2420097</lat>
     <lng>26.9419626</lng>
    </southwest>
    <northeast>
     <lat>62.2778847</lat>
     <lng>26.9789534</lng>
    </northeast>
   </bounds>
  </geometry>
  <partial_match>true</partial_match>
  <place_id>ChIJkaPvf8kxhUYRQ2T6gr6ow8M</place_id>
 </result>
 <result>
  <type>route</type>
  <formatted_address>Pohjois-Hälväntie, 58200 Kerimäki, Finland</formatted_address>
  <address_component>
   <long_name>Pohjois-Hälväntie</long_name>
   <short_name>Pohjois-Hälväntie</short_name>
   <type>route</type>
  </address_component>
  <address_component>
   <long_name>Savonlinna</long_name>
   <short_name>Savonlinna</short_name>
   <type>locality</type>
   <type>political</type>
  </address_component>
  <address_component>
   <long_name>Kerimäki</long_name>
   <short_name>Kerimäki</short_name>
   <type>administrative_area_level_3</type>
   <type>political</type>
  </address_component>
  <address_component>
   <long_name>Finland</long_name>
   <short_name>FI</short_name>
   <type>country</type>
   <type>political</type>
  </address_component>
  <address_component>
   <long_name>58200</long_name>
   <short_name>58200</short_name>
   <type>postal_code</type>
  </address_component>
  <geometry>
   <location>
    <lat>61.9406243</lat>
    <lng>29.3716843</lng>
   </location>
   <location_type>GEOMETRIC_CENTER</location_type>
   <viewport>
    <southwest>
     <lat>61.9387263</lat>
     <lng>29.3682139</lng>
    </southwest>
    <northeast>
     <lat>61.9435594</lat>
     <lng>29.3741545</lng>
    </northeast>
   </viewport>
   <bounds>
    <southwest>
     <lat>61.9387263</lat>
     <lng>29.3682139</lng>
    </southwest>
    <northeast>
     <lat>61.9435594</lat>
     <lng>29.3741545</lng>
    </northeast>
   </bounds>
  </geometry>
  <partial_match>true</partial_match>
  <place_id>ChIJdXa5Za9KmkYRM_ExhtJE0Tg</place_id>
 </result>
 <result>
  <type>route</type>
  <formatted_address>Pohjois-Muhkantie, 52620 Hirvensalmi, Finland</formatted_address>
  <address_component>
   <long_name>Pohjois-Muhkantie</long_name>
   <short_name>Pohjois-Muhkantie</short_name>
   <type>route</type>
  </address_component>
  <address_component>
   <long_name>Hirvensalmi</long_name>
   <short_name>Hirvensalmi</short_name>
   <type>administrative_area_level_3</type>
   <type>political</type>
  </address_component>
  <address_component>
   <long_name>Finland</long_name>
   <short_name>FI</short_name>
   <type>country</type>
   <type>political</type>
  </address_component>
  <address_component>
   <long_name>52620</long_name>
   <short_name>52620</short_name>
   <type>postal_code</type>
  </address_component>
  <geometry>
   <location>
    <lat>61.7868646</lat>
    <lng>26.5647143</lng>
   </location>
   <location_type>GEOMETRIC_CENTER</location_type>
   <viewport>
    <southwest>
     <lat>61.7853578</lat>
     <lng>26.5608813</lng>
    </southwest>
    <northeast>
     <lat>61.7880557</lat>
     <lng>26.5695201</lng>
    </northeast>
   </viewport>
   <bounds>
    <southwest>
     <lat>61.7861637</lat>
     <lng>26.5608813</lng>
    </southwest>
    <northeast>
     <lat>61.7872498</lat>
     <lng>26.5695201</lng>
    </northeast>
   </bounds>
  </geometry>
  <partial_match>true</partial_match>
  <place_id>ChIJzfcTWaFVhUYRn-Ha5ehLa0Q</place_id>
 </result>
 <result>
  <type>route</type>
  <formatted_address>Pohjois-Hälvän tie, 58200 Kerimäki, Finland</formatted_address>
  <address_component>
   <long_name>Pohjois-Hälvän tie</long_name>
   <short_name>Pohjois-Hälvän tie</short_name>
   <type>route</type>
  </address_component>
  <address_component>
   <long_name>Savonlinna</long_name>
   <short_name>Savonlinna</short_name>
   <type>locality</type>
   <type>political</type>
  </address_component>
  <address_component>
   <long_name>Kerimäki</long_name>
   <short_name>Kerimäki</short_name>
   <type>administrative_area_level_3</type>
   <type>political</type>
  </address_component>
  <address_component>
   <long_name>Finland</long_name>
   <short_name>FI</short_name>
   <type>country</type>
   <type>political</type>
  </address_component>
  <address_component>
   <long_name>58200</long_name>
   <short_name>58200</short_name>
   <type>postal_code</type>
  </address_component>
  <geometry>
   <location>
    <lat>61.9185751</lat>
    <lng>29.3951942</lng>
   </location>
   <location_type>GEOMETRIC_CENTER</location_type>
   <viewport>
    <southwest>
     <lat>61.8990131</lat>
     <lng>29.3607444</lng>
    </southwest>
    <northeast>
     <lat>61.9387774</lat>
     <lng>29.4286505</lng>
    </northeast>
   </viewport>
   <bounds>
    <southwest>
     <lat>61.8990131</lat>
     <lng>29.3607444</lng>
    </southwest>
    <northeast>
     <lat>61.9387774</lat>
     <lng>29.4286505</lng>
    </northeast>
   </bounds>
  </geometry>
  <partial_match>true</partial_match>
  <place_id>ChIJ7d1Yp2k1mkYRCfjqQ81xxpY</place_id>
 </result>
</GeocodeResponse>
