<?xml version="1.0" encoding="UTF-8"?>
<GeocodeResponse>
 <status>OK</status>
 <result>
  <type>route</type>
  <formatted_address>Braunschweiger Str., 31226 Peine, Germany</formatted_address>
  <address_component>
   <long_name>Braunschweiger Straße</long_name>
   <short_name>Braunschweiger Str.</short_name>
   <type>route</type>
  </address_component>
  <address_component>
   <long_name>Peine</long_name>
   <short_name>PE</short_name>
   <type>locality</type>
   <type>political</type>
  </address_component>
  <address_component>
   <long_name>Niedersachsen</long_name>
   <short_name>NDS</short_name>
   <type>administrative_area_level_1</type>
   <type>political</type>
  </address_component>
  <address_component>
   <long_name>Germany</long_name>
   <short_name>DE</short_name>
   <type>country</type>
   <type>political</type>
  </address_component>
  <address_component>
   <long_name>31226</long_name>
   <short_name>31226</short_name>
   <type>postal_code</type>
  </address_component>
  <geometry>
   <location>
    <lat>52.3130945</lat>
    <lng>10.2413711</lng>
   </location>
   <location_type>GEOMETRIC_CENTER</location_type>
   <viewport>
    <southwest>
     <lat>52.3067371</lat>
     <lng>10.2302999</lng>
    </southwest>
    <northeast>
     <lat>52.3188000</lat>
     <lng>10.2515282</lng>
    </northeast>
   </viewport>
   <bounds>
    <southwest>
     <lat>52.3067371</lat>
     <lng>10.2302999</lng>
    </southwest>
    <northeast>
     <lat>52.3188000</lat>
     <lng>10.2515282</lng>
    </northeast>
   </bounds>
  </geometry>
  <partial_match>true</partial_match>
  <place_id>ChIJ-97-h1r-r0cR3rjwM5ESxHo</place_id>
 </result>
 <result>
  <type>route</type>
  <formatted_address>Peiner Str., 38112 Braunschweig, Germany</formatted_address>
  <address_component>
   <long_name>Peiner Straße</long_name>
   <short_name>Peiner Str.</short_name>
   <type>route</type>
  </address_component>
  <address_component>
   <long_name>Braunschweig</long_name>
   <short_name>BS</short_name>
   <type>locality</type>
   <type>political</type>
  </address_component>
  <address_component>
   <long_name>Niedersachsen</long_name>
   <short_name>NDS</short_name>
   <type>administrative_area_level_1</type>
   <type>political</type>
  </address_component>
  <address_component>
   <long_name>Germany</long_name>
   <short_name>DE</short_name>
   <type>country</type>
   <type>political</type>
  </address_component>
  <address_component>
   <long_name>38112</long_name>
   <short_name>38112</short_name>
   <type>postal_code</type>
  </address_component>
  <geometry>
   <location>
    <lat>52.3045816</lat>
    <lng>10.4440502</lng>
   </location>
   <location_type>GEOMETRIC_CENTER</location_type>
   <viewport>
    <southwest>
     <lat>52.3022841</lat>
     <lng>10.4240911</lng>
    </southwest>
    <northeast>
     <lat>52.3069000</lat>
     <lng>10.4632422</lng>
    </northeast>
   </viewport>
   <bounds>
    <southwest>
     <lat>52.3022841</lat>
     <lng>10.4240911</lng>
    </southwest>
    <northeast>
     <lat>52.3069000</lat>
     <lng>10.4632422</lng>
    </northeast>
   </bounds>
  </geometry>
  <partial_match>true</partial_match>
  <place_id>ChIJTZxy3Gn3r0cR20AhdtJ2Pbw</place_id>
 </result>
 <result>
  <type>route</type>
  <formatted_address>Braunschweiger Str., Lengede, Germany</formatted_address>
  <address_component>
   <long_name>Braunschweiger Straße</long_name>
   <short_name>Braunschweiger Str.</short_name>
   <type>route</type>
  </address_component>
  <address_component>
   <long_name>Lengede</long_name>
   <short_name>Lengede</short_name>
   <type>locality</type>
   <type>political</type>
  </address_component>
  <address_component>
   <long_name>Niedersachsen</long_name>
   <short_name>NDS</short_name>
   <type>administrative_area_level_1</type>
   <type>political</type>
  </address_component>
  <address_component>
   <long_name>Germany</long_name>
   <short_name>DE</short_name>
   <type>country</type>
   <type>political</type>
  </address_component>
  <geometry>
   <location>
    <lat>52.2236303</lat>
    <lng>10.3059088</lng>
   </location>
   <location_type>GEOMETRIC_CENTER</location_type>
   <viewport>
    <southwest>
     <lat>52.2221917</lat>
     <lng>10.2968475</lng>
    </southwest>
    <northeast>
     <lat>52.2248897</lat>
     <lng>10.3131292</lng>
    </northeast>
   </viewport>
   <bounds>
    <southwest>
     <lat>52.2227000</lat>
     <lng>10.2968475</lng>
    </southwest>
    <northeast>
     <lat>52.2243814</lat>
     <lng>10.3131292</lng>
    </northeast>
   </bounds>
  </geometry>
  <partial_match>true</partial_match>
  <place_id>ChIJT6Dg0WlWpUcRPlbib9rPgds</place_id>
 </result>
 <result>
  <type>route</type>
  <formatted_address>Peiner Str., 38176 Wendeburg, Germany</formatted_address>
  <address_component>
   <long_name>Peiner Straße</long_name>
   <short_name>Peiner Str.</short_name>
   <type>route</type>
  </address_component>
  <address_component>
   <long_name>Wendeburg</long_name>
   <short_name>Wendeburg</short_name>
   <type>locality</type>
   <type>political</type>
  </address_component>
  <address_component>
   <long_name>Niedersachsen</long_name>
   <short_name>NDS</short_name>
   <type>administrative_area_level_1</type>
   <type>political</type>
  </address_component>
  <address_component>
   <long_name>Germany</long_name>
   <short_name>DE</short_name>
   <type>country</type>
   <type>political</type>
  </address_component>
  <address_component>
   <long_name>38176</long_name>
   <short_name>38176</short_name>
   <type>postal_code</type>
  </address_component>
  <geometry>
   <location>
    <lat>52.3260550</lat>
    <lng>10.3823838</lng>
   </location>
   <location_type>GEOMETRIC_CENTER</location_type>
   <viewport>
    <southwest>
     <lat>52.3208676</lat>
     <lng>10.3714064</lng>
    </southwest>
    <northeast>
     <lat>52.3282300</lat>
     <lng>10.3941427</lng>
    </northeast>
   </viewport>
   <bounds>
    <southwest>
     <lat>52.3208676</lat>
     <lng>10.3714064</lng>
    </southwest>
    <northeast>
     <lat>52.3282300</lat>
     <lng>10.3941427</lng>
    </northeast>
   </bounds>
  </geometry>
  <partial_match>true</partial_match>
  <place_id>ChIJ1aOWRIT5r0cRgm0P8_1gg1k</place_id>
 </result>
 <result>
  <type>route</type>
  <formatted_address>Braunschweiger Str., 38176 Wendeburg, Germany</formatted_address>
  <address_component>
   <long_name>Braunschweiger Straße</long_name>
   <short_name>Braunschweiger Str.</short_name>
   <type>route</type>
  </address_component>
  <address_component>
   <long_name>Wendeburg</long_name>
   <short_name>Wendeburg</short_name>
   <type>locality</type>
   <type>political</type>
  </address_component>
  <address_component>
   <long_name>Niedersachsen</long_name>
   <short_name>NDS</short_name>
   <type>administrative_area_level_1</type>
   <type>political</type>
  </address_component>
  <address_component>
   <long_name>Germany</long_name>
   <short_name>DE</short_name>
   <type>country</type>
   <type>political</type>
  </address_component>
  <address_component>
   <long_name>38176</long_name>
   <short_name>38176</short_name>
   <type>postal_code</type>
  </address_component>
  <geometry>
   <location>
    <lat>52.3248718</lat>
    <lng>10.3942583</lng>
   </location>
   <location_type>GEOMETRIC_CENTER</location_type>
   <viewport>
    <southwest>
     <lat>52.3213962</lat>
     <lng>10.3933337</lng>
    </southwest>
    <northeast>
     <lat>52.3281764</lat>
     <lng>10.3960317</lng>
    </northeast>
   </viewport>
   <bounds>
    <southwest>
     <lat>52.3213962</lat>
     <lng>10.3935900</lng>
    </southwest>
    <northeast>
     <lat>52.3281764</lat>
     <lng>10.3957754</lng>
    </northeast>
   </bounds>
  </geometry>
  <partial_match>true</partial_match>
  <place_id>ChIJl-_yqI75r0cRC0n8JFOBNaw</place_id>
 </result>
 <result>
  <type>route</type>
  <formatted_address>Peiner Str., 38533 Vordorf, Germany</formatted_address>
  <address_component>
   <long_name>Peiner Straße</long_name>
   <short_name>Peiner Str.</short_name>
   <type>route</type>
  </address_component>
  <address_component>
   <long_name>Vordorf</long_name>
   <short_name>Vordorf</short_name>
   <type>locality</type>
   <type>political</type>
  </address_component>
  <address_component>
   <long_name>Niedersachsen</long_name>
   <short_name>NDS</short_name>
   <type>administrative_area_level_1</type>
   <type>political</type>
  </address_component>
  <address_component>
   <long_name>Germany</long_name>
   <short_name>DE</short_name>
   <type>country</type>
   <type>political</type>
  </address_component>
  <address_component>
   <long_name>38533</long_name>
   <short_name>38533</short_name>
   <type>postal_code</type>
  </address_component>
  <geometry>
   <location>
    <lat>52.3734835</lat>
    <lng>10.4776561</lng>
   </location>
   <location_type>GEOMETRIC_CENTER</location_type>
   <viewport>
    <southwest>
     <lat>52.3720678</lat>
     <lng>10.4761525</lng>
    </southwest>
    <northeast>
     <lat>52.3747657</lat>
     <lng>10.4791275</lng>
    </northeast>
   </viewport>
   <bounds>
    <southwest>
     <lat>52.3722308</lat>
     <lng>10.4761525</lng>
    </southwest>
    <northeast>
     <lat>52.3746027</lat>
     <lng>10.4791275</lng>
    </northeast>
   </bounds>
  </geometry>
  <partial_match>true</partial_match>
  <place_id>ChIJi6mwFGfwr0cRU34eecUQ4zM</place_id>
 </result>
 <result>
  <type>route</type>
  <formatted_address>Peiner Str., 38527 Meine, Germany</formatted_address>
  <address_component>
   <long_name>Peiner Straße</long_name>
   <short_name>Peiner Str.</short_name>
   <type>route</type>
  </address_component>
  <address_component>
   <long_name>Meine</long_name>
   <short_name>Meine</short_name>
   <type>locality</type>
   <type>political</type>
  </address_component>
  <address_component>
   <long_name>Niedersachsen</long_name>
   <short_name>NDS</short_name>
   <type>administrative_area_level_1</type>
   <type>political</type>
  </address_component>
  <address_component>
   <long_name>Germany</long_name>
   <short_name>DE</short_name>
   <type>country</type>
   <type>political</type>
  </address_component>
  <address_component>
   <long_name>38527</long_name>
   <short_name>38527</short_name>
   <type>postal_code</type>
  </address_component>
  <geometry>
   <location>
    <lat>52.3796236</lat>
    <lng>10.5316847</lng>
   </location>
   <location_type>GEOMETRIC_CENTER</location_type>
   <viewport>
    <southwest>
     <lat>52.3783660</lat>
     <lng>10.5296500</lng>
    </southwest>
    <northeast>
     <lat>52.3810640</lat>
     <lng>10.5343517</lng>
    </northeast>
   </viewport>
   <bounds>
    <southwest>
     <lat>52.3792300</lat>
     <lng>10.5296500</lng>
    </southwest>
    <northeast>
     <lat>52.3802000</lat>
     <lng>10.5343517</lng>
    </northeast>
   </bounds>
  </geometry>
  <partial_match>true</partial_match>
  <place_id>ChIJkUBKO7nxr0cR-zIs6JvQL7Y</place_id>
 </result>
 <result>
  <type>route</type>
  <formatted_address>Vallstedt, Braunschweiger Str., 38159 Vechelde, Germany</formatted_address>
  <address_component>
   <long_name>Braunschweiger Straße</long_name>
   <short_name>Braunschweiger Str.</short_name>
   <type>route</type>
  </address_component>
  <address_component>
   <long_name>Vallstedt</long_name>
   <short_name>Vallstedt</short_name>
   <type>political</type>
   <type>sublocality</type>
   <type>sublocality_level_1</type>
  </address_component>
  <address_component>
   <long_name>Vechelde</long_name>
   <short_name>Vechelde</short_name>
   <type>locality</type>
   <type>political</type>
  </address_component>
  <address_component>
   <long_name>Niedersachsen</long_name>
   <short_name>NDS</short_name>
   <type>administrative_area_level_1</type>
   <type>political</type>
  </address_component>
  <address_component>
   <long_name>Germany</long_name>
   <short_name>DE</short_name>
   <type>country</type>
   <type>political</type>
  </address_component>
  <address_component>
   <long_name>38159</long_name>
   <short_name>38159</short_name>
   <type>postal_code</type>
  </address_component>
  <geometry>
   <location>
    <lat>52.2176939</lat>
    <lng>10.3670765</lng>
   </location>
   <location_type>GEOMETRIC_CENTER</location_type>
   <viewport>
    <southwest>
     <lat>52.2153285</lat>
     <lng>10.3653022</lng>
    </southwest>
    <northeast>
     <lat>52.2196896</lat>
     <lng>10.3680001</lng>
    </northeast>
   </viewport>
   <bounds>
    <southwest>
     <lat>52.2153285</lat>
     <lng>10.3656087</lng>
    </southwest>
    <northeast>
     <lat>52.2196896</lat>
     <lng>10.3676936</lng>
    </northeast>
   </bounds>
  </geometry>
  <partial_match>true</partial_match>
  <place_id>ChIJTRk6HJdXpUcReyrr41l-lF0</place_id>
 </result>
</GeocodeResponse>
