<?xml version="1.0" encoding="UTF-8"?>
<GeocodeResponse>
 <status>OK</status>
 <result>
  <type>locality</type>
  <type>political</type>
  <formatted_address>Wakefield, West Yorkshire, UK</formatted_address>
  <address_component>
   <long_name>Wakefield</long_name>
   <short_name>Wakefield</short_name>
   <type>locality</type>
   <type>political</type>
  </address_component>
  <address_component>
   <long_name>Wakefield District</long_name>
   <short_name>Wakefield District</short_name>
   <type>administrative_area_level_3</type>
   <type>political</type>
  </address_component>
  <address_component>
   <long_name>West Yorkshire</long_name>
   <short_name>West Yorkshire</short_name>
   <type>administrative_area_level_2</type>
   <type>political</type>
  </address_component>
  <address_component>
   <long_name>England</long_name>
   <short_name>England</short_name>
   <type>administrative_area_level_1</type>
   <type>political</type>
  </address_component>
  <address_component>
   <long_name>United Kingdom</long_name>
   <short_name>GB</short_name>
   <type>country</type>
   <type>political</type>
  </address_component>
  <geometry>
   <location>
    <lat>53.6832980</lat>
    <lng>-1.5059240</lng>
   </location>
   <location_type>APPROXIMATE</location_type>
   <viewport>
    <southwest>
     <lat>53.6361927</lat>
     <lng>-1.5566213</lng>
    </southwest>
    <northeast>
     <lat>53.7155472</lat>
     <lng>-1.4638399</lng>
    </northeast>
   </viewport>
   <bounds>
    <southwest>
     <lat>53.6361927</lat>
     <lng>-1.5566213</lng>
    </southwest>
    <northeast>
     <lat>53.7155472</lat>
     <lng>-1.4638399</lng>
    </northeast>
   </bounds>
  </geometry>
  <place_id>ChIJMQv7R2BdeUgRyNqy1Hx9aXE</place_id>
 </result>
 <result>
  <type>locality</type>
  <type>political</type>
  <formatted_address>Wakefield, MA 01880, USA</formatted_address>
  <address_component>
   <long_name>Wakefield</long_name>
   <short_name>Wakefield</short_name>
   <type>locality</type>
   <type>political</type>
  </address_component>
  <address_component>
   <long_name>Middlesex County</long_name>
   <short_name>Middlesex County</short_name>
   <type>administrative_area_level_2</type>
   <type>political</type>
  </address_component>
  <address_component>
   <long_name>Massachusetts</long_name>
   <short_name>MA</short_name>
   <type>administrative_area_level_1</type>
   <type>political</type>
  </address_component>
  <address_component>
   <long_name>United States</long_name>
   <short_name>US</short_name>
   <type>country</type>
   <type>political</type>
  </address_component>
  <address_component>
   <long_name>01880</long_name>
   <short_name>01880</short_name>
   <type>postal_code</type>
  </address_component>
  <geometry>
   <location>
    <lat>42.5039395</lat>
    <lng>-71.0723391</lng>
   </location>
   <location_type>APPROXIMATE</location_type>
   <viewport>
    <southwest>
     <lat>42.4714279</lat>
     <lng>-71.1010451</lng>
    </southwest>
    <northeast>
     <lat>42.5308951</lat>
     <lng>-71.0352960</lng>
    </northeast>
   </viewport>
   <bounds>
    <southwest>
     <lat>42.4714279</lat>
     <lng>-71.1010451</lng>
    </southwest>
    <northeast>
     <lat>42.5308951</lat>
     <lng>-71.0352960</lng>
    </northeast>
   </bounds>
  </geometry>
  <place_id>ChIJvZqytzZz44kR7_8lvZfUWxU</place_id>
 </result>
 <result>
  <type>locality</type>
  <type>political</type>
  <formatted_address>Wakefield, NH, USA</formatted_address>
  <address_component>
   <long_name>Wakefield</long_name>
   <short_name>Wakefield</short_name>
   <type>locality</type>
   <type>political</type>
  </address_component>
  <address_component>
   <long_name>Carroll County</long_name>
   <short_name>Carroll County</short_name>
   <type>administrative_area_level_2</type>
   <type>political</type>
  </address_component>
  <address_component>
   <long_name>New Hampshire</long_name>
   <short_name>NH</short_name>
   <type>administrative_area_level_1</type>
   <type>political</type>
  </address_component>
  <address_component>
   <long_name>United States</long_name>
   <short_name>US</short_name>
   <type>country</type>
   <type>political</type>
  </address_component>
  <geometry>
   <location>
    <lat>43.5536938</lat>
    <lng>-71.0288751</lng>
   </location>
   <location_type>APPROXIMATE</location_type>
   <viewport>
    <southwest>
     <lat>43.4829809</lat>
     <lng>-71.0634598</lng>
    </southwest>
    <northeast>
     <lat>43.6873883</lat>
     <lng>-70.9508378</lng>
    </northeast>
   </viewport>
   <bounds>
    <southwest>
     <lat>43.4829809</lat>
     <lng>-71.0634598</lng>
    </southwest>
    <northeast>
     <lat>43.6873883</lat>
     <lng>-70.9508378</lng>
    </northeast>
   </bounds>
  </geometry>
  <place_id>ChIJF0JRhgvZskwRBCk2rS8z4Ao</place_id>
 </result>
</GeocodeResponse>
