<?xml version="1.0" encoding="UTF-8"?>
<GeocodeResponse>
 <status>OK</status>
 <result>
  <type>locality</type>
  <type>political</type>
  <formatted_address>66482 Zweibrücken, Germany</formatted_address>
  <address_component>
   <long_name>Zweibrücken</long_name>
   <short_name>ZW</short_name>
   <type>locality</type>
   <type>political</type>
  </address_component>
  <address_component>
   <long_name>Rhineland-Palatinate</long_name>
   <short_name>RP</short_name>
   <type>administrative_area_level_1</type>
   <type>political</type>
  </address_component>
  <address_component>
   <long_name>Germany</long_name>
   <short_name>DE</short_name>
   <type>country</type>
   <type>political</type>
  </address_component>
  <address_component>
   <long_name>66482</long_name>
   <short_name>66482</short_name>
   <type>postal_code</type>
  </address_component>
  <geometry>
   <location>
    <lat>49.2450528</lat>
    <lng>7.3634022</lng>
   </location>
   <location_type>APPROXIMATE</location_type>
   <viewport>
    <southwest>
     <lat>49.1899837</lat>
     <lng>7.2886981</lng>
    </southwest>
    <northeast>
     <lat>49.3171714</lat>
     <lng>7.4484162</lng>
    </northeast>
   </viewport>
   <bounds>
    <southwest>
     <lat>49.1899837</lat>
     <lng>7.2886981</lng>
    </southwest>
    <northeast>
     <lat>49.3171714</lat>
     <lng>7.4484162</lng>
    </northeast>
   </bounds>
  </geometry>
  <partial_match>true</partial_match>
  <place_id>ChIJE4i4Q9_QlUcR8BvbENXUIgQ</place_id>
 </result>
 <result>
  <type>political</type>
  <type>sublocality</type>
  <type>sublocality_level_1</type>
  <formatted_address>Zweibrücken, Althornbach, Germany</formatted_address>
  <address_component>
   <long_name>Zweibrücken</long_name>
   <short_name>Zweibrücken</short_name>
   <type>political</type>
   <type>sublocality</type>
   <type>sublocality_level_1</type>
  </address_component>
  <address_component>
   <long_name>Althornbach</long_name>
   <short_name>Althornbach</short_name>
   <type>locality</type>
   <type>political</type>
  </address_component>
  <address_component>
   <long_name>Rheinland-Pfalz</long_name>
   <short_name>RP</short_name>
   <type>administrative_area_level_1</type>
   <type>political</type>
  </address_component>
  <address_component>
   <long_name>Germany</long_name>
   <short_name>DE</short_name>
   <type>country</type>
   <type>political</type>
  </address_component>
  <geometry>
   <location>
    <lat>49.2096733</lat>
    <lng>7.3909358</lng>
   </location>
   <location_type>APPROXIMATE</location_type>
   <viewport>
    <southwest>
     <lat>49.2069430</lat>
     <lng>7.3871129</lng>
    </southwest>
    <northeast>
     <lat>49.2114460</lat>
     <lng>7.3970868</lng>
    </northeast>
   </viewport>
   <bounds>
    <southwest>
     <lat>49.2069430</lat>
     <lng>7.3871129</lng>
    </southwest>
    <northeast>
     <lat>49.2114460</lat>
     <lng>7.3970868</lng>
    </northeast>
   </bounds>
  </geometry>
  <partial_match>true</partial_match>
  <place_id>ChIJw1hAbB3UlUcR8sYDrtTw2E8</place_id>
 </result>
</GeocodeResponse>
