<?xml version="1.0" encoding="UTF-8"?>
<GeocodeResponse>
 <status>OK</status>
 <result>
  <type>establishment</type>
  <type>park</type>
  <type>point_of_interest</type>
  <formatted_address>Parque Natural da Serra da Estrela, Seia-Covilha, Seia, Centro, Portugal</formatted_address>
  <address_component>
   <long_name>Parque Natural da Serra da Estrela</long_name>
   <short_name>Parque Natural da Serra da Estrela</short_name>
   <type>establishment</type>
   <type>park</type>
   <type>point_of_interest</type>
  </address_component>
  <address_component>
   <long_name>Portugal</long_name>
   <short_name>PT</short_name>
   <type>country</type>
   <type>political</type>
  </address_component>
  <geometry>
   <location>
    <lat>40.3333330</lat>
    <lng>-7.6333330</lng>
   </location>
   <location_type>APPROXIMATE</location_type>
   <viewport>
    <southwest>
     <lat>40.3319840</lat>
     <lng>-7.6346820</lng>
    </southwest>
    <northeast>
     <lat>40.3346820</lat>
     <lng>-7.6319840</lng>
    </northeast>
   </viewport>
  </geometry>
  <place_id>ChIJ6TvBCSnZPA0Rs3pGiJZ9qAg</place_id>
 </result>
 <result>
  <type>establishment</type>
  <type>natural_feature</type>
  <formatted_address>Serra da Estrela, 6215 Unhais da Serra, Portugal</formatted_address>
  <address_component>
   <long_name>Serra da Estrela</long_name>
   <short_name>Serra da Estrela</short_name>
   <type>establishment</type>
   <type>natural_feature</type>
  </address_component>
  <address_component>
   <long_name>Unhais da Serra</long_name>
   <short_name>Unhais da Serra</short_name>
   <type>locality</type>
   <type>political</type>
  </address_component>
  <address_component>
   <long_name>Castelo Branco District</long_name>
   <short_name>Castelo Branco District</short_name>
   <type>administrative_area_level_1</type>
   <type>political</type>
  </address_component>
  <address_component>
   <long_name>Portugal</long_name>
   <short_name>PT</short_name>
   <type>country</type>
   <type>political</type>
  </address_component>
  <address_component>
   <long_name>6215</long_name>
   <short_name>6215</short_name>
   <type>postal_code</type>
   <type>postal_code_prefix</type>
  </address_component>
  <geometry>
   <location>
    <lat>40.3230306</lat>
    <lng>-7.5960533</lng>
   </location>
   <location_type>APPROXIMATE</location_type>
   <viewport>
    <southwest>
     <lat>40.3216816</lat>
     <lng>-7.5974023</lng>
    </southwest>
    <northeast>
     <lat>40.3243796</lat>
     <lng>-7.5947043</lng>
    </northeast>
   </viewport>
  </geometry>
  <place_id>ChIJOeiLQKAoPQ0R4CwQ0r7rAB0</place_id>
 </result>
</GeocodeResponse>
