<?xml version="1.0" encoding="UTF-8"?>
<GeocodeResponse>
 <status>OK</status>
 <result>
  <type>route</type>
  <formatted_address>R. da Beira, 4605 Vila Meã, Portugal</formatted_address>
  <address_component>
   <long_name>Rua da Beira</long_name>
   <short_name>R. da Beira</short_name>
   <type>route</type>
  </address_component>
  <address_component>
   <long_name>Vila Meã</long_name>
   <short_name>Vila Meã</short_name>
   <type>locality</type>
   <type>political</type>
  </address_component>
  <address_component>
   <long_name>Porto</long_name>
   <short_name>Porto</short_name>
   <type>administrative_area_level_1</type>
   <type>political</type>
  </address_component>
  <address_component>
   <long_name>Portugal</long_name>
   <short_name>PT</short_name>
   <type>country</type>
   <type>political</type>
  </address_component>
  <address_component>
   <long_name>4605</long_name>
   <short_name>4605</short_name>
   <type>postal_code</type>
   <type>postal_code_prefix</type>
  </address_component>
  <geometry>
   <location>
    <lat>41.2472255</lat>
    <lng>-8.1783015</lng>
   </location>
   <location_type>GEOMETRIC_CENTER</location_type>
   <viewport>
    <southwest>
     <lat>41.2458190</lat>
     <lng>-8.1795587</lng>
    </southwest>
    <northeast>
     <lat>41.2485170</lat>
     <lng>-8.1768607</lng>
    </northeast>
   </viewport>
   <bounds>
    <southwest>
     <lat>41.2467080</lat>
     <lng>-8.1790679</lng>
    </southwest>
    <northeast>
     <lat>41.2476280</lat>
     <lng>-8.1773515</lng>
    </northeast>
   </bounds>
  </geometry>
  <partial_match>true</partial_match>
  <place_id>ChIJzX8qxjSUJA0RSblDO0RyaPo</place_id>
 </result>
 <result>
  <type>route</type>
  <formatted_address>Av. da Beira, 6270, Portugal</formatted_address>
  <address_component>
   <long_name>Avenida da Beira</long_name>
   <short_name>Av. da Beira</short_name>
   <type>route</type>
  </address_component>
  <address_component>
   <long_name>Guarda</long_name>
   <short_name>Guarda</short_name>
   <type>administrative_area_level_1</type>
   <type>political</type>
  </address_component>
  <address_component>
   <long_name>Portugal</long_name>
   <short_name>PT</short_name>
   <type>country</type>
   <type>political</type>
  </address_component>
  <address_component>
   <long_name>6270</long_name>
   <short_name>6270</short_name>
   <type>postal_code</type>
   <type>postal_code_prefix</type>
  </address_component>
  <geometry>
   <location>
    <lat>40.3851161</lat>
    <lng>-7.7614054</lng>
   </location>
   <location_type>GEOMETRIC_CENTER</location_type>
   <viewport>
    <southwest>
     <lat>40.3835913</lat>
     <lng>-7.7634458</lng>
    </southwest>
    <northeast>
     <lat>40.3862892</lat>
     <lng>-7.7594465</lng>
    </northeast>
   </viewport>
   <bounds>
    <southwest>
     <lat>40.3843311</lat>
     <lng>-7.7634458</lng>
    </southwest>
    <northeast>
     <lat>40.3855494</lat>
     <lng>-7.7594465</lng>
    </northeast>
   </bounds>
  </geometry>
  <partial_match>true</partial_match>
  <place_id>ChIJ4f1cOF3VPA0RxlBP3IbZZYw</place_id>
 </result>
 <result>
  <type>route</type>
  <formatted_address>R. da Cova, 6000, Portugal</formatted_address>
  <address_component>
   <long_name>Rua da Cova</long_name>
   <short_name>R. da Cova</short_name>
   <type>route</type>
  </address_component>
  <address_component>
   <long_name>Castelo Branco</long_name>
   <short_name>Castelo Branco</short_name>
   <type>administrative_area_level_1</type>
   <type>political</type>
  </address_component>
  <address_component>
   <long_name>Portugal</long_name>
   <short_name>PT</short_name>
   <type>country</type>
   <type>political</type>
  </address_component>
  <address_component>
   <long_name>6000</long_name>
   <short_name>6000</short_name>
   <type>postal_code</type>
   <type>postal_code_prefix</type>
  </address_component>
  <geometry>
   <location>
    <lat>39.8411085</lat>
    <lng>-7.7474874</lng>
   </location>
   <location_type>GEOMETRIC_CENTER</location_type>
   <viewport>
    <southwest>
     <lat>39.8286818</lat>
     <lng>-7.7507408</lng>
    </southwest>
    <northeast>
     <lat>39.8547824</lat>
     <lng>-7.7447951</lng>
    </northeast>
   </viewport>
   <bounds>
    <southwest>
     <lat>39.8286818</lat>
     <lng>-7.7507408</lng>
    </southwest>
    <northeast>
     <lat>39.8547824</lat>
     <lng>-7.7447951</lng>
    </northeast>
   </bounds>
  </geometry>
  <partial_match>true</partial_match>
  <place_id>ChIJz7OM1g1TPQ0RzIiamIfV7Po</place_id>
 </result>
</GeocodeResponse>
