<?xml version="1.0" encoding="UTF-8"?>
<GeocodeResponse>
 <status>OK</status>
 <result>
  <type>route</type>
  <formatted_address>N Wales Expy, Isle of Anglesey, UK</formatted_address>
  <address_component>
   <long_name>North Wales Expressway</long_name>
   <short_name>N Wales Expy</short_name>
   <type>route</type>
  </address_component>
  <address_component>
   <long_name>Isle of Anglesey</long_name>
   <short_name>Isle of Anglesey</short_name>
   <type>administrative_area_level_2</type>
   <type>political</type>
  </address_component>
  <address_component>
   <long_name>United Kingdom</long_name>
   <short_name>GB</short_name>
   <type>country</type>
   <type>political</type>
  </address_component>
  <geometry>
   <location>
    <lat>53.2866926</lat>
    <lng>-4.5764652</lng>
   </location>
   <location_type>GEOMETRIC_CENTER</location_type>
   <viewport>
    <southwest>
     <lat>53.2844832</lat>
     <lng>-4.5799903</lng>
    </southwest>
    <northeast>
     <lat>53.2885367</lat>
     <lng>-4.5744760</lng>
    </northeast>
   </viewport>
   <bounds>
    <southwest>
     <lat>53.2844832</lat>
     <lng>-4.5799903</lng>
    </southwest>
    <northeast>
     <lat>53.2885367</lat>
     <lng>-4.5744760</lng>
    </northeast>
   </bounds>
  </geometry>
  <partial_match>true</partial_match>
  <place_id>ChIJK-8BU7sYZUgRMYRIcFDf-iM</place_id>
 </result>
 <result>
  <type>route</type>
  <formatted_address>Heads of the Valleys Rd, Abergavenny NP7, UK</formatted_address>
  <address_component>
   <long_name>Heads of the Valleys Road</long_name>
   <short_name>Heads of the Valleys Rd</short_name>
   <type>route</type>
  </address_component>
  <address_component>
   <long_name>Abergavenny</long_name>
   <short_name>Abergavenny</short_name>
   <type>postal_town</type>
  </address_component>
  <address_component>
   <long_name>United Kingdom</long_name>
   <short_name>GB</short_name>
   <type>country</type>
   <type>political</type>
  </address_component>
  <address_component>
   <long_name>NP7</long_name>
   <short_name>NP7</short_name>
   <type>postal_code</type>
   <type>postal_code_prefix</type>
  </address_component>
  <geometry>
   <location>
    <lat>51.7882053</lat>
    <lng>-3.2598743</lng>
   </location>
   <location_type>GEOMETRIC_CENTER</location_type>
   <viewport>
    <southwest>
     <lat>51.7350568</lat>
     <lng>-3.5043970</lng>
    </southwest>
    <northeast>
     <lat>51.8240392</lat>
     <lng>-3.0102409</lng>
    </northeast>
   </viewport>
   <bounds>
    <southwest>
     <lat>51.7350568</lat>
     <lng>-3.5043970</lng>
    </southwest>
    <northeast>
     <lat>51.8240392</lat>
     <lng>-3.0102409</lng>
    </northeast>
   </bounds>
  </geometry>
  <partial_match>true</partial_match>
  <place_id>ChIJRVsrILklbkgR8GFNr-rGboA</place_id>
 </result>
 <result>
  <type>route</type>
  <formatted_address>Wales Ave NW, Atlanta, GA 30318, USA</formatted_address>
  <address_component>
   <long_name>Wales Avenue Northwest</long_name>
   <short_name>Wales Ave NW</short_name>
   <type>route</type>
  </address_component>
  <address_component>
   <long_name>Whittier Mill Village</long_name>
   <short_name>Whittier Mill Village</short_name>
   <type>neighborhood</type>
   <type>political</type>
  </address_component>
  <address_component>
   <long_name>Atlanta</long_name>
   <short_name>Atlanta</short_name>
   <type>locality</type>
   <type>political</type>
  </address_component>
  <address_component>
   <long_name>Fulton County</long_name>
   <short_name>Fulton County</short_name>
   <type>administrative_area_level_2</type>
   <type>political</type>
  </address_component>
  <address_component>
   <long_name>Georgia</long_name>
   <short_name>GA</short_name>
   <type>administrative_area_level_1</type>
   <type>political</type>
  </address_component>
  <address_component>
   <long_name>United States</long_name>
   <short_name>US</short_name>
   <type>country</type>
   <type>political</type>
  </address_component>
  <address_component>
   <long_name>30318</long_name>
   <short_name>30318</short_name>
   <type>postal_code</type>
  </address_component>
  <geometry>
   <location>
    <lat>33.8107911</lat>
    <lng>-84.4838498</lng>
   </location>
   <location_type>GEOMETRIC_CENTER</location_type>
   <viewport>
    <southwest>
     <lat>33.8095361</lat>
     <lng>-84.4852840</lng>
    </southwest>
    <northeast>
     <lat>33.8122340</lat>
     <lng>-84.4825861</lng>
    </northeast>
   </viewport>
   <bounds>
    <southwest>
     <lat>33.8102601</lat>
     <lng>-84.4852181</lng>
    </southwest>
    <northeast>
     <lat>33.8115100</lat>
     <lng>-84.4826520</lng>
    </northeast>
   </bounds>
  </geometry>
  <partial_match>true</partial_match>
  <place_id>ChIJxysjXVQa9YgRfnZWL2d_8yA</place_id>
 </result>
 <result>
  <type>route</type>
  <formatted_address>Valley Dr, Waukesha, WI 53188, USA</formatted_address>
  <address_component>
   <long_name>Valley Drive</long_name>
   <short_name>Valley Dr</short_name>
   <type>route</type>
  </address_component>
  <address_component>
   <long_name>Waukesha</long_name>
   <short_name>Waukesha</short_name>
   <type>locality</type>
   <type>political</type>
  </address_component>
  <address_component>
   <long_name>Delafield</long_name>
   <short_name>Delafield</short_name>
   <type>administrative_area_level_3</type>
   <type>political</type>
  </address_component>
  <address_component>
   <long_name>Waukesha County</long_name>
   <short_name>Waukesha County</short_name>
   <type>administrative_area_level_2</type>
   <type>political</type>
  </address_component>
  <address_component>
   <long_name>Wisconsin</long_name>
   <short_name>WI</short_name>
   <type>administrative_area_level_1</type>
   <type>political</type>
  </address_component>
  <address_component>
   <long_name>United States</long_name>
   <short_name>US</short_name>
   <type>country</type>
   <type>political</type>
  </address_component>
  <address_component>
   <long_name>53188</long_name>
   <short_name>53188</short_name>
   <type>postal_code</type>
  </address_component>
  <geometry>
   <location>
    <lat>43.0406887</lat>
    <lng>-88.3140736</lng>
   </location>
   <location_type>GEOMETRIC_CENTER</location_type>
   <viewport>
    <southwest>
     <lat>43.0393260</lat>
     <lng>-88.3154453</lng>
    </southwest>
    <northeast>
     <lat>43.0420239</lat>
     <lng>-88.3127474</lng>
    </northeast>
   </viewport>
   <bounds>
    <southwest>
     <lat>43.0406612</lat>
     <lng>-88.3145306</lng>
    </southwest>
    <northeast>
     <lat>43.0406887</lat>
     <lng>-88.3136621</lng>
    </northeast>
   </bounds>
  </geometry>
  <partial_match>true</partial_match>
  <place_id>ChIJJRZp1M-vBYgRqJTJTEuTtcY</place_id>
 </result>
 <result>
  <type>route</type>
  <formatted_address>Lower Valley Rd, North Wales, PA 19454, USA</formatted_address>
  <address_component>
   <long_name>Lower Valley Road</long_name>
   <short_name>Lower Valley Rd</short_name>
   <type>route</type>
  </address_component>
  <address_component>
   <long_name>North Wales</long_name>
   <short_name>North Wales</short_name>
   <type>locality</type>
   <type>political</type>
  </address_component>
  <address_component>
   <long_name>Upper Gwynedd Township</long_name>
   <short_name>Upper Gwynedd Township</short_name>
   <type>administrative_area_level_3</type>
   <type>political</type>
  </address_component>
  <address_component>
   <long_name>Montgomery County</long_name>
   <short_name>Montgomery County</short_name>
   <type>administrative_area_level_2</type>
   <type>political</type>
  </address_component>
  <address_component>
   <long_name>Pennsylvania</long_name>
   <short_name>PA</short_name>
   <type>administrative_area_level_1</type>
   <type>political</type>
  </address_component>
  <address_component>
   <long_name>United States</long_name>
   <short_name>US</short_name>
   <type>country</type>
   <type>political</type>
  </address_component>
  <address_component>
   <long_name>19454</long_name>
   <short_name>19454</short_name>
   <type>postal_code</type>
  </address_component>
  <geometry>
   <location>
    <lat>40.2093506</lat>
    <lng>-75.2622578</lng>
   </location>
   <location_type>GEOMETRIC_CENTER</location_type>
   <viewport>
    <southwest>
     <lat>40.2066120</lat>
     <lng>-75.2664891</lng>
    </southwest>
    <northeast>
     <lat>40.2120053</lat>
     <lng>-75.2588903</lng>
    </northeast>
   </viewport>
   <bounds>
    <southwest>
     <lat>40.2066120</lat>
     <lng>-75.2664891</lng>
    </southwest>
    <northeast>
     <lat>40.2120053</lat>
     <lng>-75.2588903</lng>
    </northeast>
   </bounds>
  </geometry>
  <partial_match>true</partial_match>
  <place_id>ChIJcXx-43ajxokRPOjNEJ8GLnc</place_id>
 </result>
 <result>
  <type>route</type>
  <formatted_address>Upper Valley Rd, North Wales, PA 19454, USA</formatted_address>
  <address_component>
   <long_name>Upper Valley Road</long_name>
   <short_name>Upper Valley Rd</short_name>
   <type>route</type>
  </address_component>
  <address_component>
   <long_name>North Wales</long_name>
   <short_name>North Wales</short_name>
   <type>locality</type>
   <type>political</type>
  </address_component>
  <address_component>
   <long_name>Upper Gwynedd Township</long_name>
   <short_name>Upper Gwynedd Township</short_name>
   <type>administrative_area_level_3</type>
   <type>political</type>
  </address_component>
  <address_component>
   <long_name>Montgomery County</long_name>
   <short_name>Montgomery County</short_name>
   <type>administrative_area_level_2</type>
   <type>political</type>
  </address_component>
  <address_component>
   <long_name>Pennsylvania</long_name>
   <short_name>PA</short_name>
   <type>administrative_area_level_1</type>
   <type>political</type>
  </address_component>
  <address_component>
   <long_name>United States</long_name>
   <short_name>US</short_name>
   <type>country</type>
   <type>political</type>
  </address_component>
  <address_component>
   <long_name>19454</long_name>
   <short_name>19454</short_name>
   <type>postal_code</type>
  </address_component>
  <geometry>
   <location>
    <lat>40.2103869</lat>
    <lng>-75.2641843</lng>
   </location>
   <location_type>GEOMETRIC_CENTER</location_type>
   <viewport>
    <southwest>
     <lat>40.2065318</lat>
     <lng>-75.2680836</lng>
    </southwest>
    <northeast>
     <lat>40.2133163</lat>
     <lng>-75.2617869</lng>
    </northeast>
   </viewport>
   <bounds>
    <southwest>
     <lat>40.2065318</lat>
     <lng>-75.2680836</lng>
    </southwest>
    <northeast>
     <lat>40.2133163</lat>
     <lng>-75.2617869</lng>
    </northeast>
   </bounds>
  </geometry>
  <partial_match>true</partial_match>
  <place_id>ChIJeR60m3ajxokRDHItdBy1L-o</place_id>
 </result>
 <result>
  <type>premise</type>
  <formatted_address>The Valley, Valley Rd, Saundersfoot, Pembrokeshire SA69 9BX, UK</formatted_address>
  <address_component>
   <long_name>The Valley</long_name>
   <short_name>The Valley</short_name>
   <type>premise</type>
  </address_component>
  <address_component>
   <long_name>Valley Road</long_name>
   <short_name>Valley Rd</short_name>
   <type>route</type>
  </address_component>
  <address_component>
   <long_name>Saundersfoot</long_name>
   <short_name>Saundersfoot</short_name>
   <type>locality</type>
   <type>political</type>
  </address_component>
  <address_component>
   <long_name>Saundersfoot</long_name>
   <short_name>Saundersfoot</short_name>
   <type>postal_town</type>
  </address_component>
  <address_component>
   <long_name>Pembrokeshire</long_name>
   <short_name>Pembrokeshire</short_name>
   <type>administrative_area_level_2</type>
   <type>political</type>
  </address_component>
  <address_component>
   <long_name>United Kingdom</long_name>
   <short_name>GB</short_name>
   <type>country</type>
   <type>political</type>
  </address_component>
  <address_component>
   <long_name>SA69 9BX</long_name>
   <short_name>SA69 9BX</short_name>
   <type>postal_code</type>
  </address_component>
  <geometry>
   <location>
    <lat>51.7153127</lat>
    <lng>-4.7210407</lng>
   </location>
   <location_type>ROOFTOP</location_type>
   <viewport>
    <southwest>
     <lat>51.7139637</lat>
     <lng>-4.7223897</lng>
    </southwest>
    <northeast>
     <lat>51.7166617</lat>
     <lng>-4.7196917</lng>
    </northeast>
   </viewport>
  </geometry>
  <partial_match>true</partial_match>
  <place_id>ChIJVVqQCuLMbkgRui6pyVGsnzw</place_id>
 </result>
 <result>
  <type>route</type>
  <formatted_address>Valley Way, Llansamlet, Swansea, Swansea SA6, UK</formatted_address>
  <address_component>
   <long_name>Valley Way</long_name>
   <short_name>Valley Way</short_name>
   <type>route</type>
  </address_component>
  <address_component>
   <long_name>Llansamlet</long_name>
   <short_name>Llansamlet</short_name>
   <type>locality</type>
   <type>political</type>
  </address_component>
  <address_component>
   <long_name>Swansea</long_name>
   <short_name>Swansea</short_name>
   <type>postal_town</type>
  </address_component>
  <address_component>
   <long_name>Swansea</long_name>
   <short_name>Swansea</short_name>
   <type>administrative_area_level_2</type>
   <type>political</type>
  </address_component>
  <address_component>
   <long_name>United Kingdom</long_name>
   <short_name>GB</short_name>
   <type>country</type>
   <type>political</type>
  </address_component>
  <address_component>
   <long_name>SA6</long_name>
   <short_name>SA6</short_name>
   <type>postal_code</type>
   <type>postal_code_prefix</type>
  </address_component>
  <geometry>
   <location>
    <lat>51.6562566</lat>
    <lng>-3.9153007</lng>
   </location>
   <location_type>GEOMETRIC_CENTER</location_type>
   <viewport>
    <southwest>
     <lat>51.6506152</lat>
     <lng>-3.9198040</lng>
    </southwest>
    <northeast>
     <lat>51.6623744</lat>
     <lng>-3.9115079</lng>
    </northeast>
   </viewport>
   <bounds>
    <southwest>
     <lat>51.6506152</lat>
     <lng>-3.9198040</lng>
    </southwest>
    <northeast>
     <lat>51.6623744</lat>
     <lng>-3.9115079</lng>
    </northeast>
   </bounds>
  </geometry>
  <partial_match>true</partial_match>
  <place_id>ChIJyQrh6YNfbkgRI5D9tdvmI6c</place_id>
 </result>
 <result>
  <type>route</type>
  <formatted_address>Valley Rd, Llanfairfechan, Conwy LL33, UK</formatted_address>
  <address_component>
   <long_name>Valley Road</long_name>
   <short_name>Valley Rd</short_name>
   <type>route</type>
  </address_component>
  <address_component>
   <long_name>Llanfairfechan</long_name>
   <short_name>Llanfairfechan</short_name>
   <type>postal_town</type>
  </address_component>
  <address_component>
   <long_name>Conwy</long_name>
   <short_name>Conwy</short_name>
   <type>administrative_area_level_2</type>
   <type>political</type>
  </address_component>
  <address_component>
   <long_name>United Kingdom</long_name>
   <short_name>GB</short_name>
   <type>country</type>
   <type>political</type>
  </address_component>
  <address_component>
   <long_name>LL33</long_name>
   <short_name>LL33</short_name>
   <type>postal_code</type>
   <type>postal_code_prefix</type>
  </address_component>
  <geometry>
   <location>
    <lat>53.2467234</lat>
    <lng>-3.9604624</lng>
   </location>
   <location_type>GEOMETRIC_CENTER</location_type>
   <viewport>
    <southwest>
     <lat>53.2418216</lat>
     <lng>-3.9720744</lng>
    </southwest>
    <northeast>
     <lat>53.2518904</lat>
     <lng>-3.9507339</lng>
    </northeast>
   </viewport>
   <bounds>
    <southwest>
     <lat>53.2418216</lat>
     <lng>-3.9720744</lng>
    </southwest>
    <northeast>
     <lat>53.2518904</lat>
     <lng>-3.9507339</lng>
    </northeast>
   </bounds>
  </geometry>
  <partial_match>true</partial_match>
  <place_id>ChIJO0d_iVwDZUgRIML7_ZpRdv0</place_id>
 </result>
 <result>
  <type>bus_station</type>
  <type>establishment</type>
  <type>point_of_interest</type>
  <type>transit_station</type>
  <formatted_address>The Valley, Bishopston, Swansea, Swansea SA3, UK</formatted_address>
  <address_component>
   <long_name>The Valley</long_name>
   <short_name>The Valley</short_name>
   <type>establishment</type>
   <type>point_of_interest</type>
  </address_component>
  <address_component>
   <long_name>Bishopston</long_name>
   <short_name>Bishopston</short_name>
   <type>locality</type>
   <type>political</type>
  </address_component>
  <address_component>
   <long_name>Swansea</long_name>
   <short_name>Swansea</short_name>
   <type>postal_town</type>
  </address_component>
  <address_component>
   <long_name>Swansea</long_name>
   <short_name>Swansea</short_name>
   <type>administrative_area_level_2</type>
   <type>political</type>
  </address_component>
  <address_component>
   <long_name>United Kingdom</long_name>
   <short_name>GB</short_name>
   <type>country</type>
   <type>political</type>
  </address_component>
  <address_component>
   <long_name>SA3</long_name>
   <short_name>SA3</short_name>
   <type>postal_code</type>
   <type>postal_code_prefix</type>
  </address_component>
  <geometry>
   <location>
    <lat>51.5831910</lat>
    <lng>-4.0524230</lng>
   </location>
   <location_type>APPROXIMATE</location_type>
   <viewport>
    <southwest>
     <lat>51.5818420</lat>
     <lng>-4.0537720</lng>
    </southwest>
    <northeast>
     <lat>51.5845400</lat>
     <lng>-4.0510740</lng>
    </northeast>
   </viewport>
  </geometry>
  <partial_match>true</partial_match>
  <place_id>ChIJHfqE9O-MbkgRCyWILhaepxU</place_id>
 </result>
</GeocodeResponse>
