<?xml version="1.0" encoding="UTF-8"?>
<GeocodeResponse>
 <status>OK</status>
 <result>
  <type>locality</type>
  <type>political</type>
  <formatted_address>Copenhagen, Denmark</formatted_address>
  <address_component>
   <long_name>Copenhagen</long_name>
   <short_name>Copenhagen</short_name>
   <type>locality</type>
   <type>political</type>
  </address_component>
  <address_component>
   <long_name>København</long_name>
   <short_name>København</short_name>
   <type>administrative_area_level_2</type>
   <type>political</type>
  </address_component>
  <address_component>
   <long_name>Capital Region of Denmark</long_name>
   <short_name>Capital Region of Denmark</short_name>
   <type>administrative_area_level_1</type>
   <type>political</type>
  </address_component>
  <address_component>
   <long_name>Denmark</long_name>
   <short_name>DK</short_name>
   <type>country</type>
   <type>political</type>
  </address_component>
  <geometry>
   <location>
    <lat>55.6760968</lat>
    <lng>12.5683371</lng>
   </location>
   <location_type>APPROXIMATE</location_type>
   <viewport>
    <southwest>
     <lat>55.6154410</lat>
     <lng>12.4533824</lng>
    </southwest>
    <northeast>
     <lat>55.7270936</lat>
     <lng>12.6682952</lng>
    </northeast>
   </viewport>
   <bounds>
    <southwest>
     <lat>55.6154410</lat>
     <lng>12.4533824</lng>
    </southwest>
    <northeast>
     <lat>55.7270936</lat>
     <lng>12.7342654</lng>
    </northeast>
   </bounds>
  </geometry>
  <partial_match>true</partial_match>
  <place_id>ChIJIz2AXDxTUkYRuGeU5t1-3QQ</place_id>
 </result>
 <result>
  <type>locality</type>
  <type>political</type>
  <formatted_address>Frederiksberg, Denmark</formatted_address>
  <address_component>
   <long_name>Frederiksberg</long_name>
   <short_name>Frederiksberg</short_name>
   <type>locality</type>
   <type>political</type>
  </address_component>
  <address_component>
   <long_name>Frederiksberg Municipality</long_name>
   <short_name>Frederiksberg Municipality</short_name>
   <type>administrative_area_level_2</type>
   <type>political</type>
  </address_component>
  <address_component>
   <long_name>Capital Region of Denmark</long_name>
   <short_name>Capital Region of Denmark</short_name>
   <type>administrative_area_level_1</type>
   <type>political</type>
  </address_component>
  <address_component>
   <long_name>Denmark</long_name>
   <short_name>DK</short_name>
   <type>country</type>
   <type>political</type>
  </address_component>
  <geometry>
   <location>
    <lat>55.6770690</lat>
    <lng>12.5133210</lng>
   </location>
   <location_type>APPROXIMATE</location_type>
   <viewport>
    <southwest>
     <lat>55.6663760</lat>
     <lng>12.4917669</lng>
    </southwest>
    <northeast>
     <lat>55.6980110</lat>
     <lng>12.5577998</lng>
    </northeast>
   </viewport>
   <bounds>
    <southwest>
     <lat>55.6663760</lat>
     <lng>12.4917669</lng>
    </southwest>
    <northeast>
     <lat>55.6980110</lat>
     <lng>12.5577998</lng>
    </northeast>
   </bounds>
  </geometry>
  <partial_match>true</partial_match>
  <place_id>ChIJ7UnGKblTUkYRgn6BT-jcH70</place_id>
 </result>
</GeocodeResponse>
