<?xml version="1.0" encoding="UTF-8"?>
<GeocodeResponse>
 <status>OK</status>
 <result>
  <type>route</type>
  <formatted_address>Doğanevler Mahallesi, 4. Doğu Sk., 16250 Osmangazi/Bursa, Turkey</formatted_address>
  <address_component>
   <long_name>4. Doğu Sokak</long_name>
   <short_name>4. Doğu Sk.</short_name>
   <type>route</type>
  </address_component>
  <address_component>
   <long_name>Doğanevler Mahallesi</long_name>
   <short_name>Doğanevler Mahallesi</short_name>
   <type>administrative_area_level_4</type>
   <type>political</type>
  </address_component>
  <address_component>
   <long_name>Osmangazi</long_name>
   <short_name>Osmangazi</short_name>
   <type>administrative_area_level_2</type>
   <type>political</type>
  </address_component>
  <address_component>
   <long_name>Bursa</long_name>
   <short_name>Bursa</short_name>
   <type>administrative_area_level_1</type>
   <type>political</type>
  </address_component>
  <address_component>
   <long_name>Turkey</long_name>
   <short_name>TR</short_name>
   <type>country</type>
   <type>political</type>
  </address_component>
  <address_component>
   <long_name>16250</long_name>
   <short_name>16250</short_name>
   <type>postal_code</type>
  </address_component>
  <geometry>
   <location>
    <lat>40.2414536</lat>
    <lng>29.0817649</lng>
   </location>
   <location_type>GEOMETRIC_CENTER</location_type>
   <viewport>
    <southwest>
     <lat>40.2402384</lat>
     <lng>29.0804801</lng>
    </southwest>
    <northeast>
     <lat>40.2429363</lat>
     <lng>29.0831780</lng>
    </northeast>
   </viewport>
   <bounds>
    <southwest>
     <lat>40.2408437</lat>
     <lng>29.0814513</lng>
    </southwest>
    <northeast>
     <lat>40.2423310</lat>
     <lng>29.0822068</lng>
    </northeast>
   </bounds>
  </geometry>
  <partial_match>true</partial_match>
  <place_id>ChIJY6SJw5k_yhQRjE7KcTelvxY</place_id>
 </result>
 <result>
  <type>route</type>
  <formatted_address>Dikkaldırım Mahallesi, 5. Doğu Sk., 16090 Osmangazi/Bursa, Turkey</formatted_address>
  <address_component>
   <long_name>5. Doğu Sokak</long_name>
   <short_name>5. Doğu Sk.</short_name>
   <type>route</type>
  </address_component>
  <address_component>
   <long_name>Dikkaldırım Mahallesi</long_name>
   <short_name>Dikkaldırım Mahallesi</short_name>
   <type>administrative_area_level_4</type>
   <type>political</type>
  </address_component>
  <address_component>
   <long_name>Yiğitali Mahallesi</long_name>
   <short_name>Yiğitali Mahallesi</short_name>
   <type>administrative_area_level_4</type>
   <type>political</type>
  </address_component>
  <address_component>
   <long_name>Osmangazi</long_name>
   <short_name>Osmangazi</short_name>
   <type>administrative_area_level_2</type>
   <type>political</type>
  </address_component>
  <address_component>
   <long_name>Bursa</long_name>
   <short_name>Bursa</short_name>
   <type>administrative_area_level_1</type>
   <type>political</type>
  </address_component>
  <address_component>
   <long_name>Turkey</long_name>
   <short_name>TR</short_name>
   <type>country</type>
   <type>political</type>
  </address_component>
  <address_component>
   <long_name>16090</long_name>
   <short_name>16090</short_name>
   <type>postal_code</type>
  </address_component>
  <geometry>
   <location>
    <lat>40.2055105</lat>
    <lng>29.0125102</lng>
   </location>
   <location_type>GEOMETRIC_CENTER</location_type>
   <viewport>
    <southwest>
     <lat>40.2041458</lat>
     <lng>29.0109721</lng>
    </southwest>
    <northeast>
     <lat>40.2068437</lat>
     <lng>29.0136700</lng>
    </northeast>
   </viewport>
   <bounds>
    <southwest>
     <lat>40.2052584</lat>
     <lng>29.0113035</lng>
    </southwest>
    <northeast>
     <lat>40.2057311</lat>
     <lng>29.0133386</lng>
    </northeast>
   </bounds>
  </geometry>
  <partial_match>true</partial_match>
  <place_id>ChIJUdmK9NkVyhQRINEk3uUvNRc</place_id>
 </result>
 <result>
  <type>route</type>
  <formatted_address>Hüdavendigar Mahallesi, Marmara Sk., 16090 Osmangazi/Bursa, Turkey</formatted_address>
  <address_component>
   <long_name>Marmara Sokak</long_name>
   <short_name>Marmara Sk.</short_name>
   <type>route</type>
  </address_component>
  <address_component>
   <long_name>Yiğitali Mahallesi</long_name>
   <short_name>Yiğitali Mahallesi</short_name>
   <type>administrative_area_level_4</type>
   <type>political</type>
  </address_component>
  <address_component>
   <long_name>Hüdavendigar Mahallesi</long_name>
   <short_name>Hüdavendigar Mahallesi</short_name>
   <type>administrative_area_level_4</type>
   <type>political</type>
  </address_component>
  <address_component>
   <long_name>Osmangazi</long_name>
   <short_name>Osmangazi</short_name>
   <type>administrative_area_level_2</type>
   <type>political</type>
  </address_component>
  <address_component>
   <long_name>Bursa</long_name>
   <short_name>Bursa</short_name>
   <type>administrative_area_level_1</type>
   <type>political</type>
  </address_component>
  <address_component>
   <long_name>Turkey</long_name>
   <short_name>TR</short_name>
   <type>country</type>
   <type>political</type>
  </address_component>
  <address_component>
   <long_name>16090</long_name>
   <short_name>16090</short_name>
   <type>postal_code</type>
  </address_component>
  <geometry>
   <location>
    <lat>40.2036270</lat>
    <lng>29.0138330</lng>
   </location>
   <location_type>GEOMETRIC_CENTER</location_type>
   <viewport>
    <southwest>
     <lat>40.2022570</lat>
     <lng>29.0124560</lng>
    </southwest>
    <northeast>
     <lat>40.2049550</lat>
     <lng>29.0151540</lng>
    </northeast>
   </viewport>
   <bounds>
    <southwest>
     <lat>40.2034140</lat>
     <lng>29.0134470</lng>
    </southwest>
    <northeast>
     <lat>40.2037980</lat>
     <lng>29.0141630</lng>
    </northeast>
   </bounds>
  </geometry>
  <partial_match>true</partial_match>
  <place_id>ChIJDavUp9kVyhQRAjYA9KjYxwM</place_id>
 </result>
 <result>
  <type>route</type>
  <formatted_address>Yeni Mahallesi, Doğu Sk., 16450 Kestel/Bursa, Turkey</formatted_address>
  <address_component>
   <long_name>Doğu Sokak</long_name>
   <short_name>Doğu Sk.</short_name>
   <type>route</type>
  </address_component>
  <address_component>
   <long_name>Yeni Mahallesi</long_name>
   <short_name>Yeni Mahallesi</short_name>
   <type>administrative_area_level_4</type>
   <type>political</type>
  </address_component>
  <address_component>
   <long_name>Kestel</long_name>
   <short_name>Kestel</short_name>
   <type>administrative_area_level_2</type>
   <type>political</type>
  </address_component>
  <address_component>
   <long_name>Bursa</long_name>
   <short_name>Bursa</short_name>
   <type>administrative_area_level_1</type>
   <type>political</type>
  </address_component>
  <address_component>
   <long_name>Turkey</long_name>
   <short_name>TR</short_name>
   <type>country</type>
   <type>political</type>
  </address_component>
  <address_component>
   <long_name>16450</long_name>
   <short_name>16450</short_name>
   <type>postal_code</type>
  </address_component>
  <geometry>
   <location>
    <lat>40.1878760</lat>
    <lng>29.1963420</lng>
   </location>
   <location_type>GEOMETRIC_CENTER</location_type>
   <viewport>
    <southwest>
     <lat>40.1865328</lat>
     <lng>29.1950015</lng>
    </southwest>
    <northeast>
     <lat>40.1892308</lat>
     <lng>29.1976994</lng>
    </northeast>
   </viewport>
   <bounds>
    <southwest>
     <lat>40.1877191</lat>
     <lng>29.1952041</lng>
    </southwest>
    <northeast>
     <lat>40.1880445</lat>
     <lng>29.1974968</lng>
    </northeast>
   </bounds>
  </geometry>
  <partial_match>true</partial_match>
  <place_id>ChIJXS-YTa05yhQROgjkQ_VUoCE</place_id>
 </result>
 <result>
  <type>route</type>
  <formatted_address>Değirmenönü Mahallesi, 6. Doğu Sk., 16300 Yıldırım/Bursa, Turkey</formatted_address>
  <address_component>
   <long_name>6. Doğu Sokak</long_name>
   <short_name>6. Doğu Sk.</short_name>
   <type>route</type>
  </address_component>
  <address_component>
   <long_name>Değirmenönü Mahallesi</long_name>
   <short_name>Değirmenönü Mahallesi</short_name>
   <type>administrative_area_level_4</type>
   <type>political</type>
  </address_component>
  <address_component>
   <long_name>Yıldırım</long_name>
   <short_name>Yıldırım</short_name>
   <type>administrative_area_level_2</type>
   <type>political</type>
  </address_component>
  <address_component>
   <long_name>Bursa</long_name>
   <short_name>Bursa</short_name>
   <type>administrative_area_level_1</type>
   <type>political</type>
  </address_component>
  <address_component>
   <long_name>Turkey</long_name>
   <short_name>TR</short_name>
   <type>country</type>
   <type>political</type>
  </address_component>
  <address_component>
   <long_name>16300</long_name>
   <short_name>16300</short_name>
   <type>postal_code</type>
  </address_component>
  <geometry>
   <location>
    <lat>40.1886649</lat>
    <lng>29.1823563</lng>
   </location>
   <location_type>GEOMETRIC_CENTER</location_type>
   <viewport>
    <southwest>
     <lat>40.1867998</lat>
     <lng>29.1803673</lng>
    </southwest>
    <northeast>
     <lat>40.1894977</lat>
     <lng>29.1830653</lng>
    </northeast>
   </viewport>
   <bounds>
    <southwest>
     <lat>40.1876326</lat>
     <lng>29.1810763</lng>
    </southwest>
    <northeast>
     <lat>40.1886649</lat>
     <lng>29.1823563</lng>
    </northeast>
   </bounds>
  </geometry>
  <partial_match>true</partial_match>
  <place_id>ChIJjfBNOgE5yhQRvTsEPXVDYq4</place_id>
 </result>
</GeocodeResponse>
