<?xml version="1.0" encoding="UTF-8"?>
<GeocodeResponse>
 <status>OK</status>
 <result>
  <type>route</type>
  <formatted_address>Umbría, Centro, Chipilo de Francisco Javier Mina, Pue., Mexico</formatted_address>
  <address_component>
   <long_name>Umbría</long_name>
   <short_name>Umbría</short_name>
   <type>route</type>
  </address_component>
  <address_component>
   <long_name>Centro</long_name>
   <short_name>Centro</short_name>
   <type>political</type>
   <type>sublocality</type>
   <type>sublocality_level_1</type>
  </address_component>
  <address_component>
   <long_name>Chipilo de Francisco Javier Mina</long_name>
   <short_name>Chipilo de Francisco Javier Mina</short_name>
   <type>locality</type>
   <type>political</type>
  </address_component>
  <address_component>
   <long_name>San Gregorio Atzompa</long_name>
   <short_name>San Gregorio Atzompa</short_name>
   <type>administrative_area_level_2</type>
   <type>political</type>
  </address_component>
  <address_component>
   <long_name>Puebla</long_name>
   <short_name>Pue.</short_name>
   <type>administrative_area_level_1</type>
   <type>political</type>
  </address_component>
  <address_component>
   <long_name>Mexico</long_name>
   <short_name>MX</short_name>
   <type>country</type>
   <type>political</type>
  </address_component>
  <geometry>
   <location>
    <lat>19.0185230</lat>
    <lng>-98.3328870</lng>
   </location>
   <location_type>GEOMETRIC_CENTER</location_type>
   <viewport>
    <southwest>
     <lat>19.0171861</lat>
     <lng>-98.3342533</lng>
    </southwest>
    <northeast>
     <lat>19.0198840</lat>
     <lng>-98.3315554</lng>
    </northeast>
   </viewport>
   <bounds>
    <southwest>
     <lat>19.0176830</lat>
     <lng>-98.3335147</lng>
    </southwest>
    <northeast>
     <lat>19.0193871</lat>
     <lng>-98.3322940</lng>
    </northeast>
   </bounds>
  </geometry>
  <place_id>ChIJzYg-ZT7Iz4URKI7cehFqzs4</place_id>
 </result>
</GeocodeResponse>
