<?xml version="1.0" encoding="UTF-8"?>
<GeocodeResponse>
 <status>OK</status>
 <result>
  <type>locality</type>
  <type>political</type>
  <formatted_address>Aalst, Belgium</formatted_address>
  <address_component>
   <long_name>Aalst</long_name>
   <short_name>Aalst</short_name>
   <type>locality</type>
   <type>political</type>
  </address_component>
  <address_component>
   <long_name>East Flanders</long_name>
   <short_name>OV</short_name>
   <type>administrative_area_level_2</type>
   <type>political</type>
  </address_component>
  <address_component>
   <long_name>Flanders</long_name>
   <short_name>Flanders</short_name>
   <type>administrative_area_level_1</type>
   <type>political</type>
  </address_component>
  <address_component>
   <long_name>Belgium</long_name>
   <short_name>BE</short_name>
   <type>country</type>
   <type>political</type>
  </address_component>
  <geometry>
   <location>
    <lat>50.9378101</lat>
    <lng>4.0409517</lng>
   </location>
   <location_type>APPROXIMATE</location_type>
   <viewport>
    <southwest>
     <lat>50.8993500</lat>
     <lng>3.9823401</lng>
    </southwest>
    <northeast>
     <lat>50.9948400</lat>
     <lng>4.1638800</lng>
    </northeast>
   </viewport>
   <bounds>
    <southwest>
     <lat>50.8993500</lat>
     <lng>3.9823401</lng>
    </southwest>
    <northeast>
     <lat>50.9948400</lat>
     <lng>4.1638800</lng>
    </northeast>
   </bounds>
  </geometry>
  <partial_match>true</partial_match>
  <place_id>ChIJSUnEU9OXw0cRIExNL6uZAAQ</place_id>
 </result>
 <result>
  <type>political</type>
  <type>sublocality</type>
  <type>sublocality_level_1</type>
  <formatted_address>Aalst, 9300 Aalst, Belgium</formatted_address>
  <address_component>
   <long_name>Aalst</long_name>
   <short_name>Aalst</short_name>
   <type>political</type>
   <type>sublocality</type>
   <type>sublocality_level_1</type>
  </address_component>
  <address_component>
   <long_name>Aalst</long_name>
   <short_name>Aalst</short_name>
   <type>locality</type>
   <type>political</type>
  </address_component>
  <address_component>
   <long_name>Oost-Vlaanderen</long_name>
   <short_name>OV</short_name>
   <type>administrative_area_level_2</type>
   <type>political</type>
  </address_component>
  <address_component>
   <long_name>Vlaanderen</long_name>
   <short_name>Vlaanderen</short_name>
   <type>administrative_area_level_1</type>
   <type>political</type>
  </address_component>
  <address_component>
   <long_name>Belgium</long_name>
   <short_name>BE</short_name>
   <type>country</type>
   <type>political</type>
  </address_component>
  <address_component>
   <long_name>9300</long_name>
   <short_name>9300</short_name>
   <type>postal_code</type>
  </address_component>
  <geometry>
   <location>
    <lat>50.9377930</lat>
    <lng>4.0409133</lng>
   </location>
   <location_type>APPROXIMATE</location_type>
   <viewport>
    <southwest>
     <lat>50.9364440</lat>
     <lng>4.0395643</lng>
    </southwest>
    <northeast>
     <lat>50.9391420</lat>
     <lng>4.0422623</lng>
    </northeast>
   </viewport>
  </geometry>
  <partial_match>true</partial_match>
  <place_id>ChIJiwF4LuCXw0cRZbsEmzDkzfA</place_id>
 </result>
</GeocodeResponse>
