<?xml version="1.0" encoding="UTF-8"?>
<GeocodeResponse>
 <status>OK</status>
 <result>
  <type>locality</type>
  <type>political</type>
  <formatted_address>Roth, Germany</formatted_address>
  <address_component>
   <long_name>Roth</long_name>
   <short_name>Roth</short_name>
   <type>locality</type>
   <type>political</type>
  </address_component>
  <address_component>
   <long_name>Roth</long_name>
   <short_name>Roth</short_name>
   <type>administrative_area_level_3</type>
   <type>political</type>
  </address_component>
  <address_component>
   <long_name>Middle Franconia</long_name>
   <short_name>Middle Franconia</short_name>
   <type>administrative_area_level_2</type>
   <type>political</type>
  </address_component>
  <address_component>
   <long_name>Bavaria</long_name>
   <short_name>BY</short_name>
   <type>administrative_area_level_1</type>
   <type>political</type>
  </address_component>
  <address_component>
   <long_name>Germany</long_name>
   <short_name>DE</short_name>
   <type>country</type>
   <type>political</type>
  </address_component>
  <geometry>
   <location>
    <lat>49.2456337</lat>
    <lng>11.0911607</lng>
   </location>
   <location_type>APPROXIMATE</location_type>
   <viewport>
    <southwest>
     <lat>49.1758608</lat>
     <lng>11.0314861</lng>
    </southwest>
    <northeast>
     <lat>49.2978778</lat>
     <lng>11.2164660</lng>
    </northeast>
   </viewport>
   <bounds>
    <southwest>
     <lat>49.1758608</lat>
     <lng>11.0314861</lng>
    </southwest>
    <northeast>
     <lat>49.2978778</lat>
     <lng>11.2164660</lng>
    </northeast>
   </bounds>
  </geometry>
  <place_id>ChIJjTUkcB1En0cRgAe2vjLaHgQ</place_id>
 </result>
 <result>
  <type>locality</type>
  <type>political</type>
  <formatted_address>Roth, IL 62962, USA</formatted_address>
  <address_component>
   <long_name>Roth</long_name>
   <short_name>Roth</short_name>
   <type>locality</type>
   <type>political</type>
  </address_component>
  <address_component>
   <long_name>Cache Precinct</long_name>
   <short_name>Cache Precinct</short_name>
   <type>administrative_area_level_3</type>
   <type>political</type>
  </address_component>
  <address_component>
   <long_name>Alexander County</long_name>
   <short_name>Alexander County</short_name>
   <type>administrative_area_level_2</type>
   <type>political</type>
  </address_component>
  <address_component>
   <long_name>Illinois</long_name>
   <short_name>IL</short_name>
   <type>administrative_area_level_1</type>
   <type>political</type>
  </address_component>
  <address_component>
   <long_name>United States</long_name>
   <short_name>US</short_name>
   <type>country</type>
   <type>political</type>
  </address_component>
  <address_component>
   <long_name>62962</long_name>
   <short_name>62962</short_name>
   <type>postal_code</type>
  </address_component>
  <geometry>
   <location>
    <lat>37.0976910</lat>
    <lng>-89.3062060</lng>
   </location>
   <location_type>APPROXIMATE</location_type>
   <viewport>
    <southwest>
     <lat>37.0963420</lat>
     <lng>-89.3075550</lng>
    </southwest>
    <northeast>
     <lat>37.0990400</lat>
     <lng>-89.3048570</lng>
    </northeast>
   </viewport>
  </geometry>
  <place_id>ChIJtfqC0mvOeYgROuM8WM71pv8</place_id>
 </result>
 <result>
  <type>airport</type>
  <type>establishment</type>
  <type>point_of_interest</type>
  <formatted_address>Roth Airport, Milford, NE 68405, USA</formatted_address>
  <address_component>
   <long_name>Roth Airport</long_name>
   <short_name>Roth Airport</short_name>
   <type>establishment</type>
   <type>point_of_interest</type>
  </address_component>
  <address_component>
   <long_name>Milford</long_name>
   <short_name>Milford</short_name>
   <type>locality</type>
   <type>political</type>
  </address_component>
  <address_component>
   <long_name>O</long_name>
   <short_name>O</short_name>
   <type>administrative_area_level_3</type>
   <type>political</type>
  </address_component>
  <address_component>
   <long_name>Seward County</long_name>
   <short_name>Seward County</short_name>
   <type>administrative_area_level_2</type>
   <type>political</type>
  </address_component>
  <address_component>
   <long_name>Nebraska</long_name>
   <short_name>NE</short_name>
   <type>administrative_area_level_1</type>
   <type>political</type>
  </address_component>
  <address_component>
   <long_name>United States</long_name>
   <short_name>US</short_name>
   <type>country</type>
   <type>political</type>
  </address_component>
  <address_component>
   <long_name>68405</long_name>
   <short_name>68405</short_name>
   <type>postal_code</type>
  </address_component>
  <geometry>
   <location>
    <lat>40.7669508</lat>
    <lng>-97.0778124</lng>
   </location>
   <location_type>APPROXIMATE</location_type>
   <viewport>
    <southwest>
     <lat>40.7656018</lat>
     <lng>-97.0791614</lng>
    </southwest>
    <northeast>
     <lat>40.7682998</lat>
     <lng>-97.0764634</lng>
    </northeast>
   </viewport>
  </geometry>
  <place_id>ChIJ66OW4ZPflocRByaiubMn6ak</place_id>
 </result>
 <result>
  <type>locality</type>
  <type>political</type>
  <formatted_address>Roth, Germany</formatted_address>
  <address_component>
   <long_name>Roth</long_name>
   <short_name>Roth</short_name>
   <type>locality</type>
   <type>political</type>
  </address_component>
  <address_component>
   <long_name>Landkreis Altenkirchen (Westerwald)</long_name>
   <short_name>Landkreis Altenkirchen (Westerwald)</short_name>
   <type>administrative_area_level_3</type>
   <type>political</type>
  </address_component>
  <address_component>
   <long_name>Rhineland-Palatinate</long_name>
   <short_name>RP</short_name>
   <type>administrative_area_level_1</type>
   <type>political</type>
  </address_component>
  <address_component>
   <long_name>Germany</long_name>
   <short_name>DE</short_name>
   <type>country</type>
   <type>political</type>
  </address_component>
  <geometry>
   <location>
    <lat>50.7626390</lat>
    <lng>7.7002773</lng>
   </location>
   <location_type>APPROXIMATE</location_type>
   <viewport>
    <southwest>
     <lat>50.7493596</lat>
     <lng>7.6858624</lng>
    </southwest>
    <northeast>
     <lat>50.7737653</lat>
     <lng>7.7243468</lng>
    </northeast>
   </viewport>
   <bounds>
    <southwest>
     <lat>50.7493596</lat>
     <lng>7.6858624</lng>
    </southwest>
    <northeast>
     <lat>50.7737653</lat>
     <lng>7.7243468</lng>
    </northeast>
   </bounds>
  </geometry>
  <place_id>ChIJ-Y9BJKaivkcRUMvaENXUIgQ</place_id>
 </result>
 <result>
  <type>route</type>
  <formatted_address>Roth, Botkins, OH 45306, USA</formatted_address>
  <address_component>
   <long_name>Roth</long_name>
   <short_name>Roth</short_name>
   <type>route</type>
  </address_component>
  <address_component>
   <long_name>Botkins</long_name>
   <short_name>Botkins</short_name>
   <type>locality</type>
   <type>political</type>
  </address_component>
  <address_component>
   <long_name>Dinsmore Township</long_name>
   <short_name>Dinsmore Township</short_name>
   <type>administrative_area_level_3</type>
   <type>political</type>
  </address_component>
  <address_component>
   <long_name>Shelby County</long_name>
   <short_name>Shelby County</short_name>
   <type>administrative_area_level_2</type>
   <type>political</type>
  </address_component>
  <address_component>
   <long_name>Ohio</long_name>
   <short_name>OH</short_name>
   <type>administrative_area_level_1</type>
   <type>political</type>
  </address_component>
  <address_component>
   <long_name>United States</long_name>
   <short_name>US</short_name>
   <type>country</type>
   <type>political</type>
  </address_component>
  <address_component>
   <long_name>45306</long_name>
   <short_name>45306</short_name>
   <type>postal_code</type>
  </address_component>
  <geometry>
   <location>
    <lat>40.4695158</lat>
    <lng>-84.1844697</lng>
   </location>
   <location_type>GEOMETRIC_CENTER</location_type>
   <viewport>
    <southwest>
     <lat>40.4677479</lat>
     <lng>-84.1859347</lng>
    </southwest>
    <northeast>
     <lat>40.4707368</lat>
     <lng>-84.1832367</lng>
    </northeast>
   </viewport>
   <bounds>
    <southwest>
     <lat>40.4677479</lat>
     <lng>-84.1848091</lng>
    </southwest>
    <northeast>
     <lat>40.4707368</lat>
     <lng>-84.1843623</lng>
    </northeast>
   </bounds>
  </geometry>
  <place_id>ChIJp3uW7B8CP4gRe_qEioMH14s</place_id>
 </result>
 <result>
  <type>route</type>
  <formatted_address>Roth, Skanee, MI 49962, USA</formatted_address>
  <address_component>
   <long_name>Roth</long_name>
   <short_name>Roth</short_name>
   <type>route</type>
  </address_component>
  <address_component>
   <long_name>Skanee</long_name>
   <short_name>Skanee</short_name>
   <type>locality</type>
   <type>political</type>
  </address_component>
  <address_component>
   <long_name>Arvon Township</long_name>
   <short_name>Arvon Township</short_name>
   <type>administrative_area_level_3</type>
   <type>political</type>
  </address_component>
  <address_component>
   <long_name>Baraga County</long_name>
   <short_name>Baraga County</short_name>
   <type>administrative_area_level_2</type>
   <type>political</type>
  </address_component>
  <address_component>
   <long_name>Michigan</long_name>
   <short_name>MI</short_name>
   <type>administrative_area_level_1</type>
   <type>political</type>
  </address_component>
  <address_component>
   <long_name>United States</long_name>
   <short_name>US</short_name>
   <type>country</type>
   <type>political</type>
  </address_component>
  <address_component>
   <long_name>49962</long_name>
   <short_name>49962</short_name>
   <type>postal_code</type>
  </address_component>
  <geometry>
   <location>
    <lat>46.9054433</lat>
    <lng>-88.0974674</lng>
   </location>
   <location_type>GEOMETRIC_CENTER</location_type>
   <viewport>
    <southwest>
     <lat>46.8953269</lat>
     <lng>-88.1020319</lng>
    </southwest>
    <northeast>
     <lat>46.9157767</lat>
     <lng>-88.0972242</lng>
    </northeast>
   </viewport>
   <bounds>
    <southwest>
     <lat>46.8953269</lat>
     <lng>-88.1020319</lng>
    </southwest>
    <northeast>
     <lat>46.9157767</lat>
     <lng>-88.0972242</lng>
    </northeast>
   </bounds>
  </geometry>
  <place_id>ChIJr3_BFT75UE0R4DvspjoV8Tk</place_id>
 </result>
 <result>
  <type>route</type>
  <formatted_address>Roth, Aubel, Belgium</formatted_address>
  <address_component>
   <long_name>Roth</long_name>
   <short_name>Roth</short_name>
   <type>route</type>
  </address_component>
  <address_component>
   <long_name>Aubel</long_name>
   <short_name>Aubel</short_name>
   <type>locality</type>
   <type>political</type>
  </address_component>
  <address_component>
   <long_name>Liège</long_name>
   <short_name>LG</short_name>
   <type>administrative_area_level_2</type>
   <type>political</type>
  </address_component>
  <address_component>
   <long_name>Région wallonne</long_name>
   <short_name>Région wallonne</short_name>
   <type>administrative_area_level_1</type>
   <type>political</type>
  </address_component>
  <address_component>
   <long_name>Belgium</long_name>
   <short_name>BE</short_name>
   <type>country</type>
   <type>political</type>
  </address_component>
  <geometry>
   <location>
    <lat>50.7166158</lat>
    <lng>5.8496809</lng>
   </location>
   <location_type>GEOMETRIC_CENTER</location_type>
   <viewport>
    <southwest>
     <lat>50.7152434</lat>
     <lng>5.8457225</lng>
    </southwest>
    <northeast>
     <lat>50.7179413</lat>
     <lng>5.8526732</lng>
    </northeast>
   </viewport>
   <bounds>
    <southwest>
     <lat>50.7163516</lat>
     <lng>5.8457225</lng>
    </southwest>
    <northeast>
     <lat>50.7168331</lat>
     <lng>5.8526732</lng>
    </northeast>
   </bounds>
  </geometry>
  <place_id>ChIJQacUvYuSwEcRxPKgzNiDFE0</place_id>
 </result>
 <result>
  <type>route</type>
  <formatted_address>Roth, 3210, Belgium</formatted_address>
  <address_component>
   <long_name>Roth</long_name>
   <short_name>Roth</short_name>
   <type>route</type>
  </address_component>
  <address_component>
   <long_name>Vlaams-Brabant</long_name>
   <short_name>VB</short_name>
   <type>administrative_area_level_2</type>
   <type>political</type>
  </address_component>
  <address_component>
   <long_name>Vlaanderen</long_name>
   <short_name>Vlaanderen</short_name>
   <type>administrative_area_level_1</type>
   <type>political</type>
  </address_component>
  <address_component>
   <long_name>Belgium</long_name>
   <short_name>BE</short_name>
   <type>country</type>
   <type>political</type>
  </address_component>
  <address_component>
   <long_name>3210</long_name>
   <short_name>3210</short_name>
   <type>postal_code</type>
  </address_component>
  <geometry>
   <location>
    <lat>50.9032200</lat>
    <lng>4.8296700</lng>
   </location>
   <location_type>GEOMETRIC_CENTER</location_type>
   <viewport>
    <southwest>
     <lat>50.9004085</lat>
     <lng>4.8252530</lng>
    </southwest>
    <northeast>
     <lat>50.9075161</lat>
     <lng>4.8351425</lng>
    </northeast>
   </viewport>
   <bounds>
    <southwest>
     <lat>50.9004085</lat>
     <lng>4.8252530</lng>
    </southwest>
    <northeast>
     <lat>50.9075161</lat>
     <lng>4.8351425</lng>
    </northeast>
   </bounds>
  </geometry>
  <place_id>ChIJtbsBCQVowUcR_bBYEt35DFw</place_id>
 </result>
 <result>
  <type>locality</type>
  <type>political</type>
  <formatted_address>54597 Roth bei Prüm, Germany</formatted_address>
  <address_component>
   <long_name>Roth bei Prüm</long_name>
   <short_name>Roth bei Prüm</short_name>
   <type>locality</type>
   <type>political</type>
  </address_component>
  <address_component>
   <long_name>Bitburg-Prüm</long_name>
   <short_name>Bitburg-Prüm</short_name>
   <type>administrative_area_level_3</type>
   <type>political</type>
  </address_component>
  <address_component>
   <long_name>Rhineland-Palatinate</long_name>
   <short_name>RP</short_name>
   <type>administrative_area_level_1</type>
   <type>political</type>
  </address_component>
  <address_component>
   <long_name>Germany</long_name>
   <short_name>DE</short_name>
   <type>country</type>
   <type>political</type>
  </address_component>
  <address_component>
   <long_name>54597</long_name>
   <short_name>54597</short_name>
   <type>postal_code</type>
  </address_component>
  <geometry>
   <location>
    <lat>50.3077108</lat>
    <lng>6.3880190</lng>
   </location>
   <location_type>APPROXIMATE</location_type>
   <viewport>
    <southwest>
     <lat>50.2754942</lat>
     <lng>6.3547771</lng>
    </southwest>
    <northeast>
     <lat>50.3243549</lat>
     <lng>6.4443614</lng>
    </northeast>
   </viewport>
   <bounds>
    <southwest>
     <lat>50.2754942</lat>
     <lng>6.3547771</lng>
    </southwest>
    <northeast>
     <lat>50.3243549</lat>
     <lng>6.4443614</lng>
    </northeast>
   </bounds>
  </geometry>
  <place_id>ChIJZ8pE4eCQv0cR8AzbENXUIgQ</place_id>
 </result>
</GeocodeResponse>
