<?xml version="1.0" encoding="UTF-8"?>
<GeocodeResponse>
 <status>OK</status>
 <result>
  <type>route</type>
  <formatted_address>R. do Baixo Alentejo, 2950-554 Q.ta do Anjo, Portugal</formatted_address>
  <address_component>
   <long_name>Rua do Baixo Alentejo</long_name>
   <short_name>R. do Baixo Alentejo</short_name>
   <type>route</type>
  </address_component>
  <address_component>
   <long_name>Quinta do Anjo</long_name>
   <short_name>Q.ta do Anjo</short_name>
   <type>locality</type>
   <type>political</type>
  </address_component>
  <address_component>
   <long_name>Setúbal</long_name>
   <short_name>Setúbal</short_name>
   <type>administrative_area_level_1</type>
   <type>political</type>
  </address_component>
  <address_component>
   <long_name>Portugal</long_name>
   <short_name>PT</short_name>
   <type>country</type>
   <type>political</type>
  </address_component>
  <address_component>
   <long_name>2950-554</long_name>
   <short_name>2950-554</short_name>
   <type>postal_code</type>
  </address_component>
  <address_component>
   <long_name>2950</long_name>
   <short_name>2950</short_name>
   <type>postal_code</type>
   <type>postal_code_prefix</type>
  </address_component>
  <geometry>
   <location>
    <lat>38.5968400</lat>
    <lng>-8.9428948</lng>
   </location>
   <location_type>GEOMETRIC_CENTER</location_type>
   <viewport>
    <southwest>
     <lat>38.5948569</lat>
     <lng>-8.9442457</lng>
    </southwest>
    <northeast>
     <lat>38.5989551</lat>
     <lng>-8.9415478</lng>
    </northeast>
   </viewport>
   <bounds>
    <southwest>
     <lat>38.5948569</lat>
     <lng>-8.9437719</lng>
    </southwest>
    <northeast>
     <lat>38.5989551</lat>
     <lng>-8.9420216</lng>
    </northeast>
   </bounds>
  </geometry>
  <partial_match>true</partial_match>
  <place_id>ChIJuyA9RNxGGQ0R9Jy24zKygos</place_id>
 </result>
 <result>
  <type>route</type>
  <formatted_address>R. Baixo Alentejo, 2430 M.nha Grande, Portugal</formatted_address>
  <address_component>
   <long_name>Rua Baixo Alentejo</long_name>
   <short_name>R. Baixo Alentejo</short_name>
   <type>route</type>
  </address_component>
  <address_component>
   <long_name>Marinha Grande</long_name>
   <short_name>M.nha Grande</short_name>
   <type>locality</type>
   <type>political</type>
  </address_component>
  <address_component>
   <long_name>Leiria</long_name>
   <short_name>Leiria</short_name>
   <type>administrative_area_level_1</type>
   <type>political</type>
  </address_component>
  <address_component>
   <long_name>Portugal</long_name>
   <short_name>PT</short_name>
   <type>country</type>
   <type>political</type>
  </address_component>
  <address_component>
   <long_name>2430</long_name>
   <short_name>2430</short_name>
   <type>postal_code</type>
   <type>postal_code_prefix</type>
  </address_component>
  <geometry>
   <location>
    <lat>39.7575272</lat>
    <lng>-8.9052196</lng>
   </location>
   <location_type>GEOMETRIC_CENTER</location_type>
   <viewport>
    <southwest>
     <lat>39.7560674</lat>
     <lng>-8.9072497</lng>
    </southwest>
    <northeast>
     <lat>39.7587654</lat>
     <lng>-8.9034703</lng>
    </northeast>
   </viewport>
   <bounds>
    <southwest>
     <lat>39.7570384</lat>
     <lng>-8.9072497</lng>
    </southwest>
    <northeast>
     <lat>39.7577944</lat>
     <lng>-8.9034703</lng>
    </northeast>
   </bounds>
  </geometry>
  <partial_match>true</partial_match>
  <place_id>ChIJ1f4OKzQMIg0RXxkguPflAJA</place_id>
 </result>
 <result>
  <type>route</type>
  <formatted_address>R. Baixo Alentejo, 2870-160 Montijo, Portugal</formatted_address>
  <address_component>
   <long_name>Rua Baixo Alentejo</long_name>
   <short_name>R. Baixo Alentejo</short_name>
   <type>route</type>
  </address_component>
  <address_component>
   <long_name>Montijo</long_name>
   <short_name>Montijo</short_name>
   <type>locality</type>
   <type>political</type>
  </address_component>
  <address_component>
   <long_name>Montijo</long_name>
   <short_name>Montijo</short_name>
   <type>administrative_area_level_2</type>
   <type>political</type>
  </address_component>
  <address_component>
   <long_name>Setúbal</long_name>
   <short_name>Setúbal</short_name>
   <type>administrative_area_level_1</type>
   <type>political</type>
  </address_component>
  <address_component>
   <long_name>Portugal</long_name>
   <short_name>PT</short_name>
   <type>country</type>
   <type>political</type>
  </address_component>
  <address_component>
   <long_name>2870-160</long_name>
   <short_name>2870-160</short_name>
   <type>postal_code</type>
  </address_component>
  <address_component>
   <long_name>2870</long_name>
   <short_name>2870</short_name>
   <type>postal_code</type>
   <type>postal_code_prefix</type>
  </address_component>
  <geometry>
   <location>
    <lat>38.7117174</lat>
    <lng>-8.9833388</lng>
   </location>
   <location_type>GEOMETRIC_CENTER</location_type>
   <viewport>
    <southwest>
     <lat>38.7104372</lat>
     <lng>-8.9847031</lng>
    </southwest>
    <northeast>
     <lat>38.7131351</lat>
     <lng>-8.9820052</lng>
    </northeast>
   </viewport>
   <bounds>
    <southwest>
     <lat>38.7115473</lat>
     <lng>-8.9838963</lng>
    </southwest>
    <northeast>
     <lat>38.7120250</lat>
     <lng>-8.9828120</lng>
    </northeast>
   </bounds>
  </geometry>
  <partial_match>true</partial_match>
  <place_id>ChIJqTooEJE5GQ0RfcdBSMPzLQQ</place_id>
 </result>
 <result>
  <type>route</type>
  <formatted_address>Rua do Alto Alentejo, 2430 M.nha Grande, Portugal</formatted_address>
  <address_component>
   <long_name>Rua do Alto Alentejo</long_name>
   <short_name>Rua do Alto Alentejo</short_name>
   <type>route</type>
  </address_component>
  <address_component>
   <long_name>Marinha Grande</long_name>
   <short_name>M.nha Grande</short_name>
   <type>locality</type>
   <type>political</type>
  </address_component>
  <address_component>
   <long_name>Leiria</long_name>
   <short_name>Leiria</short_name>
   <type>administrative_area_level_1</type>
   <type>political</type>
  </address_component>
  <address_component>
   <long_name>Portugal</long_name>
   <short_name>PT</short_name>
   <type>country</type>
   <type>political</type>
  </address_component>
  <address_component>
   <long_name>2430</long_name>
   <short_name>2430</short_name>
   <type>postal_code</type>
   <type>postal_code_prefix</type>
  </address_component>
  <geometry>
   <location>
    <lat>39.7585656</lat>
    <lng>-8.9049849</lng>
   </location>
   <location_type>GEOMETRIC_CENTER</location_type>
   <viewport>
    <southwest>
     <lat>39.7569769</lat>
     <lng>-8.9059618</lng>
    </southwest>
    <northeast>
     <lat>39.7596749</lat>
     <lng>-8.9032638</lng>
    </northeast>
   </viewport>
   <bounds>
    <southwest>
     <lat>39.7577397</lat>
     <lng>-8.9058954</lng>
    </southwest>
    <northeast>
     <lat>39.7589121</lat>
     <lng>-8.9033302</lng>
    </northeast>
   </bounds>
  </geometry>
  <partial_match>true</partial_match>
  <place_id>ChIJkSWTyDUMIg0RUXwJHB_9cvo</place_id>
 </result>
 <result>
  <type>route</type>
  <formatted_address>R. do Alto Alentejo, 2950-554 Q.ta do Anjo, Portugal</formatted_address>
  <address_component>
   <long_name>Rua do Alto Alentejo</long_name>
   <short_name>R. do Alto Alentejo</short_name>
   <type>route</type>
  </address_component>
  <address_component>
   <long_name>Quinta do Anjo</long_name>
   <short_name>Q.ta do Anjo</short_name>
   <type>locality</type>
   <type>political</type>
  </address_component>
  <address_component>
   <long_name>Setúbal</long_name>
   <short_name>Setúbal</short_name>
   <type>administrative_area_level_1</type>
   <type>political</type>
  </address_component>
  <address_component>
   <long_name>Portugal</long_name>
   <short_name>PT</short_name>
   <type>country</type>
   <type>political</type>
  </address_component>
  <address_component>
   <long_name>2950-554</long_name>
   <short_name>2950-554</short_name>
   <type>postal_code</type>
  </address_component>
  <address_component>
   <long_name>2950</long_name>
   <short_name>2950</short_name>
   <type>postal_code</type>
   <type>postal_code_prefix</type>
  </address_component>
  <geometry>
   <location>
    <lat>38.5955261</lat>
    <lng>-8.9412564</lng>
   </location>
   <location_type>GEOMETRIC_CENTER</location_type>
   <viewport>
    <southwest>
     <lat>38.5943704</lat>
     <lng>-8.9429929</lng>
    </southwest>
    <northeast>
     <lat>38.5973170</lat>
     <lng>-8.9364012</lng>
    </northeast>
   </viewport>
   <bounds>
    <southwest>
     <lat>38.5943704</lat>
     <lng>-8.9429929</lng>
    </southwest>
    <northeast>
     <lat>38.5973170</lat>
     <lng>-8.9364012</lng>
    </northeast>
   </bounds>
  </geometry>
  <partial_match>true</partial_match>
  <place_id>ChIJwewZZNxGGQ0RG2VAty1RkWM</place_id>
 </result>
 <result>
  <type>route</type>
  <formatted_address>R. Alto Alentejo, 2870 Montijo, Portugal</formatted_address>
  <address_component>
   <long_name>Rua Alto Alentejo</long_name>
   <short_name>R. Alto Alentejo</short_name>
   <type>route</type>
  </address_component>
  <address_component>
   <long_name>Montijo</long_name>
   <short_name>Montijo</short_name>
   <type>locality</type>
   <type>political</type>
  </address_component>
  <address_component>
   <long_name>Montijo</long_name>
   <short_name>Montijo</short_name>
   <type>administrative_area_level_2</type>
   <type>political</type>
  </address_component>
  <address_component>
   <long_name>Setúbal</long_name>
   <short_name>Setúbal</short_name>
   <type>administrative_area_level_1</type>
   <type>political</type>
  </address_component>
  <address_component>
   <long_name>Portugal</long_name>
   <short_name>PT</short_name>
   <type>country</type>
   <type>political</type>
  </address_component>
  <address_component>
   <long_name>2870</long_name>
   <short_name>2870</short_name>
   <type>postal_code</type>
   <type>postal_code_prefix</type>
  </address_component>
  <geometry>
   <location>
    <lat>38.7123131</lat>
    <lng>-8.9835597</lng>
   </location>
   <location_type>GEOMETRIC_CENTER</location_type>
   <viewport>
    <southwest>
     <lat>38.7106769</lat>
     <lng>-8.9847143</lng>
    </southwest>
    <northeast>
     <lat>38.7133748</lat>
     <lng>-8.9820163</lng>
    </northeast>
   </viewport>
   <bounds>
    <southwest>
     <lat>38.7113275</lat>
     <lng>-8.9841797</lng>
    </southwest>
    <northeast>
     <lat>38.7127242</lat>
     <lng>-8.9825509</lng>
    </northeast>
   </bounds>
  </geometry>
  <partial_match>true</partial_match>
  <place_id>ChIJgd10D5E5GQ0RwNnYYM_n-5s</place_id>
 </result>
</GeocodeResponse>
