<?xml version="1.0" encoding="UTF-8"?>
<GeocodeResponse>
 <status>OK</status>
 <result>
  <type>route</type>
  <formatted_address>Lüneburger Str., 21423 Winsen (Luhe), Germany</formatted_address>
  <address_component>
   <long_name>Lüneburger Straße</long_name>
   <short_name>Lüneburger Str.</short_name>
   <type>route</type>
  </address_component>
  <address_component>
   <long_name>Winsen (Luhe)</long_name>
   <short_name>Winsen (Luhe)</short_name>
   <type>locality</type>
   <type>political</type>
  </address_component>
  <address_component>
   <long_name>Niedersachsen</long_name>
   <short_name>NDS</short_name>
   <type>administrative_area_level_1</type>
   <type>political</type>
  </address_component>
  <address_component>
   <long_name>Germany</long_name>
   <short_name>DE</short_name>
   <type>country</type>
   <type>political</type>
  </address_component>
  <address_component>
   <long_name>21423</long_name>
   <short_name>21423</short_name>
   <type>postal_code</type>
  </address_component>
  <geometry>
   <location>
    <lat>53.3504709</lat>
    <lng>10.2366522</lng>
   </location>
   <location_type>GEOMETRIC_CENTER</location_type>
   <viewport>
    <southwest>
     <lat>53.3429800</lat>
     <lng>10.2060921</lng>
    </southwest>
    <northeast>
     <lat>53.3561700</lat>
     <lng>10.2662062</lng>
    </northeast>
   </viewport>
   <bounds>
    <southwest>
     <lat>53.3429800</lat>
     <lng>10.2060921</lng>
    </southwest>
    <northeast>
     <lat>53.3561700</lat>
     <lng>10.2662062</lng>
    </northeast>
   </bounds>
  </geometry>
  <partial_match>true</partial_match>
  <place_id>ChIJqZJLCXvpsUcRV8og37E6lwE</place_id>
 </result>
 <result>
  <type>route</type>
  <formatted_address>Lüneburger Str., Stelle, Germany</formatted_address>
  <address_component>
   <long_name>Lüneburger Straße</long_name>
   <short_name>Lüneburger Str.</short_name>
   <type>route</type>
  </address_component>
  <address_component>
   <long_name>Stelle</long_name>
   <short_name>Stelle</short_name>
   <type>locality</type>
   <type>political</type>
  </address_component>
  <address_component>
   <long_name>Niedersachsen</long_name>
   <short_name>NDS</short_name>
   <type>administrative_area_level_1</type>
   <type>political</type>
  </address_component>
  <address_component>
   <long_name>Germany</long_name>
   <short_name>DE</short_name>
   <type>country</type>
   <type>political</type>
  </address_component>
  <geometry>
   <location>
    <lat>53.3772650</lat>
    <lng>10.1242963</lng>
   </location>
   <location_type>GEOMETRIC_CENTER</location_type>
   <viewport>
    <southwest>
     <lat>53.3718380</lat>
     <lng>10.1106846</lng>
    </southwest>
    <northeast>
     <lat>53.3849000</lat>
     <lng>10.1458895</lng>
    </northeast>
   </viewport>
   <bounds>
    <southwest>
     <lat>53.3718380</lat>
     <lng>10.1106846</lng>
    </southwest>
    <northeast>
     <lat>53.3849000</lat>
     <lng>10.1458895</lng>
    </northeast>
   </bounds>
  </geometry>
  <partial_match>true</partial_match>
  <place_id>ChIJxTaTvk7rsUcRR39flz8LKPU</place_id>
 </result>
 <result>
  <type>route</type>
  <formatted_address>Lüneburger Str., 21376 Salzhausen, Germany</formatted_address>
  <address_component>
   <long_name>Lüneburger Straße</long_name>
   <short_name>Lüneburger Str.</short_name>
   <type>route</type>
  </address_component>
  <address_component>
   <long_name>Salzhausen</long_name>
   <short_name>Salzhausen</short_name>
   <type>locality</type>
   <type>political</type>
  </address_component>
  <address_component>
   <long_name>Niedersachsen</long_name>
   <short_name>NDS</short_name>
   <type>administrative_area_level_1</type>
   <type>political</type>
  </address_component>
  <address_component>
   <long_name>Germany</long_name>
   <short_name>DE</short_name>
   <type>country</type>
   <type>political</type>
  </address_component>
  <address_component>
   <long_name>21376</long_name>
   <short_name>21376</short_name>
   <type>postal_code</type>
  </address_component>
  <geometry>
   <location>
    <lat>53.2197805</lat>
    <lng>10.1782106</lng>
   </location>
   <location_type>GEOMETRIC_CENTER</location_type>
   <viewport>
    <southwest>
     <lat>53.2165813</lat>
     <lng>10.1717100</lng>
    </southwest>
    <northeast>
     <lat>53.2243800</lat>
     <lng>10.1889500</lng>
    </northeast>
   </viewport>
   <bounds>
    <southwest>
     <lat>53.2165813</lat>
     <lng>10.1717100</lng>
    </southwest>
    <northeast>
     <lat>53.2243800</lat>
     <lng>10.1889500</lng>
    </northeast>
   </bounds>
  </geometry>
  <partial_match>true</partial_match>
  <place_id>ChIJk0-xC_7DsUcRqo_vwvDvQ_k</place_id>
 </result>
 <result>
  <type>route</type>
  <formatted_address>Lüneburger Landstraße, 21376 Garlstorf, Germany</formatted_address>
  <address_component>
   <long_name>Lüneburger Landstraße</long_name>
   <short_name>Lüneburger Landstraße</short_name>
   <type>route</type>
  </address_component>
  <address_component>
   <long_name>Garlstorf</long_name>
   <short_name>Garlstorf</short_name>
   <type>locality</type>
   <type>political</type>
  </address_component>
  <address_component>
   <long_name>Niedersachsen</long_name>
   <short_name>NDS</short_name>
   <type>administrative_area_level_1</type>
   <type>political</type>
  </address_component>
  <address_component>
   <long_name>Germany</long_name>
   <short_name>DE</short_name>
   <type>country</type>
   <type>political</type>
  </address_component>
  <address_component>
   <long_name>21376</long_name>
   <short_name>21376</short_name>
   <type>postal_code</type>
  </address_component>
  <geometry>
   <location>
    <lat>53.2328373</lat>
    <lng>10.1077982</lng>
   </location>
   <location_type>GEOMETRIC_CENTER</location_type>
   <viewport>
    <southwest>
     <lat>53.2291396</lat>
     <lng>10.1025972</lng>
    </southwest>
    <northeast>
     <lat>53.2371900</lat>
     <lng>10.1134213</lng>
    </northeast>
   </viewport>
   <bounds>
    <southwest>
     <lat>53.2291396</lat>
     <lng>10.1025972</lng>
    </southwest>
    <northeast>
     <lat>53.2371900</lat>
     <lng>10.1134213</lng>
    </northeast>
   </bounds>
  </geometry>
  <partial_match>true</partial_match>
  <place_id>ChIJKRnRs9rAsUcRwHHQRxupKqI</place_id>
 </result>
 <result>
  <type>route</type>
  <formatted_address>Lüneburger Str., 21395 Tespe, Germany</formatted_address>
  <address_component>
   <long_name>Lüneburger Straße</long_name>
   <short_name>Lüneburger Str.</short_name>
   <type>route</type>
  </address_component>
  <address_component>
   <long_name>Tespe</long_name>
   <short_name>Tespe</short_name>
   <type>locality</type>
   <type>political</type>
  </address_component>
  <address_component>
   <long_name>Niedersachsen</long_name>
   <short_name>NDS</short_name>
   <type>administrative_area_level_1</type>
   <type>political</type>
  </address_component>
  <address_component>
   <long_name>Germany</long_name>
   <short_name>DE</short_name>
   <type>country</type>
   <type>political</type>
  </address_component>
  <address_component>
   <long_name>21395</long_name>
   <short_name>21395</short_name>
   <type>postal_code</type>
  </address_component>
  <geometry>
   <location>
    <lat>53.3929637</lat>
    <lng>10.4119912</lng>
   </location>
   <location_type>GEOMETRIC_CENTER</location_type>
   <viewport>
    <southwest>
     <lat>53.3852121</lat>
     <lng>10.4086344</lng>
    </southwest>
    <northeast>
     <lat>53.4022201</lat>
     <lng>10.4210000</lng>
    </northeast>
   </viewport>
   <bounds>
    <southwest>
     <lat>53.3852121</lat>
     <lng>10.4086344</lng>
    </southwest>
    <northeast>
     <lat>53.4022201</lat>
     <lng>10.4210000</lng>
    </northeast>
   </bounds>
  </geometry>
  <partial_match>true</partial_match>
  <place_id>ChIJM4Ja9bblsUcRWuezOF7FiIU</place_id>
 </result>
 <result>
  <type>route</type>
  <formatted_address>Lüneburger Str., 21244 Buchholz in der Nordheide, Germany</formatted_address>
  <address_component>
   <long_name>Lüneburger Straße</long_name>
   <short_name>Lüneburger Str.</short_name>
   <type>route</type>
  </address_component>
  <address_component>
   <long_name>Buchholz in der Nordheide</long_name>
   <short_name>Buchholz in der Nordheide</short_name>
   <type>locality</type>
   <type>political</type>
  </address_component>
  <address_component>
   <long_name>Niedersachsen</long_name>
   <short_name>NDS</short_name>
   <type>administrative_area_level_1</type>
   <type>political</type>
  </address_component>
  <address_component>
   <long_name>Germany</long_name>
   <short_name>DE</short_name>
   <type>country</type>
   <type>political</type>
  </address_component>
  <address_component>
   <long_name>21244</long_name>
   <short_name>21244</short_name>
   <type>postal_code</type>
  </address_component>
  <geometry>
   <location>
    <lat>53.3202913</lat>
    <lng>9.8902641</lng>
   </location>
   <location_type>GEOMETRIC_CENTER</location_type>
   <viewport>
    <southwest>
     <lat>53.3156368</lat>
     <lng>9.8808800</lng>
    </southwest>
    <northeast>
     <lat>53.3255200</lat>
     <lng>9.8996198</lng>
    </northeast>
   </viewport>
   <bounds>
    <southwest>
     <lat>53.3156368</lat>
     <lng>9.8808800</lng>
    </southwest>
    <northeast>
     <lat>53.3255200</lat>
     <lng>9.8996198</lng>
    </northeast>
   </bounds>
  </geometry>
  <partial_match>true</partial_match>
  <place_id>ChIJ_xM3xGa9sUcRy1IP9lZe8XM</place_id>
 </result>
 <result>
  <type>route</type>
  <formatted_address>Harburg, Lüneburger Str., 21073 Hamburg, Germany</formatted_address>
  <address_component>
   <long_name>Lüneburger Straße</long_name>
   <short_name>Lüneburger Str.</short_name>
   <type>route</type>
  </address_component>
  <address_component>
   <long_name>Harburg</long_name>
   <short_name>Harburg</short_name>
   <type>political</type>
   <type>sublocality</type>
   <type>sublocality_level_2</type>
  </address_component>
  <address_component>
   <long_name>Harburg</long_name>
   <short_name>Harburg</short_name>
   <type>political</type>
   <type>sublocality</type>
   <type>sublocality_level_1</type>
  </address_component>
  <address_component>
   <long_name>Hamburg</long_name>
   <short_name>Hamburg</short_name>
   <type>locality</type>
   <type>political</type>
  </address_component>
  <address_component>
   <long_name>Hamburg</long_name>
   <short_name>HH</short_name>
   <type>administrative_area_level_1</type>
   <type>political</type>
  </address_component>
  <address_component>
   <long_name>Germany</long_name>
   <short_name>DE</short_name>
   <type>country</type>
   <type>political</type>
  </address_component>
  <address_component>
   <long_name>21073</long_name>
   <short_name>21073</short_name>
   <type>postal_code</type>
  </address_component>
  <geometry>
   <location>
    <lat>53.4588753</lat>
    <lng>9.9828179</lng>
   </location>
   <location_type>GEOMETRIC_CENTER</location_type>
   <viewport>
    <southwest>
     <lat>53.4571587</lat>
     <lng>9.9806973</lng>
    </southwest>
    <northeast>
     <lat>53.4604994</lat>
     <lng>9.9842828</lng>
    </northeast>
   </viewport>
   <bounds>
    <southwest>
     <lat>53.4571587</lat>
     <lng>9.9806973</lng>
    </southwest>
    <northeast>
     <lat>53.4604994</lat>
     <lng>9.9842828</lng>
    </northeast>
   </bounds>
  </geometry>
  <partial_match>true</partial_match>
  <place_id>ChIJnRxEEqWRsUcRxCe5oxW213A</place_id>
 </result>
 <result>
  <type>route</type>
  <formatted_address>Alte Lüneburger Str., 21435 Stelle, Germany</formatted_address>
  <address_component>
   <long_name>Alte Lüneburger Straße</long_name>
   <short_name>Alte Lüneburger Str.</short_name>
   <type>route</type>
  </address_component>
  <address_component>
   <long_name>Stelle</long_name>
   <short_name>Stelle</short_name>
   <type>locality</type>
   <type>political</type>
  </address_component>
  <address_component>
   <long_name>Niedersachsen</long_name>
   <short_name>NDS</short_name>
   <type>administrative_area_level_1</type>
   <type>political</type>
  </address_component>
  <address_component>
   <long_name>Germany</long_name>
   <short_name>DE</short_name>
   <type>country</type>
   <type>political</type>
  </address_component>
  <address_component>
   <long_name>21435</long_name>
   <short_name>21435</short_name>
   <type>postal_code</type>
  </address_component>
  <geometry>
   <location>
    <lat>53.3770167</lat>
    <lng>10.1274474</lng>
   </location>
   <location_type>GEOMETRIC_CENTER</location_type>
   <viewport>
    <southwest>
     <lat>53.3739540</lat>
     <lng>10.1203546</lng>
    </southwest>
    <northeast>
     <lat>53.3811610</lat>
     <lng>10.1355690</lng>
    </northeast>
   </viewport>
   <bounds>
    <southwest>
     <lat>53.3739540</lat>
     <lng>10.1203546</lng>
    </southwest>
    <northeast>
     <lat>53.3811610</lat>
     <lng>10.1355690</lng>
    </northeast>
   </bounds>
  </geometry>
  <partial_match>true</partial_match>
  <place_id>ChIJ8WvjzEjrsUcRlVQabZ7Ip14</place_id>
 </result>
 <result>
  <type>route</type>
  <formatted_address>Alte Lüneburger Str., 21442 Toppenstedt, Germany</formatted_address>
  <address_component>
   <long_name>Alte Lüneburger Straße</long_name>
   <short_name>Alte Lüneburger Str.</short_name>
   <type>route</type>
  </address_component>
  <address_component>
   <long_name>Toppenstedt</long_name>
   <short_name>Toppenstedt</short_name>
   <type>locality</type>
   <type>political</type>
  </address_component>
  <address_component>
   <long_name>Niedersachsen</long_name>
   <short_name>NDS</short_name>
   <type>administrative_area_level_1</type>
   <type>political</type>
  </address_component>
  <address_component>
   <long_name>Germany</long_name>
   <short_name>DE</short_name>
   <type>country</type>
   <type>political</type>
  </address_component>
  <address_component>
   <long_name>21442</long_name>
   <short_name>21442</short_name>
   <type>postal_code</type>
  </address_component>
  <geometry>
   <location>
    <lat>53.2655898</lat>
    <lng>10.1295735</lng>
   </location>
   <location_type>GEOMETRIC_CENTER</location_type>
   <viewport>
    <southwest>
     <lat>53.2641133</lat>
     <lng>10.1169400</lng>
    </southwest>
    <northeast>
     <lat>53.2668113</lat>
     <lng>10.1396412</lng>
    </northeast>
   </viewport>
   <bounds>
    <southwest>
     <lat>53.2646400</lat>
     <lng>10.1169400</lng>
    </southwest>
    <northeast>
     <lat>53.2662846</lat>
     <lng>10.1396412</lng>
    </northeast>
   </bounds>
  </geometry>
  <partial_match>true</partial_match>
  <place_id>ChIJ5fYCzFXAsUcRK9P7Oz7o7qY</place_id>
 </result>
</GeocodeResponse>
