<?xml version="1.0" encoding="UTF-8"?>
<GeocodeResponse>
 <status>OK</status>
 <result>
  <type>locality</type>
  <type>political</type>
  <formatted_address>3230 São Miguel, Portugal</formatted_address>
  <address_component>
   <long_name>São Miguel</long_name>
   <short_name>São Miguel</short_name>
   <type>locality</type>
   <type>political</type>
  </address_component>
  <address_component>
   <long_name>Distrito de Coimbra</long_name>
   <short_name>Distrito de Coimbra</short_name>
   <type>administrative_area_level_1</type>
   <type>political</type>
  </address_component>
  <address_component>
   <long_name>Portugal</long_name>
   <short_name>PT</short_name>
   <type>country</type>
   <type>political</type>
  </address_component>
  <address_component>
   <long_name>3230</long_name>
   <short_name>3230</short_name>
   <type>postal_code</type>
   <type>postal_code_prefix</type>
  </address_component>
  <geometry>
   <location>
    <lat>40.0038890</lat>
    <lng>-8.3788890</lng>
   </location>
   <location_type>APPROXIMATE</location_type>
   <viewport>
    <southwest>
     <lat>39.9953414</lat>
     <lng>-8.3948964</lng>
    </southwest>
    <northeast>
     <lat>40.0124355</lat>
     <lng>-8.3628816</lng>
    </northeast>
   </viewport>
  </geometry>
  <place_id>ChIJ_W2GjbSMIg0RUrVRBm_D4IE</place_id>
 </result>
 <result>
  <type>establishment</type>
  <type>natural_feature</type>
  <formatted_address>São Miguel Island, Portugal</formatted_address>
  <address_component>
   <long_name>São Miguel Island</long_name>
   <short_name>São Miguel Island</short_name>
   <type>establishment</type>
   <type>natural_feature</type>
  </address_component>
  <address_component>
   <long_name>Azores</long_name>
   <short_name>Azores</short_name>
   <type>administrative_area_level_1</type>
   <type>political</type>
  </address_component>
  <address_component>
   <long_name>Portugal</long_name>
   <short_name>PT</short_name>
   <type>country</type>
   <type>political</type>
  </address_component>
  <geometry>
   <location>
    <lat>37.7804110</lat>
    <lng>-25.4970466</lng>
   </location>
   <location_type>APPROXIMATE</location_type>
   <viewport>
    <southwest>
     <lat>37.7038550</lat>
     <lng>-25.8559015</lng>
    </southwest>
    <northeast>
     <lat>37.9103140</lat>
     <lng>-25.1340474</lng>
    </northeast>
   </viewport>
   <bounds>
    <southwest>
     <lat>37.7038550</lat>
     <lng>-25.8559015</lng>
    </southwest>
    <northeast>
     <lat>37.9103140</lat>
     <lng>-25.1340474</lng>
    </northeast>
   </bounds>
  </geometry>
  <place_id>ChIJw5fmUHLXXAsRkDj2wyZvT64</place_id>
 </result>
 <result>
  <type>establishment</type>
  <type>natural_feature</type>
  <formatted_address>Sao Miguel, 8005 Estoi, Portugal</formatted_address>
  <address_component>
   <long_name>Sao Miguel</long_name>
   <short_name>Sao Miguel</short_name>
   <type>establishment</type>
   <type>natural_feature</type>
  </address_component>
  <address_component>
   <long_name>Estoi</long_name>
   <short_name>Estoi</short_name>
   <type>locality</type>
   <type>political</type>
  </address_component>
  <address_component>
   <long_name>Faro District</long_name>
   <short_name>Faro District</short_name>
   <type>administrative_area_level_1</type>
   <type>political</type>
  </address_component>
  <address_component>
   <long_name>Portugal</long_name>
   <short_name>PT</short_name>
   <type>country</type>
   <type>political</type>
  </address_component>
  <address_component>
   <long_name>8005</long_name>
   <short_name>8005</short_name>
   <type>postal_code</type>
   <type>postal_code_prefix</type>
  </address_component>
  <geometry>
   <location>
    <lat>37.1000000</lat>
    <lng>-7.8333333</lng>
   </location>
   <location_type>APPROXIMATE</location_type>
   <viewport>
    <southwest>
     <lat>37.0986510</lat>
     <lng>-7.8346823</lng>
    </southwest>
    <northeast>
     <lat>37.1013490</lat>
     <lng>-7.8319843</lng>
    </northeast>
   </viewport>
  </geometry>
  <place_id>ChIJ-ytCzbWrGg0RZ1k-3SkFEIY</place_id>
 </result>
 <result>
  <type>political</type>
  <type>sublocality</type>
  <type>sublocality_level_1</type>
  <formatted_address>São Miguel, 4705, Portugal</formatted_address>
  <address_component>
   <long_name>São Miguel</long_name>
   <short_name>São Miguel</short_name>
   <type>political</type>
   <type>sublocality</type>
   <type>sublocality_level_1</type>
  </address_component>
  <address_component>
   <long_name>Braga</long_name>
   <short_name>Braga</short_name>
   <type>administrative_area_level_1</type>
   <type>political</type>
  </address_component>
  <address_component>
   <long_name>Portugal</long_name>
   <short_name>PT</short_name>
   <type>country</type>
   <type>political</type>
  </address_component>
  <address_component>
   <long_name>4705</long_name>
   <short_name>4705</short_name>
   <type>postal_code</type>
   <type>postal_code_prefix</type>
  </address_component>
  <geometry>
   <location>
    <lat>41.5079574</lat>
    <lng>-8.4380140</lng>
   </location>
   <location_type>APPROXIMATE</location_type>
   <viewport>
    <southwest>
     <lat>41.5066084</lat>
     <lng>-8.4393630</lng>
    </southwest>
    <northeast>
     <lat>41.5093064</lat>
     <lng>-8.4366650</lng>
    </northeast>
   </viewport>
  </geometry>
  <place_id>ChIJ-fGQUx75JA0R6rY0ERITraM</place_id>
 </result>
</GeocodeResponse>
