<?xml version="1.0" encoding="UTF-8"?>
<GeocodeResponse>
 <status>OK</status>
 <result>
  <type>route</type>
  <formatted_address>Rue des Antilles, Kourou, French Guiana</formatted_address>
  <address_component>
   <long_name>Rue des Antilles</long_name>
   <short_name>Rue des Antilles</short_name>
   <type>route</type>
  </address_component>
  <address_component>
   <long_name>Diamant</long_name>
   <short_name>Diamant</short_name>
   <type>political</type>
   <type>sublocality</type>
   <type>sublocality_level_1</type>
  </address_component>
  <address_component>
   <long_name>Kourou</long_name>
   <short_name>Kourou</short_name>
   <type>locality</type>
   <type>political</type>
  </address_component>
  <address_component>
   <long_name>Centre spatial guyanais</long_name>
   <short_name>Ctre spatial guyanais</short_name>
   <type>administrative_area_level_2</type>
   <type>political</type>
  </address_component>
  <address_component>
   <long_name>Cayenne</long_name>
   <short_name>Cayenne</short_name>
   <type>administrative_area_level_1</type>
   <type>political</type>
  </address_component>
  <address_component>
   <long_name>French Guiana</long_name>
   <short_name>GF</short_name>
   <type>country</type>
   <type>political</type>
  </address_component>
  <geometry>
   <location>
    <lat>5.1613055</lat>
    <lng>-52.6356699</lng>
   </location>
   <location_type>GEOMETRIC_CENTER</location_type>
   <viewport>
    <southwest>
     <lat>5.1601344</lat>
     <lng>-52.6372662</lng>
    </southwest>
    <northeast>
     <lat>5.1628324</lat>
     <lng>-52.6345682</lng>
    </northeast>
   </viewport>
   <bounds>
    <southwest>
     <lat>5.1611070</lat>
     <lng>-52.6362951</lng>
    </southwest>
    <northeast>
     <lat>5.1618598</lat>
     <lng>-52.6355393</lng>
    </northeast>
   </bounds>
  </geometry>
  <partial_match>true</partial_match>
  <place_id>ChIJ9TrY4aL-EY0RtmnP2fVHaxo</place_id>
 </result>
 <result>
  <type>premise</type>
  <formatted_address>CROUS Antilles Guyane, Pointe-à-Pitre, Guadeloupe</formatted_address>
  <address_component>
   <long_name>CROUS Antilles Guyane</long_name>
   <short_name>CROUS Antilles Guyane</short_name>
   <type>premise</type>
  </address_component>
  <address_component>
   <long_name>Pointe-à-Pitre</long_name>
   <short_name>Pointe-à-Pitre</short_name>
   <type>locality</type>
   <type>political</type>
  </address_component>
  <address_component>
   <long_name>Le Gosier</long_name>
   <short_name>Le Gosier</short_name>
   <type>administrative_area_level_2</type>
   <type>political</type>
  </address_component>
  <address_component>
   <long_name>Pointe-à-Pitre</long_name>
   <short_name>Pointe-à-Pitre</short_name>
   <type>administrative_area_level_1</type>
   <type>political</type>
  </address_component>
  <address_component>
   <long_name>Guadeloupe</long_name>
   <short_name>GP</short_name>
   <type>country</type>
   <type>political</type>
  </address_component>
  <geometry>
   <location>
    <lat>16.2233188</lat>
    <lng>-61.5276779</lng>
   </location>
   <location_type>ROOFTOP</location_type>
   <viewport>
    <southwest>
     <lat>16.2219714</lat>
     <lng>-61.5290123</lng>
    </southwest>
    <northeast>
     <lat>16.2246694</lat>
     <lng>-61.5263143</lng>
    </northeast>
   </viewport>
   <bounds>
    <southwest>
     <lat>16.2232367</lat>
     <lng>-61.5277410</lng>
    </southwest>
    <northeast>
     <lat>16.2234041</lat>
     <lng>-61.5275856</lng>
    </northeast>
   </bounds>
  </geometry>
  <partial_match>true</partial_match>
  <place_id>ChIJBwUu1u1FE4wRwK3nZNkLbE4</place_id>
 </result>
 <result>
  <type>premise</type>
  <formatted_address>CREPS Antilles-Guyane, Rue Pompilius Keller, Pointe-à-Pitre, Guadeloupe</formatted_address>
  <address_component>
   <long_name>CREPS Antilles-Guyane</long_name>
   <short_name>CREPS Antilles-Guyane</short_name>
   <type>premise</type>
  </address_component>
  <address_component>
   <long_name>Rue Pompilius Keller</long_name>
   <short_name>Rue Pompilius Keller</short_name>
   <type>route</type>
  </address_component>
  <address_component>
   <long_name>Pointe-à-Pitre</long_name>
   <short_name>Pointe-à-Pitre</short_name>
   <type>locality</type>
   <type>political</type>
  </address_component>
  <address_component>
   <long_name>Les Abymes</long_name>
   <short_name>Les Abymes</short_name>
   <type>administrative_area_level_2</type>
   <type>political</type>
  </address_component>
  <address_component>
   <long_name>Pointe-à-Pitre</long_name>
   <short_name>Pointe-à-Pitre</short_name>
   <type>administrative_area_level_1</type>
   <type>political</type>
  </address_component>
  <address_component>
   <long_name>Guadeloupe</long_name>
   <short_name>GP</short_name>
   <type>country</type>
   <type>political</type>
  </address_component>
  <geometry>
   <location>
    <lat>16.2593960</lat>
    <lng>-61.5205380</lng>
   </location>
   <location_type>APPROXIMATE</location_type>
   <viewport>
    <southwest>
     <lat>16.2580058</lat>
     <lng>-61.5227186</lng>
    </southwest>
    <northeast>
     <lat>16.2607037</lat>
     <lng>-61.5184915</lng>
    </northeast>
   </viewport>
   <bounds>
    <southwest>
     <lat>16.2581342</lat>
     <lng>-61.5227186</lng>
    </southwest>
    <northeast>
     <lat>16.2605753</lat>
     <lng>-61.5184915</lng>
    </northeast>
   </bounds>
  </geometry>
  <partial_match>true</partial_match>
  <place_id>ChIJ5yvvoxhGE4wRlEI6hEz4ADU</place_id>
 </result>
</GeocodeResponse>
