<?xml version="1.0" encoding="UTF-8"?>
<GeocodeResponse>
 <status>OK</status>
 <result>
  <type>route</type>
  <formatted_address>Rondweg-Zuidoost, 9101 Dokkum, Netherlands</formatted_address>
  <address_component>
   <long_name>Rondweg-Zuidoost</long_name>
   <short_name>Rondweg-Zuidoost</short_name>
   <type>route</type>
  </address_component>
  <address_component>
   <long_name>Dokkum</long_name>
   <short_name>Dokkum</short_name>
   <type>locality</type>
   <type>political</type>
  </address_component>
  <address_component>
   <long_name>Friesland</long_name>
   <short_name>Frater</short_name>
   <type>administrative_area_level_1</type>
   <type>political</type>
  </address_component>
  <address_component>
   <long_name>Netherlands</long_name>
   <short_name>NL</short_name>
   <type>country</type>
   <type>political</type>
  </address_component>
  <address_component>
   <long_name>9101</long_name>
   <short_name>9101</short_name>
   <type>postal_code</type>
   <type>postal_code_prefix</type>
  </address_component>
  <geometry>
   <location>
    <lat>53.3254232</lat>
    <lng>6.0223854</lng>
   </location>
   <location_type>GEOMETRIC_CENTER</location_type>
   <viewport>
    <southwest>
     <lat>53.3182853</lat>
     <lng>6.0188379</lng>
    </southwest>
    <northeast>
     <lat>53.3325934</lat>
     <lng>6.0267086</lng>
    </northeast>
   </viewport>
   <bounds>
    <southwest>
     <lat>53.3182853</lat>
     <lng>6.0188379</lng>
    </southwest>
    <northeast>
     <lat>53.3325934</lat>
     <lng>6.0267086</lng>
    </northeast>
   </bounds>
  </geometry>
  <partial_match>true</partial_match>
  <place_id>ChIJ6YJ9d1ipyUcR7xW42SKeyaQ</place_id>
 </result>
 <result>
  <type>route</type>
  <formatted_address>Businesspark Friesland-West, Netherlands</formatted_address>
  <address_component>
   <long_name>Businesspark Friesland-West</long_name>
   <short_name>Businesspark Friesland-West</short_name>
   <type>route</type>
  </address_component>
  <address_component>
   <long_name>De Friese Meren</long_name>
   <short_name>De Friese Meren</short_name>
   <type>administrative_area_level_2</type>
   <type>political</type>
  </address_component>
  <address_component>
   <long_name>Friesland</long_name>
   <short_name>Frater</short_name>
   <type>administrative_area_level_1</type>
   <type>political</type>
  </address_component>
  <address_component>
   <long_name>Netherlands</long_name>
   <short_name>NL</short_name>
   <type>country</type>
   <type>political</type>
  </address_component>
  <geometry>
   <location>
    <lat>52.9652129</lat>
    <lng>5.8927904</lng>
   </location>
   <location_type>GEOMETRIC_CENTER</location_type>
   <viewport>
    <southwest>
     <lat>52.9612044</lat>
     <lng>5.8870301</lng>
    </southwest>
    <northeast>
     <lat>52.9682477</lat>
     <lng>5.8971697</lng>
    </northeast>
   </viewport>
   <bounds>
    <southwest>
     <lat>52.9612044</lat>
     <lng>5.8870301</lng>
    </southwest>
    <northeast>
     <lat>52.9682477</lat>
     <lng>5.8971697</lng>
    </northeast>
   </bounds>
  </geometry>
  <partial_match>true</partial_match>
  <place_id>ChIJ-_9aqCJfyEcRttHV-7b1RdM</place_id>
 </result>
 <result>
  <type>route</type>
  <formatted_address>Frieslandpad, 5709 Helmond, Netherlands</formatted_address>
  <address_component>
   <long_name>Frieslandpad</long_name>
   <short_name>Frieslandpad</short_name>
   <type>route</type>
  </address_component>
  <address_component>
   <long_name>Helmond</long_name>
   <short_name>Helmond</short_name>
   <type>locality</type>
   <type>political</type>
  </address_component>
  <address_component>
   <long_name>Helmond</long_name>
   <short_name>Helmond</short_name>
   <type>administrative_area_level_2</type>
   <type>political</type>
  </address_component>
  <address_component>
   <long_name>Noord-Brabant</long_name>
   <short_name>NB</short_name>
   <type>administrative_area_level_1</type>
   <type>political</type>
  </address_component>
  <address_component>
   <long_name>Netherlands</long_name>
   <short_name>NL</short_name>
   <type>country</type>
   <type>political</type>
  </address_component>
  <address_component>
   <long_name>5709</long_name>
   <short_name>5709</short_name>
   <type>postal_code</type>
   <type>postal_code_prefix</type>
  </address_component>
  <geometry>
   <location>
    <lat>51.4752707</lat>
    <lng>5.7079821</lng>
   </location>
   <location_type>GEOMETRIC_CENTER</location_type>
   <viewport>
    <southwest>
     <lat>51.4740699</lat>
     <lng>5.7012288</lng>
    </southwest>
    <northeast>
     <lat>51.4767679</lat>
     <lng>5.7148021</lng>
    </northeast>
   </viewport>
   <bounds>
    <southwest>
     <lat>51.4748257</lat>
     <lng>5.7012288</lng>
    </southwest>
    <northeast>
     <lat>51.4760121</lat>
     <lng>5.7148021</lng>
    </northeast>
   </bounds>
  </geometry>
  <partial_match>true</partial_match>
  <place_id>ChIJu7-hQ3Ejx0cRzws_byYM8tc</place_id>
 </result>
</GeocodeResponse>
