<?xml version="1.0" encoding="UTF-8"?>
<GeocodeResponse>
 <status>OK</status>
 <result>
  <type>political</type>
  <type>sublocality</type>
  <type>sublocality_level_1</type>
  <formatted_address>Wandsbek, Hamburg, Germany</formatted_address>
  <address_component>
   <long_name>Wandsbek</long_name>
   <short_name>Wandsbek</short_name>
   <type>political</type>
   <type>sublocality</type>
   <type>sublocality_level_1</type>
  </address_component>
  <address_component>
   <long_name>Hamburg</long_name>
   <short_name>Hamburg</short_name>
   <type>locality</type>
   <type>political</type>
  </address_component>
  <address_component>
   <long_name>Hamburg</long_name>
   <short_name>HH</short_name>
   <type>administrative_area_level_1</type>
   <type>political</type>
  </address_component>
  <address_component>
   <long_name>Germany</long_name>
   <short_name>DE</short_name>
   <type>country</type>
   <type>political</type>
  </address_component>
  <geometry>
   <location>
    <lat>53.6536454</lat>
    <lng>10.1070232</lng>
   </location>
   <location_type>APPROXIMATE</location_type>
   <viewport>
    <southwest>
     <lat>53.5592199</lat>
     <lng>10.0200279</lng>
    </southwest>
    <northeast>
     <lat>53.7394750</lat>
     <lng>10.2218602</lng>
    </northeast>
   </viewport>
   <bounds>
    <southwest>
     <lat>53.5592199</lat>
     <lng>10.0200279</lng>
    </southwest>
    <northeast>
     <lat>53.7394750</lat>
     <lng>10.2218602</lng>
    </northeast>
   </bounds>
  </geometry>
  <place_id>ChIJpWV1OgyKsUcREeWFvvKHxFM</place_id>
 </result>
 <result>
  <type>political</type>
  <type>sublocality</type>
  <type>sublocality_level_2</type>
  <formatted_address>Wandsbek, Wandsbek, Hamburg, Germany</formatted_address>
  <address_component>
   <long_name>Wandsbek</long_name>
   <short_name>Wandsbek</short_name>
   <type>political</type>
   <type>sublocality</type>
   <type>sublocality_level_2</type>
  </address_component>
  <address_component>
   <long_name>Wandsbek</long_name>
   <short_name>Wandsbek</short_name>
   <type>political</type>
   <type>sublocality</type>
   <type>sublocality_level_1</type>
  </address_component>
  <address_component>
   <long_name>Hamburg</long_name>
   <short_name>Hamburg</short_name>
   <type>locality</type>
   <type>political</type>
  </address_component>
  <address_component>
   <long_name>Hamburg</long_name>
   <short_name>HH</short_name>
   <type>administrative_area_level_1</type>
   <type>political</type>
  </address_component>
  <address_component>
   <long_name>Germany</long_name>
   <short_name>DE</short_name>
   <type>country</type>
   <type>political</type>
  </address_component>
  <geometry>
   <location>
    <lat>53.5869280</lat>
    <lng>10.0872102</lng>
   </location>
   <location_type>APPROXIMATE</location_type>
   <viewport>
    <southwest>
     <lat>53.5683575</lat>
     <lng>10.0590242</lng>
    </southwest>
    <northeast>
     <lat>53.5991653</lat>
     <lng>10.1043426</lng>
    </northeast>
   </viewport>
   <bounds>
    <southwest>
     <lat>53.5683575</lat>
     <lng>10.0590242</lng>
    </southwest>
    <northeast>
     <lat>53.5991653</lat>
     <lng>10.1043426</lng>
    </northeast>
   </bounds>
  </geometry>
  <place_id>ChIJdX6Nz_qLsUcRG3KlML14mf0</place_id>
 </result>
</GeocodeResponse>
