<?xml version="1.0" encoding="UTF-8"?>
<GeocodeResponse>
 <status>OK</status>
 <result>
  <type>colloquial_area</type>
  <type>political</type>
  <formatted_address>Severoiztochen Planning Region, Bulgaria</formatted_address>
  <address_component>
   <long_name>Severoiztochen Planning Region</long_name>
   <short_name>Severoiztochen Planning Region</short_name>
   <type>colloquial_area</type>
   <type>political</type>
  </address_component>
  <address_component>
   <long_name>Bulgaria</long_name>
   <short_name>BG</short_name>
   <type>country</type>
   <type>political</type>
  </address_component>
  <geometry>
   <location>
    <lat>43.3184140</lat>
    <lng>27.1875197</lng>
   </location>
   <location_type>APPROXIMATE</location_type>
   <viewport>
    <southwest>
     <lat>42.8264008</lat>
     <lng>25.9437854</lng>
    </southwest>
    <northeast>
     <lat>44.0084379</lat>
     <lng>28.6080429</lng>
    </northeast>
   </viewport>
   <bounds>
    <southwest>
     <lat>42.8264008</lat>
     <lng>25.9437854</lng>
    </southwest>
    <northeast>
     <lat>44.0084379</lat>
     <lng>28.6080429</lng>
    </northeast>
   </bounds>
  </geometry>
  <place_id>ChIJX_aVuNCCpUARvDdbXkFcsh0</place_id>
 </result>
 <result>
  <type>route</type>
  <formatted_address>pl. &quot;Bulgaria&quot;, Shumen, Bulgaria</formatted_address>
  <address_component>
   <long_name>ploshtad &quot;Bulgaria&quot;</long_name>
   <short_name>pl. &quot;Bulgaria&quot;</short_name>
   <type>route</type>
  </address_component>
  <address_component>
   <long_name>Shumen</long_name>
   <short_name>Shumen</short_name>
   <type>locality</type>
   <type>political</type>
  </address_component>
  <address_component>
   <long_name>Shumen</long_name>
   <short_name>Shumen</short_name>
   <type>administrative_area_level_1</type>
   <type>political</type>
  </address_component>
  <address_component>
   <long_name>Bulgaria</long_name>
   <short_name>BG</short_name>
   <type>country</type>
   <type>political</type>
  </address_component>
  <geometry>
   <location>
    <lat>43.2713123</lat>
    <lng>26.9358187</lng>
   </location>
   <location_type>GEOMETRIC_CENTER</location_type>
   <viewport>
    <southwest>
     <lat>43.2700139</lat>
     <lng>26.9345141</lng>
    </southwest>
    <northeast>
     <lat>43.2727119</lat>
     <lng>26.9372120</lng>
    </northeast>
   </viewport>
   <bounds>
    <southwest>
     <lat>43.2708172</lat>
     <lng>26.9351310</lng>
    </southwest>
    <northeast>
     <lat>43.2719086</lat>
     <lng>26.9365951</lng>
    </northeast>
   </bounds>
  </geometry>
  <place_id>ChIJD7DKjlmKpUARkMYTR_qgIcs</place_id>
 </result>
 <result>
  <type>route</type>
  <formatted_address>bul. &quot;Bulgaria&quot;, 7800 Popovo, Bulgaria</formatted_address>
  <address_component>
   <long_name>bulevard &quot;Bulgaria&quot;</long_name>
   <short_name>bul. &quot;Bulgaria&quot;</short_name>
   <type>route</type>
  </address_component>
  <address_component>
   <long_name>Popovo</long_name>
   <short_name>Popovo</short_name>
   <type>locality</type>
   <type>political</type>
  </address_component>
  <address_component>
   <long_name>Popovo</long_name>
   <short_name>Popovo</short_name>
   <type>administrative_area_level_2</type>
   <type>political</type>
  </address_component>
  <address_component>
   <long_name>Targovishte</long_name>
   <short_name>Targovishte</short_name>
   <type>administrative_area_level_1</type>
   <type>political</type>
  </address_component>
  <address_component>
   <long_name>Bulgaria</long_name>
   <short_name>BG</short_name>
   <type>country</type>
   <type>political</type>
  </address_component>
  <address_component>
   <long_name>7800</long_name>
   <short_name>7800</short_name>
   <type>postal_code</type>
  </address_component>
  <geometry>
   <location>
    <lat>43.3486670</lat>
    <lng>26.2215770</lng>
   </location>
   <location_type>GEOMETRIC_CENTER</location_type>
   <viewport>
    <southwest>
     <lat>43.3477921</lat>
     <lng>26.2059889</lng>
    </southwest>
    <northeast>
     <lat>43.3512877</lat>
     <lng>26.2363893</lng>
    </northeast>
   </viewport>
   <bounds>
    <southwest>
     <lat>43.3477921</lat>
     <lng>26.2059889</lng>
    </southwest>
    <northeast>
     <lat>43.3512877</lat>
     <lng>26.2363893</lng>
    </northeast>
   </bounds>
  </geometry>
  <place_id>ChIJb-3qGUcjr0ART6Mnv3CIKHs</place_id>
 </result>
 <result>
  <type>route</type>
  <formatted_address>ul. &quot;Bulgaria&quot;, 9300 Dobrich, Bulgaria</formatted_address>
  <address_component>
   <long_name>ulitsa &quot;Bulgaria&quot;</long_name>
   <short_name>ul. &quot;Bulgaria&quot;</short_name>
   <type>route</type>
  </address_component>
  <address_component>
   <long_name>Dobrich</long_name>
   <short_name>Dobrich</short_name>
   <type>locality</type>
   <type>political</type>
  </address_component>
  <address_component>
   <long_name>Dobrich</long_name>
   <short_name>Dobrich</short_name>
   <type>administrative_area_level_1</type>
   <type>political</type>
  </address_component>
  <address_component>
   <long_name>Bulgaria</long_name>
   <short_name>BG</short_name>
   <type>country</type>
   <type>political</type>
  </address_component>
  <address_component>
   <long_name>9300</long_name>
   <short_name>9300</short_name>
   <type>postal_code</type>
  </address_component>
  <geometry>
   <location>
    <lat>43.5678923</lat>
    <lng>27.8263883</lng>
   </location>
   <location_type>GEOMETRIC_CENTER</location_type>
   <viewport>
    <southwest>
     <lat>43.5665211</lat>
     <lng>27.8225767</lng>
    </southwest>
    <northeast>
     <lat>43.5692190</lat>
     <lng>27.8300927</lng>
    </northeast>
   </viewport>
   <bounds>
    <southwest>
     <lat>43.5670422</lat>
     <lng>27.8225767</lng>
    </southwest>
    <northeast>
     <lat>43.5686979</lat>
     <lng>27.8300927</lng>
    </northeast>
   </bounds>
  </geometry>
  <place_id>ChIJHQoNHJ0WpUARYh8nD3RVvkY</place_id>
 </result>
</GeocodeResponse>
