<?xml version="1.0" encoding="UTF-8"?>
<GeocodeResponse>
 <status>OK</status>
 <result>
  <type>route</type>
  <formatted_address>Portugal, Temperley, Buenos Aires, Argentina</formatted_address>
  <address_component>
   <long_name>Portugal</long_name>
   <short_name>Portugal</short_name>
   <type>route</type>
  </address_component>
  <address_component>
   <long_name>Temperley</long_name>
   <short_name>Temperley</short_name>
   <type>locality</type>
   <type>political</type>
  </address_component>
  <address_component>
   <long_name>Lomas de Zamora</long_name>
   <short_name>Lomas de Zamora</short_name>
   <type>administrative_area_level_2</type>
   <type>political</type>
  </address_component>
  <address_component>
   <long_name>Buenos Aires</long_name>
   <short_name>Buenos Aires</short_name>
   <type>administrative_area_level_1</type>
   <type>political</type>
  </address_component>
  <address_component>
   <long_name>Argentina</long_name>
   <short_name>AR</short_name>
   <type>country</type>
   <type>political</type>
  </address_component>
  <geometry>
   <location>
    <lat>-34.7544870</lat>
    <lng>-58.3599503</lng>
   </location>
   <location_type>GEOMETRIC_CENTER</location_type>
   <viewport>
    <southwest>
     <lat>-34.7589322</lat>
     <lng>-58.3638115</lng>
    </southwest>
    <northeast>
     <lat>-34.7494463</lat>
     <lng>-58.3564745</lng>
    </northeast>
   </viewport>
   <bounds>
    <southwest>
     <lat>-34.7589322</lat>
     <lng>-58.3638115</lng>
    </southwest>
    <northeast>
     <lat>-34.7494463</lat>
     <lng>-58.3564745</lng>
    </northeast>
   </bounds>
  </geometry>
  <partial_match>true</partial_match>
  <place_id>ChIJ2ehN3jkto5URCojTGZotamM</place_id>
 </result>
 <result>
  <type>route</type>
  <formatted_address>Portugal, 12800 Montevideo, Departamento de Montevideo, Uruguay</formatted_address>
  <address_component>
   <long_name>Portugal</long_name>
   <short_name>Portugal</short_name>
   <type>route</type>
  </address_component>
  <address_component>
   <long_name>Montevideo</long_name>
   <short_name>Montevideo</short_name>
   <type>locality</type>
   <type>political</type>
  </address_component>
  <address_component>
   <long_name>Departamento de Montevideo</long_name>
   <short_name>Departamento de Montevideo</short_name>
   <type>administrative_area_level_1</type>
   <type>political</type>
  </address_component>
  <address_component>
   <long_name>Uruguay</long_name>
   <short_name>UY</short_name>
   <type>country</type>
   <type>political</type>
  </address_component>
  <address_component>
   <long_name>12800</long_name>
   <short_name>12800</short_name>
   <type>postal_code</type>
  </address_component>
  <geometry>
   <location>
    <lat>-34.8838218</lat>
    <lng>-56.2516021</lng>
   </location>
   <location_type>GEOMETRIC_CENTER</location_type>
   <viewport>
    <southwest>
     <lat>-34.8931375</lat>
     <lng>-56.2535801</lng>
    </southwest>
    <northeast>
     <lat>-34.8740840</lat>
     <lng>-56.2497250</lng>
    </northeast>
   </viewport>
   <bounds>
    <southwest>
     <lat>-34.8931375</lat>
     <lng>-56.2535801</lng>
    </southwest>
    <northeast>
     <lat>-34.8740840</lat>
     <lng>-56.2497250</lng>
    </northeast>
   </bounds>
  </geometry>
  <partial_match>true</partial_match>
  <place_id>ChIJ3x5ejIDVoZUR-QDGCOC0KNY</place_id>
 </result>
 <result>
  <type>route</type>
  <formatted_address>Portugal, Reconquista, Santa Fe, Argentina</formatted_address>
  <address_component>
   <long_name>Portugal</long_name>
   <short_name>Portugal</short_name>
   <type>route</type>
  </address_component>
  <address_component>
   <long_name>Barrio Las Flores</long_name>
   <short_name>Barrio Las Flores</short_name>
   <type>neighborhood</type>
   <type>political</type>
  </address_component>
  <address_component>
   <long_name>Reconquista</long_name>
   <short_name>Reconquista</short_name>
   <type>locality</type>
   <type>political</type>
  </address_component>
  <address_component>
   <long_name>General Obligado</long_name>
   <short_name>Gral Obligado</short_name>
   <type>administrative_area_level_2</type>
   <type>political</type>
  </address_component>
  <address_component>
   <long_name>Santa Fe</long_name>
   <short_name>Santa Fe</short_name>
   <type>administrative_area_level_1</type>
   <type>political</type>
  </address_component>
  <address_component>
   <long_name>Argentina</long_name>
   <short_name>AR</short_name>
   <type>country</type>
   <type>political</type>
  </address_component>
  <geometry>
   <location>
    <lat>-29.1705658</lat>
    <lng>-59.6615571</lng>
   </location>
   <location_type>GEOMETRIC_CENTER</location_type>
   <viewport>
    <southwest>
     <lat>-29.1718400</lat>
     <lng>-59.6660578</lng>
    </southwest>
    <northeast>
     <lat>-29.1691421</lat>
     <lng>-59.6586803</lng>
    </northeast>
   </viewport>
   <bounds>
    <southwest>
     <lat>-29.1708815</lat>
     <lng>-59.6660578</lng>
    </southwest>
    <northeast>
     <lat>-29.1701006</lat>
     <lng>-59.6586803</lng>
    </northeast>
   </bounds>
  </geometry>
  <partial_match>true</partial_match>
  <place_id>ChIJs308_QOwTpQR7GtnIH_4tJw</place_id>
 </result>
 <result>
  <type>route</type>
  <formatted_address>Calle Portugal Sur, San Juan, Argentina</formatted_address>
  <address_component>
   <long_name>Calle Portugal Sur</long_name>
   <short_name>Calle Portugal Sur</short_name>
   <type>route</type>
  </address_component>
  <address_component>
   <long_name>Rawson</long_name>
   <short_name>Rawson</short_name>
   <type>administrative_area_level_2</type>
   <type>political</type>
  </address_component>
  <address_component>
   <long_name>San Juan</long_name>
   <short_name>San Juan</short_name>
   <type>administrative_area_level_1</type>
   <type>political</type>
  </address_component>
  <address_component>
   <long_name>Argentina</long_name>
   <short_name>AR</short_name>
   <type>country</type>
   <type>political</type>
  </address_component>
  <geometry>
   <location>
    <lat>-31.5565843</lat>
    <lng>-68.5723604</lng>
   </location>
   <location_type>GEOMETRIC_CENTER</location_type>
   <viewport>
    <southwest>
     <lat>-31.5582782</lat>
     <lng>-68.5737187</lng>
    </southwest>
    <northeast>
     <lat>-31.5545869</lat>
     <lng>-68.5710208</lng>
    </northeast>
   </viewport>
   <bounds>
    <southwest>
     <lat>-31.5582782</lat>
     <lng>-68.5730297</lng>
    </southwest>
    <northeast>
     <lat>-31.5545869</lat>
     <lng>-68.5717098</lng>
    </northeast>
   </bounds>
  </geometry>
  <partial_match>true</partial_match>
  <place_id>ChIJY4t3q4pAgZYRwInP-Pt09Zo</place_id>
 </result>
 <result>
  <type>route</type>
  <formatted_address>R. Oeste, 1675 Odivelas, Portugal</formatted_address>
  <address_component>
   <long_name>Rua Oeste</long_name>
   <short_name>R. Oeste</short_name>
   <type>route</type>
  </address_component>
  <address_component>
   <long_name>Odivelas</long_name>
   <short_name>Odivelas</short_name>
   <type>locality</type>
   <type>political</type>
  </address_component>
  <address_component>
   <long_name>Odivelas</long_name>
   <short_name>Odivelas</short_name>
   <type>administrative_area_level_2</type>
   <type>political</type>
  </address_component>
  <address_component>
   <long_name>Lisboa</long_name>
   <short_name>Lisboa</short_name>
   <type>administrative_area_level_1</type>
   <type>political</type>
  </address_component>
  <address_component>
   <long_name>Portugal</long_name>
   <short_name>PT</short_name>
   <type>country</type>
   <type>political</type>
  </address_component>
  <address_component>
   <long_name>1675</long_name>
   <short_name>1675</short_name>
   <type>postal_code</type>
   <type>postal_code_prefix</type>
  </address_component>
  <geometry>
   <location>
    <lat>38.7856382</lat>
    <lng>-9.2150787</lng>
   </location>
   <location_type>GEOMETRIC_CENTER</location_type>
   <viewport>
    <southwest>
     <lat>38.7843662</lat>
     <lng>-9.2166612</lng>
    </southwest>
    <northeast>
     <lat>38.7870642</lat>
     <lng>-9.2139633</lng>
    </northeast>
   </viewport>
   <bounds>
    <southwest>
     <lat>38.7854889</lat>
     <lng>-9.2163001</lng>
    </southwest>
    <northeast>
     <lat>38.7859415</lat>
     <lng>-9.2143244</lng>
    </northeast>
   </bounds>
  </geometry>
  <partial_match>true</partial_match>
  <place_id>ChIJsybtLmHNHg0RMzEuKedv1Zs</place_id>
 </result>
 <result>
  <type>route</type>
  <formatted_address>Estr. do Oeste, 2405 Cavalinhos, Portugal</formatted_address>
  <address_component>
   <long_name>Estrada do Oeste</long_name>
   <short_name>Estr. do Oeste</short_name>
   <type>route</type>
  </address_component>
  <address_component>
   <long_name>Cavalinhos</long_name>
   <short_name>Cavalinhos</short_name>
   <type>locality</type>
   <type>political</type>
  </address_component>
  <address_component>
   <long_name>Leiria</long_name>
   <short_name>Leiria</short_name>
   <type>administrative_area_level_2</type>
   <type>political</type>
  </address_component>
  <address_component>
   <long_name>Leiria</long_name>
   <short_name>Leiria</short_name>
   <type>administrative_area_level_1</type>
   <type>political</type>
  </address_component>
  <address_component>
   <long_name>Portugal</long_name>
   <short_name>PT</short_name>
   <type>country</type>
   <type>political</type>
  </address_component>
  <address_component>
   <long_name>2405</long_name>
   <short_name>2405</short_name>
   <type>postal_code</type>
   <type>postal_code_prefix</type>
  </address_component>
  <geometry>
   <location>
    <lat>39.7046096</lat>
    <lng>-8.8816625</lng>
   </location>
   <location_type>GEOMETRIC_CENTER</location_type>
   <viewport>
    <southwest>
     <lat>39.7036049</lat>
     <lng>-8.8857621</lng>
    </southwest>
    <northeast>
     <lat>39.7064037</lat>
     <lng>-8.8777419</lng>
    </northeast>
   </viewport>
   <bounds>
    <southwest>
     <lat>39.7036049</lat>
     <lng>-8.8857621</lng>
    </southwest>
    <northeast>
     <lat>39.7064037</lat>
     <lng>-8.8777419</lng>
    </northeast>
   </bounds>
  </geometry>
  <partial_match>true</partial_match>
  <place_id>ChIJeR_0tZ8LIg0RUE7UMe5Kkqc</place_id>
 </result>
 <result>
  <type>route</type>
  <formatted_address>R. Portugal - Oeste, Sapiranga - RS, 93800-000, Brazil</formatted_address>
  <address_component>
   <long_name>Rua Portugal</long_name>
   <short_name>R. Portugal</short_name>
   <type>route</type>
  </address_component>
  <address_component>
   <long_name>Oeste</long_name>
   <short_name>Oeste</short_name>
   <type>political</type>
   <type>sublocality</type>
   <type>sublocality_level_1</type>
  </address_component>
  <address_component>
   <long_name>Sapiranga</long_name>
   <short_name>Sapiranga</short_name>
   <type>locality</type>
   <type>political</type>
  </address_component>
  <address_component>
   <long_name>Sapiranga</long_name>
   <short_name>Sapiranga</short_name>
   <type>administrative_area_level_2</type>
   <type>political</type>
  </address_component>
  <address_component>
   <long_name>Rio Grande do Sul</long_name>
   <short_name>RS</short_name>
   <type>administrative_area_level_1</type>
   <type>political</type>
  </address_component>
  <address_component>
   <long_name>Brazil</long_name>
   <short_name>BR</short_name>
   <type>country</type>
   <type>political</type>
  </address_component>
  <address_component>
   <long_name>93800-000</long_name>
   <short_name>93800-000</short_name>
   <type>postal_code</type>
  </address_component>
  <geometry>
   <location>
    <lat>-29.6375256</lat>
    <lng>-51.0289932</lng>
   </location>
   <location_type>GEOMETRIC_CENTER</location_type>
   <viewport>
    <southwest>
     <lat>-29.6398853</lat>
     <lng>-51.0303609</lng>
    </southwest>
    <northeast>
     <lat>-29.6356523</lat>
     <lng>-51.0276630</lng>
    </northeast>
   </viewport>
   <bounds>
    <southwest>
     <lat>-29.6398853</lat>
     <lng>-51.0292679</lng>
    </southwest>
    <northeast>
     <lat>-29.6356523</lat>
     <lng>-51.0287560</lng>
    </northeast>
   </bounds>
  </geometry>
  <partial_match>true</partial_match>
  <place_id>ChIJpyph271AGZURWYmKWhjEsT4</place_id>
 </result>
 <result>
  <type>route</type>
  <formatted_address>R. Praceta Oeste, 3500-398 Viseu, Portugal</formatted_address>
  <address_component>
   <long_name>Rua Praceta Oeste</long_name>
   <short_name>R. Praceta Oeste</short_name>
   <type>route</type>
  </address_component>
  <address_component>
   <long_name>Viseu</long_name>
   <short_name>Viseu</short_name>
   <type>locality</type>
   <type>political</type>
  </address_component>
  <address_component>
   <long_name>Ranhados</long_name>
   <short_name>Ranhados</short_name>
   <type>administrative_area_level_3</type>
   <type>political</type>
  </address_component>
  <address_component>
   <long_name>Viseu</long_name>
   <short_name>Viseu</short_name>
   <type>administrative_area_level_2</type>
   <type>political</type>
  </address_component>
  <address_component>
   <long_name>Viseu</long_name>
   <short_name>Viseu</short_name>
   <type>administrative_area_level_1</type>
   <type>political</type>
  </address_component>
  <address_component>
   <long_name>Portugal</long_name>
   <short_name>PT</short_name>
   <type>country</type>
   <type>political</type>
  </address_component>
  <address_component>
   <long_name>3500-398</long_name>
   <short_name>3500-398</short_name>
   <type>postal_code</type>
  </address_component>
  <geometry>
   <location>
    <lat>40.6505579</lat>
    <lng>-7.8915182</lng>
   </location>
   <location_type>GEOMETRIC_CENTER</location_type>
   <viewport>
    <southwest>
     <lat>40.6492321</lat>
     <lng>-7.8929027</lng>
    </southwest>
    <northeast>
     <lat>40.6519301</lat>
     <lng>-7.8902048</lng>
    </northeast>
   </viewport>
   <bounds>
    <southwest>
     <lat>40.6502334</lat>
     <lng>-7.8921863</lng>
    </southwest>
    <northeast>
     <lat>40.6509288</lat>
     <lng>-7.8909212</lng>
    </northeast>
   </bounds>
  </geometry>
  <partial_match>true</partial_match>
  <place_id>ChIJ6eIJUmA2Iw0RpjhN71DEElI</place_id>
 </result>
 <result>
  <type>route</type>
  <formatted_address>R. do Oeste, 2530 Ribamar, Portugal</formatted_address>
  <address_component>
   <long_name>Rua do Oeste</long_name>
   <short_name>R. do Oeste</short_name>
   <type>route</type>
  </address_component>
  <address_component>
   <long_name>Ribamar</long_name>
   <short_name>Ribamar</short_name>
   <type>locality</type>
   <type>political</type>
  </address_component>
  <address_component>
   <long_name>Lisboa</long_name>
   <short_name>Lisboa</short_name>
   <type>administrative_area_level_1</type>
   <type>political</type>
  </address_component>
  <address_component>
   <long_name>Portugal</long_name>
   <short_name>PT</short_name>
   <type>country</type>
   <type>political</type>
  </address_component>
  <address_component>
   <long_name>2530</long_name>
   <short_name>2530</short_name>
   <type>postal_code</type>
   <type>postal_code_prefix</type>
  </address_component>
  <geometry>
   <location>
    <lat>39.2022204</lat>
    <lng>-9.3349783</lng>
   </location>
   <location_type>GEOMETRIC_CENTER</location_type>
   <viewport>
    <southwest>
     <lat>39.2008514</lat>
     <lng>-9.3365149</lng>
    </southwest>
    <northeast>
     <lat>39.2035493</lat>
     <lng>-9.3338169</lng>
    </northeast>
   </viewport>
   <bounds>
    <southwest>
     <lat>39.2019665</lat>
     <lng>-9.3364381</lng>
    </southwest>
    <northeast>
     <lat>39.2024342</lat>
     <lng>-9.3338937</lng>
    </northeast>
   </bounds>
  </geometry>
  <partial_match>true</partial_match>
  <place_id>ChIJBcXgyjE3Hw0R2Z9FPXd48Sw</place_id>
 </result>
</GeocodeResponse>
