<?xml version="1.0" encoding="UTF-8"?>
<GeocodeResponse>
 <status>OK</status>
 <result>
  <type>route</type>
  <formatted_address>Haití, Martínez, Buenos Aires, Argentina</formatted_address>
  <address_component>
   <long_name>Haití</long_name>
   <short_name>Haití</short_name>
   <type>route</type>
  </address_component>
  <address_component>
   <long_name>Martínez</long_name>
   <short_name>Martínez</short_name>
   <type>locality</type>
   <type>political</type>
  </address_component>
  <address_component>
   <long_name>Buenos Aires</long_name>
   <short_name>Buenos Aires</short_name>
   <type>administrative_area_level_1</type>
   <type>political</type>
  </address_component>
  <address_component>
   <long_name>Argentina</long_name>
   <short_name>AR</short_name>
   <type>country</type>
   <type>political</type>
  </address_component>
  <geometry>
   <location>
    <lat>-34.5067538</lat>
    <lng>-58.5344304</lng>
   </location>
   <location_type>GEOMETRIC_CENTER</location_type>
   <viewport>
    <southwest>
     <lat>-34.5137714</lat>
     <lng>-58.5404211</lng>
    </southwest>
    <northeast>
     <lat>-34.4979257</lat>
     <lng>-58.5293223</lng>
    </northeast>
   </viewport>
   <bounds>
    <southwest>
     <lat>-34.5137714</lat>
     <lng>-58.5404211</lng>
    </southwest>
    <northeast>
     <lat>-34.4979257</lat>
     <lng>-58.5293223</lng>
    </northeast>
   </bounds>
  </geometry>
  <place_id>ChIJVVuPu4uwvJURCHnCiOXQTfU</place_id>
 </result>
 <result>
  <type>route</type>
  <formatted_address>Haití, Ituzaingó, Buenos Aires, Argentina</formatted_address>
  <address_component>
   <long_name>Haití</long_name>
   <short_name>Haití</short_name>
   <type>route</type>
  </address_component>
  <address_component>
   <long_name>Ituzaingó</long_name>
   <short_name>Ituzaingó</short_name>
   <type>locality</type>
   <type>political</type>
  </address_component>
  <address_component>
   <long_name>Ituzaingó</long_name>
   <short_name>Ituzaingó</short_name>
   <type>administrative_area_level_2</type>
   <type>political</type>
  </address_component>
  <address_component>
   <long_name>Buenos Aires</long_name>
   <short_name>Buenos Aires</short_name>
   <type>administrative_area_level_1</type>
   <type>political</type>
  </address_component>
  <address_component>
   <long_name>Argentina</long_name>
   <short_name>AR</short_name>
   <type>country</type>
   <type>political</type>
  </address_component>
  <geometry>
   <location>
    <lat>-34.6586204</lat>
    <lng>-58.6961628</lng>
   </location>
   <location_type>GEOMETRIC_CENTER</location_type>
   <viewport>
    <southwest>
     <lat>-34.6642462</lat>
     <lng>-58.7039049</lng>
    </southwest>
    <northeast>
     <lat>-34.6522368</lat>
     <lng>-58.6895956</lng>
    </northeast>
   </viewport>
   <bounds>
    <southwest>
     <lat>-34.6642462</lat>
     <lng>-58.7039049</lng>
    </southwest>
    <northeast>
     <lat>-34.6522368</lat>
     <lng>-58.6895956</lng>
    </northeast>
   </bounds>
  </geometry>
  <place_id>ChIJifBkUIO_vJURt4Fz_XArQTM</place_id>
 </result>
 <result>
  <type>route</type>
  <formatted_address>Haití, Bahía Blanca, Buenos Aires, Argentina</formatted_address>
  <address_component>
   <long_name>Haití</long_name>
   <short_name>Haití</short_name>
   <type>route</type>
  </address_component>
  <address_component>
   <long_name>Bahía Blanca</long_name>
   <short_name>Bahía Blanca</short_name>
   <type>locality</type>
   <type>political</type>
  </address_component>
  <address_component>
   <long_name>Bahía Blanca</long_name>
   <short_name>Bahía Blanca</short_name>
   <type>administrative_area_level_2</type>
   <type>political</type>
  </address_component>
  <address_component>
   <long_name>Buenos Aires</long_name>
   <short_name>Buenos Aires</short_name>
   <type>administrative_area_level_1</type>
   <type>political</type>
  </address_component>
  <address_component>
   <long_name>Argentina</long_name>
   <short_name>AR</short_name>
   <type>country</type>
   <type>political</type>
  </address_component>
  <geometry>
   <location>
    <lat>-38.7115950</lat>
    <lng>-62.2446879</lng>
   </location>
   <location_type>GEOMETRIC_CENTER</location_type>
   <viewport>
    <southwest>
     <lat>-38.7165776</lat>
     <lng>-62.2513908</lng>
    </southwest>
    <northeast>
     <lat>-38.7060664</lat>
     <lng>-62.2395443</lng>
    </northeast>
   </viewport>
   <bounds>
    <southwest>
     <lat>-38.7165776</lat>
     <lng>-62.2513908</lng>
    </southwest>
    <northeast>
     <lat>-38.7060664</lat>
     <lng>-62.2395443</lng>
    </northeast>
   </bounds>
  </geometry>
  <place_id>ChIJQREYb1uj7ZURPGqVlcaLTOw</place_id>
 </result>
 <result>
  <type>route</type>
  <formatted_address>Haití, Carlos Spegazzini, Buenos Aires, Argentina</formatted_address>
  <address_component>
   <long_name>Haití</long_name>
   <short_name>Haití</short_name>
   <type>route</type>
  </address_component>
  <address_component>
   <long_name>Carlos Spegazzini</long_name>
   <short_name>Carlos Spegazzini</short_name>
   <type>locality</type>
   <type>political</type>
  </address_component>
  <address_component>
   <long_name>Ezeiza</long_name>
   <short_name>Ezeiza</short_name>
   <type>administrative_area_level_2</type>
   <type>political</type>
  </address_component>
  <address_component>
   <long_name>Buenos Aires</long_name>
   <short_name>Buenos Aires</short_name>
   <type>administrative_area_level_1</type>
   <type>political</type>
  </address_component>
  <address_component>
   <long_name>Argentina</long_name>
   <short_name>AR</short_name>
   <type>country</type>
   <type>political</type>
  </address_component>
  <geometry>
   <location>
    <lat>-34.9046814</lat>
    <lng>-58.5762012</lng>
   </location>
   <location_type>GEOMETRIC_CENTER</location_type>
   <viewport>
    <southwest>
     <lat>-34.9101608</lat>
     <lng>-58.5813848</lng>
    </southwest>
    <northeast>
     <lat>-34.9001853</lat>
     <lng>-58.5718575</lng>
    </northeast>
   </viewport>
   <bounds>
    <southwest>
     <lat>-34.9101608</lat>
     <lng>-58.5813848</lng>
    </southwest>
    <northeast>
     <lat>-34.9001853</lat>
     <lng>-58.5718575</lng>
    </northeast>
   </bounds>
  </geometry>
  <place_id>ChIJD7Qm0snZvJURY7yxn0uhatY</place_id>
 </result>
 <result>
  <type>route</type>
  <formatted_address>Haití, Tortuguitas, Buenos Aires, Argentina</formatted_address>
  <address_component>
   <long_name>Haití</long_name>
   <short_name>Haití</short_name>
   <type>route</type>
  </address_component>
  <address_component>
   <long_name>Tortuguitas</long_name>
   <short_name>Tortuguitas</short_name>
   <type>locality</type>
   <type>political</type>
  </address_component>
  <address_component>
   <long_name>Malvinas Argentinas</long_name>
   <short_name>Malvinas Argentinas</short_name>
   <type>administrative_area_level_2</type>
   <type>political</type>
  </address_component>
  <address_component>
   <long_name>Buenos Aires</long_name>
   <short_name>Buenos Aires</short_name>
   <type>administrative_area_level_1</type>
   <type>political</type>
  </address_component>
  <address_component>
   <long_name>Argentina</long_name>
   <short_name>AR</short_name>
   <type>country</type>
   <type>political</type>
  </address_component>
  <geometry>
   <location>
    <lat>-34.4745603</lat>
    <lng>-58.7468699</lng>
   </location>
   <location_type>GEOMETRIC_CENTER</location_type>
   <viewport>
    <southwest>
     <lat>-34.4790693</lat>
     <lng>-58.7545165</lng>
    </southwest>
    <northeast>
     <lat>-34.4697681</lat>
     <lng>-58.7381131</lng>
    </northeast>
   </viewport>
   <bounds>
    <southwest>
     <lat>-34.4790693</lat>
     <lng>-58.7545165</lng>
    </southwest>
    <northeast>
     <lat>-34.4697681</lat>
     <lng>-58.7381131</lng>
    </northeast>
   </bounds>
  </geometry>
  <place_id>ChIJq7H3qYWYvJURSjdD1xrdQ14</place_id>
 </result>
 <result>
  <type>route</type>
  <formatted_address>Haití, San Miguel de Tucumán, Tucumán, Argentina</formatted_address>
  <address_component>
   <long_name>Haití</long_name>
   <short_name>Haití</short_name>
   <type>route</type>
  </address_component>
  <address_component>
   <long_name>San Miguel de Tucumán</long_name>
   <short_name>San Miguel de Tucumán</short_name>
   <type>locality</type>
   <type>political</type>
  </address_component>
  <address_component>
   <long_name>Capital</long_name>
   <short_name>Capital</short_name>
   <type>administrative_area_level_2</type>
   <type>political</type>
  </address_component>
  <address_component>
   <long_name>Tucumán</long_name>
   <short_name>Tucumán</short_name>
   <type>administrative_area_level_1</type>
   <type>political</type>
  </address_component>
  <address_component>
   <long_name>Argentina</long_name>
   <short_name>AR</short_name>
   <type>country</type>
   <type>political</type>
  </address_component>
  <geometry>
   <location>
    <lat>-26.8256815</lat>
    <lng>-65.1939194</lng>
   </location>
   <location_type>GEOMETRIC_CENTER</location_type>
   <viewport>
    <southwest>
     <lat>-26.8269927</lat>
     <lng>-65.1955171</lng>
    </southwest>
    <northeast>
     <lat>-26.8242947</lat>
     <lng>-65.1928191</lng>
    </northeast>
   </viewport>
   <bounds>
    <southwest>
     <lat>-26.8258762</lat>
     <lng>-65.1954853</lng>
    </southwest>
    <northeast>
     <lat>-26.8254112</lat>
     <lng>-65.1928509</lng>
    </northeast>
   </bounds>
  </geometry>
  <place_id>ChIJfQ6aLRxcIpQRKoeeXmsxZgk</place_id>
 </result>
 <result>
  <type>route</type>
  <formatted_address>Haití, Resistencia, Chaco, Argentina</formatted_address>
  <address_component>
   <long_name>Haití</long_name>
   <short_name>Haití</short_name>
   <type>route</type>
  </address_component>
  <address_component>
   <long_name>Resistencia</long_name>
   <short_name>Resistencia</short_name>
   <type>locality</type>
   <type>political</type>
  </address_component>
  <address_component>
   <long_name>San Fernando</long_name>
   <short_name>San Fernando</short_name>
   <type>administrative_area_level_2</type>
   <type>political</type>
  </address_component>
  <address_component>
   <long_name>Chaco</long_name>
   <short_name>Chaco</short_name>
   <type>administrative_area_level_1</type>
   <type>political</type>
  </address_component>
  <address_component>
   <long_name>Argentina</long_name>
   <short_name>AR</short_name>
   <type>country</type>
   <type>political</type>
  </address_component>
  <geometry>
   <location>
    <lat>-27.4816495</lat>
    <lng>-59.0062114</lng>
   </location>
   <location_type>GEOMETRIC_CENTER</location_type>
   <viewport>
    <southwest>
     <lat>-27.4879792</lat>
     <lng>-59.0133493</lng>
    </southwest>
    <northeast>
     <lat>-27.4752350</lat>
     <lng>-58.9990808</lng>
    </northeast>
   </viewport>
   <bounds>
    <southwest>
     <lat>-27.4879792</lat>
     <lng>-59.0133493</lng>
    </southwest>
    <northeast>
     <lat>-27.4752350</lat>
     <lng>-58.9990808</lng>
    </northeast>
   </bounds>
  </geometry>
  <place_id>ChIJOVHM26UMRZQRC40tJlFsaJc</place_id>
 </result>
 <result>
  <type>route</type>
  <formatted_address>Haití, Cdad. Autónoma de Buenos Aires, Argentina</formatted_address>
  <address_component>
   <long_name>Haití</long_name>
   <short_name>Haití</short_name>
   <type>route</type>
  </address_component>
  <address_component>
   <long_name>Floresta</long_name>
   <short_name>Floresta</short_name>
   <type>political</type>
   <type>sublocality</type>
   <type>sublocality_level_1</type>
  </address_component>
  <address_component>
   <long_name>Comuna 10</long_name>
   <short_name>Comuna 10</short_name>
   <type>administrative_area_level_2</type>
   <type>political</type>
  </address_component>
  <address_component>
   <long_name>Ciudad Autónoma de Buenos Aires</long_name>
   <short_name>CABA</short_name>
   <type>administrative_area_level_1</type>
   <type>political</type>
  </address_component>
  <address_component>
   <long_name>Argentina</long_name>
   <short_name>AR</short_name>
   <type>country</type>
   <type>political</type>
  </address_component>
  <geometry>
   <location>
    <lat>-34.6237855</lat>
    <lng>-58.4895285</lng>
   </location>
   <location_type>GEOMETRIC_CENTER</location_type>
   <viewport>
    <southwest>
     <lat>-34.6254925</lat>
     <lng>-58.4913201</lng>
    </southwest>
    <northeast>
     <lat>-34.6227945</lat>
     <lng>-58.4886026</lng>
    </northeast>
   </viewport>
   <bounds>
    <southwest>
     <lat>-34.6252620</lat>
     <lng>-58.4913201</lng>
    </southwest>
    <northeast>
     <lat>-34.6230250</lat>
     <lng>-58.4886026</lng>
    </northeast>
   </bounds>
  </geometry>
  <place_id>ChIJr581ZsHJvJURUY9XjNCv_fo</place_id>
 </result>
</GeocodeResponse>
