<?xml version="1.0" encoding="UTF-8"?>
<GeocodeResponse>
 <status>OK</status>
 <result>
  <type>route</type>
  <formatted_address>Guyana, Arrecifes, Buenos Aires, Argentina</formatted_address>
  <address_component>
   <long_name>Guyana</long_name>
   <short_name>Guyana</short_name>
   <type>route</type>
  </address_component>
  <address_component>
   <long_name>Arrecifes</long_name>
   <short_name>Arrecifes</short_name>
   <type>locality</type>
   <type>political</type>
  </address_component>
  <address_component>
   <long_name>Arrecifes</long_name>
   <short_name>Arrecifes</short_name>
   <type>administrative_area_level_2</type>
   <type>political</type>
  </address_component>
  <address_component>
   <long_name>Buenos Aires</long_name>
   <short_name>Buenos Aires</short_name>
   <type>administrative_area_level_1</type>
   <type>political</type>
  </address_component>
  <address_component>
   <long_name>Argentina</long_name>
   <short_name>AR</short_name>
   <type>country</type>
   <type>political</type>
  </address_component>
  <geometry>
   <location>
    <lat>-34.0731095</lat>
    <lng>-60.0901760</lng>
   </location>
   <location_type>GEOMETRIC_CENTER</location_type>
   <viewport>
    <southwest>
     <lat>-34.0744524</lat>
     <lng>-60.0945725</lng>
    </southwest>
    <northeast>
     <lat>-34.0717545</lat>
     <lng>-60.0844734</lng>
    </northeast>
   </viewport>
   <bounds>
    <southwest>
     <lat>-34.0731724</lat>
     <lng>-60.0945725</lng>
    </southwest>
    <northeast>
     <lat>-34.0730345</lat>
     <lng>-60.0844734</lng>
    </northeast>
   </bounds>
  </geometry>
  <place_id>ChIJaSLmfZGduZUR8oqLHuWdcp4</place_id>
 </result>
 <result>
  <type>route</type>
  <formatted_address>Guyana, Godoy Cruz, Mendoza, Argentina</formatted_address>
  <address_component>
   <long_name>Guyana</long_name>
   <short_name>Guyana</short_name>
   <type>route</type>
  </address_component>
  <address_component>
   <long_name>Godoy Cruz</long_name>
   <short_name>Godoy Cruz</short_name>
   <type>locality</type>
   <type>political</type>
  </address_component>
  <address_component>
   <long_name>Godoy Cruz</long_name>
   <short_name>Godoy Cruz</short_name>
   <type>administrative_area_level_2</type>
   <type>political</type>
  </address_component>
  <address_component>
   <long_name>Mendoza</long_name>
   <short_name>Mendoza</short_name>
   <type>administrative_area_level_1</type>
   <type>political</type>
  </address_component>
  <address_component>
   <long_name>Argentina</long_name>
   <short_name>AR</short_name>
   <type>country</type>
   <type>political</type>
  </address_component>
  <geometry>
   <location>
    <lat>-32.9098219</lat>
    <lng>-68.8844279</lng>
   </location>
   <location_type>GEOMETRIC_CENTER</location_type>
   <viewport>
    <southwest>
     <lat>-32.9111631</lat>
     <lng>-68.8861624</lng>
    </southwest>
    <northeast>
     <lat>-32.9084651</lat>
     <lng>-68.8826038</lng>
    </northeast>
   </viewport>
   <bounds>
    <southwest>
     <lat>-32.9102422</lat>
     <lng>-68.8861624</lng>
    </southwest>
    <northeast>
     <lat>-32.9093860</lat>
     <lng>-68.8826038</lng>
    </northeast>
   </bounds>
  </geometry>
  <place_id>ChIJF5VzPMAJfpYRUI-MzKpI9tc</place_id>
 </result>
 <result>
  <type>route</type>
  <formatted_address>Guyana, Salto, Buenos Aires, Argentina</formatted_address>
  <address_component>
   <long_name>Guyana</long_name>
   <short_name>Guyana</short_name>
   <type>route</type>
  </address_component>
  <address_component>
   <long_name>Salto</long_name>
   <short_name>Salto</short_name>
   <type>locality</type>
   <type>political</type>
  </address_component>
  <address_component>
   <long_name>Salto</long_name>
   <short_name>Salto</short_name>
   <type>administrative_area_level_2</type>
   <type>political</type>
  </address_component>
  <address_component>
   <long_name>Buenos Aires</long_name>
   <short_name>Buenos Aires</short_name>
   <type>administrative_area_level_1</type>
   <type>political</type>
  </address_component>
  <address_component>
   <long_name>Argentina</long_name>
   <short_name>AR</short_name>
   <type>country</type>
   <type>political</type>
  </address_component>
  <geometry>
   <location>
    <lat>-34.3063029</lat>
    <lng>-60.2512360</lng>
   </location>
   <location_type>GEOMETRIC_CENTER</location_type>
   <viewport>
    <southwest>
     <lat>-34.3076162</lat>
     <lng>-60.2525950</lng>
    </southwest>
    <northeast>
     <lat>-34.3049182</lat>
     <lng>-60.2498971</lng>
    </northeast>
   </viewport>
   <bounds>
    <southwest>
     <lat>-34.3071980</lat>
     <lng>-60.2514132</lng>
    </southwest>
    <northeast>
     <lat>-34.3053364</lat>
     <lng>-60.2510789</lng>
    </northeast>
   </bounds>
  </geometry>
  <place_id>ChIJlf-ACIwSuZURyOm5iTiWK3c</place_id>
 </result>
 <result>
  <type>route</type>
  <formatted_address>Guyana, Misiónes, Argentina</formatted_address>
  <address_component>
   <long_name>Guyana</long_name>
   <short_name>Guyana</short_name>
   <type>route</type>
  </address_component>
  <address_component>
   <long_name>El Dorado</long_name>
   <short_name>El Dorado</short_name>
   <type>administrative_area_level_2</type>
   <type>political</type>
  </address_component>
  <address_component>
   <long_name>Misiónes</long_name>
   <short_name>Misiónes</short_name>
   <type>administrative_area_level_1</type>
   <type>political</type>
  </address_component>
  <address_component>
   <long_name>Argentina</long_name>
   <short_name>AR</short_name>
   <type>country</type>
   <type>political</type>
  </address_component>
  <geometry>
   <location>
    <lat>-26.4036075</lat>
    <lng>-54.6457762</lng>
   </location>
   <location_type>GEOMETRIC_CENTER</location_type>
   <viewport>
    <southwest>
     <lat>-26.4049670</lat>
     <lng>-54.6474017</lng>
    </southwest>
    <northeast>
     <lat>-26.4022691</lat>
     <lng>-54.6447037</lng>
    </northeast>
   </viewport>
   <bounds>
    <southwest>
     <lat>-26.4036291</lat>
     <lng>-54.6463470</lng>
    </southwest>
    <northeast>
     <lat>-26.4036070</lat>
     <lng>-54.6457584</lng>
    </northeast>
   </bounds>
  </geometry>
  <place_id>ChIJsZbAxEly95QRGhWr_1ORvQY</place_id>
 </result>
</GeocodeResponse>
