<?xml version="1.0" encoding="UTF-8"?>
<GeocodeResponse>
 <status>OK</status>
 <result>
  <type>route</type>
  <formatted_address>Jamaica Ave, Fulham Gardens SA 5024, Australia</formatted_address>
  <address_component>
   <long_name>Jamaica Avenue</long_name>
   <short_name>Jamaica Ave</short_name>
   <type>route</type>
  </address_component>
  <address_component>
   <long_name>Fulham Gardens</long_name>
   <short_name>Fulham Gardens</short_name>
   <type>locality</type>
   <type>political</type>
  </address_component>
  <address_component>
   <long_name>City of Charles Sturt</long_name>
   <short_name>Charles Sturt</short_name>
   <type>administrative_area_level_2</type>
   <type>political</type>
  </address_component>
  <address_component>
   <long_name>South Australia</long_name>
   <short_name>SA</short_name>
   <type>administrative_area_level_1</type>
   <type>political</type>
  </address_component>
  <address_component>
   <long_name>Australia</long_name>
   <short_name>AU</short_name>
   <type>country</type>
   <type>political</type>
  </address_component>
  <address_component>
   <long_name>5024</long_name>
   <short_name>5024</short_name>
   <type>postal_code</type>
  </address_component>
  <geometry>
   <location>
    <lat>-34.9168650</lat>
    <lng>138.5177416</lng>
   </location>
   <location_type>GEOMETRIC_CENTER</location_type>
   <viewport>
    <southwest>
     <lat>-34.9184640</lat>
     <lng>138.5137021</lng>
    </southwest>
    <northeast>
     <lat>-34.9157660</lat>
     <lng>138.5206270</lng>
    </northeast>
   </viewport>
   <bounds>
    <southwest>
     <lat>-34.9180448</lat>
     <lng>138.5137021</lng>
    </southwest>
    <northeast>
     <lat>-34.9161852</lat>
     <lng>138.5206270</lng>
    </northeast>
   </bounds>
  </geometry>
  <partial_match>true</partial_match>
  <place_id>ChIJ7cor5FTEsGoR0PDK85IFzpY</place_id>
 </result>
 <result>
  <type>route</type>
  <formatted_address>Jamaica Way, Parrearra QLD 4575, Australia</formatted_address>
  <address_component>
   <long_name>Jamaica Way</long_name>
   <short_name>Jamaica Way</short_name>
   <type>route</type>
  </address_component>
  <address_component>
   <long_name>Parrearra</long_name>
   <short_name>Parrearra</short_name>
   <type>locality</type>
   <type>political</type>
  </address_component>
  <address_component>
   <long_name>Sunshine Coast Regional</long_name>
   <short_name>Sunshine Coast</short_name>
   <type>administrative_area_level_2</type>
   <type>political</type>
  </address_component>
  <address_component>
   <long_name>Queensland</long_name>
   <short_name>QLD</short_name>
   <type>administrative_area_level_1</type>
   <type>political</type>
  </address_component>
  <address_component>
   <long_name>Australia</long_name>
   <short_name>AU</short_name>
   <type>country</type>
   <type>political</type>
  </address_component>
  <address_component>
   <long_name>4575</long_name>
   <short_name>4575</short_name>
   <type>postal_code</type>
  </address_component>
  <geometry>
   <location>
    <lat>-26.7140143</lat>
    <lng>153.1224054</lng>
   </location>
   <location_type>GEOMETRIC_CENTER</location_type>
   <viewport>
    <southwest>
     <lat>-26.7154389</lat>
     <lng>153.1206175</lng>
    </southwest>
    <northeast>
     <lat>-26.7127410</lat>
     <lng>153.1235264</lng>
    </northeast>
   </viewport>
   <bounds>
    <southwest>
     <lat>-26.7148106</lat>
     <lng>153.1206175</lng>
    </southwest>
    <northeast>
     <lat>-26.7133693</lat>
     <lng>153.1235264</lng>
    </northeast>
   </bounds>
  </geometry>
  <partial_match>true</partial_match>
  <place_id>ChIJQaFLNhCek2sRnNz_H9o2Pzw</place_id>
 </result>
 <result>
  <type>route</type>
  <formatted_address>Jamaica Crossing, Langford WA 6147, Australia</formatted_address>
  <address_component>
   <long_name>Jamaica Crossing</long_name>
   <short_name>Jamaica Crossing</short_name>
   <type>route</type>
  </address_component>
  <address_component>
   <long_name>Langford</long_name>
   <short_name>Langford</short_name>
   <type>locality</type>
   <type>political</type>
  </address_component>
  <address_component>
   <long_name>City of Gosnells</long_name>
   <short_name>Gosnells</short_name>
   <type>administrative_area_level_2</type>
   <type>political</type>
  </address_component>
  <address_component>
   <long_name>Western Australia</long_name>
   <short_name>WA</short_name>
   <type>administrative_area_level_1</type>
   <type>political</type>
  </address_component>
  <address_component>
   <long_name>Australia</long_name>
   <short_name>AU</short_name>
   <type>country</type>
   <type>political</type>
  </address_component>
  <address_component>
   <long_name>6147</long_name>
   <short_name>6147</short_name>
   <type>postal_code</type>
  </address_component>
  <geometry>
   <location>
    <lat>-32.0452389</lat>
    <lng>115.9384116</lng>
   </location>
   <location_type>GEOMETRIC_CENTER</location_type>
   <viewport>
    <southwest>
     <lat>-32.0465743</lat>
     <lng>115.9371042</lng>
    </southwest>
    <northeast>
     <lat>-32.0438763</lat>
     <lng>115.9398224</lng>
    </northeast>
   </viewport>
   <bounds>
    <southwest>
     <lat>-32.0464740</lat>
     <lng>115.9371042</lng>
    </southwest>
    <northeast>
     <lat>-32.0439766</lat>
     <lng>115.9398224</lng>
    </northeast>
   </bounds>
  </geometry>
  <partial_match>true</partial_match>
  <place_id>ChIJixBscee9MioRETo9FsPoZus</place_id>
 </result>
 <result>
  <type>route</type>
  <formatted_address>Jamaica Cres, Bushland Beach QLD 4818, Australia</formatted_address>
  <address_component>
   <long_name>Jamaica Crescent</long_name>
   <short_name>Jamaica Cres</short_name>
   <type>route</type>
  </address_component>
  <address_component>
   <long_name>Bushland Beach</long_name>
   <short_name>Bushland Beach</short_name>
   <type>locality</type>
   <type>political</type>
  </address_component>
  <address_component>
   <long_name>Townsville City</long_name>
   <short_name>Townsville</short_name>
   <type>administrative_area_level_2</type>
   <type>political</type>
  </address_component>
  <address_component>
   <long_name>Queensland</long_name>
   <short_name>QLD</short_name>
   <type>administrative_area_level_1</type>
   <type>political</type>
  </address_component>
  <address_component>
   <long_name>Australia</long_name>
   <short_name>AU</short_name>
   <type>country</type>
   <type>political</type>
  </address_component>
  <address_component>
   <long_name>4818</long_name>
   <short_name>4818</short_name>
   <type>postal_code</type>
  </address_component>
  <geometry>
   <location>
    <lat>-19.1868667</lat>
    <lng>146.6662108</lng>
   </location>
   <location_type>GEOMETRIC_CENTER</location_type>
   <viewport>
    <southwest>
     <lat>-19.1884634</lat>
     <lng>146.6646936</lng>
    </southwest>
    <northeast>
     <lat>-19.1856688</lat>
     <lng>146.6678522</lng>
    </northeast>
   </viewport>
   <bounds>
    <southwest>
     <lat>-19.1884634</lat>
     <lng>146.6646936</lng>
    </southwest>
    <northeast>
     <lat>-19.1856688</lat>
     <lng>146.6678522</lng>
    </northeast>
   </bounds>
  </geometry>
  <partial_match>true</partial_match>
  <place_id>ChIJy4iMPfEdfmkRA52vpL2Wgds</place_id>
 </result>
 <result>
  <type>route</type>
  <formatted_address>Jamaica Ln, Clarkson WA 6030, Australia</formatted_address>
  <address_component>
   <long_name>Jamaica Lane</long_name>
   <short_name>Jamaica Ln</short_name>
   <type>route</type>
  </address_component>
  <address_component>
   <long_name>Clarkson</long_name>
   <short_name>Clarkson</short_name>
   <type>locality</type>
   <type>political</type>
  </address_component>
  <address_component>
   <long_name>City of Wanneroo</long_name>
   <short_name>Wanneroo</short_name>
   <type>administrative_area_level_2</type>
   <type>political</type>
  </address_component>
  <address_component>
   <long_name>Western Australia</long_name>
   <short_name>WA</short_name>
   <type>administrative_area_level_1</type>
   <type>political</type>
  </address_component>
  <address_component>
   <long_name>Australia</long_name>
   <short_name>AU</short_name>
   <type>country</type>
   <type>political</type>
  </address_component>
  <address_component>
   <long_name>6030</long_name>
   <short_name>6030</short_name>
   <type>postal_code</type>
  </address_component>
  <geometry>
   <location>
    <lat>-31.6882856</lat>
    <lng>115.7183023</lng>
   </location>
   <location_type>GEOMETRIC_CENTER</location_type>
   <viewport>
    <southwest>
     <lat>-31.6895011</lat>
     <lng>115.7173130</lng>
    </southwest>
    <northeast>
     <lat>-31.6868031</lat>
     <lng>115.7200109</lng>
    </northeast>
   </viewport>
   <bounds>
    <southwest>
     <lat>-31.6883932</lat>
     <lng>115.7180590</lng>
    </southwest>
    <northeast>
     <lat>-31.6879110</lat>
     <lng>115.7192649</lng>
    </northeast>
   </bounds>
  </geometry>
  <partial_match>true</partial_match>
  <place_id>ChIJubJ_fIJWzSsRY4Mq9Ij61GU</place_id>
 </result>
 <result>
  <type>route</type>
  <formatted_address>Jamaica St, Sunnybank QLD 4109, Australia</formatted_address>
  <address_component>
   <long_name>Jamaica Street</long_name>
   <short_name>Jamaica St</short_name>
   <type>route</type>
  </address_component>
  <address_component>
   <long_name>Sunnybank</long_name>
   <short_name>Sunnybank</short_name>
   <type>locality</type>
   <type>political</type>
  </address_component>
  <address_component>
   <long_name>Brisbane City</long_name>
   <short_name>Brisbane</short_name>
   <type>administrative_area_level_2</type>
   <type>political</type>
  </address_component>
  <address_component>
   <long_name>Queensland</long_name>
   <short_name>QLD</short_name>
   <type>administrative_area_level_1</type>
   <type>political</type>
  </address_component>
  <address_component>
   <long_name>Australia</long_name>
   <short_name>AU</short_name>
   <type>country</type>
   <type>political</type>
  </address_component>
  <address_component>
   <long_name>4109</long_name>
   <short_name>4109</short_name>
   <type>postal_code</type>
  </address_component>
  <geometry>
   <location>
    <lat>-27.5730093</lat>
    <lng>153.0512336</lng>
   </location>
   <location_type>GEOMETRIC_CENTER</location_type>
   <viewport>
    <southwest>
     <lat>-27.5746294</lat>
     <lng>153.0498636</lng>
    </southwest>
    <northeast>
     <lat>-27.5719314</lat>
     <lng>153.0525615</lng>
    </northeast>
   </viewport>
   <bounds>
    <southwest>
     <lat>-27.5739028</lat>
     <lng>153.0508396</lng>
    </southwest>
    <northeast>
     <lat>-27.5726580</lat>
     <lng>153.0515855</lng>
    </northeast>
   </bounds>
  </geometry>
  <partial_match>true</partial_match>
  <place_id>ChIJ1Z_HRiNFkWsR0ZyX4lSCZYA</place_id>
 </result>
 <result>
  <type>route</type>
  <formatted_address>Jamaica Dr, Deception Bay QLD 4508, Australia</formatted_address>
  <address_component>
   <long_name>Jamaica Drive</long_name>
   <short_name>Jamaica Dr</short_name>
   <type>route</type>
  </address_component>
  <address_component>
   <long_name>Deception Bay</long_name>
   <short_name>Deception Bay</short_name>
   <type>locality</type>
   <type>political</type>
  </address_component>
  <address_component>
   <long_name>Moreton Bay Regional</long_name>
   <short_name>Moreton Bay</short_name>
   <type>administrative_area_level_2</type>
   <type>political</type>
  </address_component>
  <address_component>
   <long_name>Queensland</long_name>
   <short_name>QLD</short_name>
   <type>administrative_area_level_1</type>
   <type>political</type>
  </address_component>
  <address_component>
   <long_name>Australia</long_name>
   <short_name>AU</short_name>
   <type>country</type>
   <type>political</type>
  </address_component>
  <address_component>
   <long_name>4508</long_name>
   <short_name>4508</short_name>
   <type>postal_code</type>
  </address_component>
  <geometry>
   <location>
    <lat>-27.1654147</lat>
    <lng>153.0211542</lng>
   </location>
   <location_type>GEOMETRIC_CENTER</location_type>
   <viewport>
    <southwest>
     <lat>-27.1686361</lat>
     <lng>153.0177633</lng>
    </southwest>
    <northeast>
     <lat>-27.1633416</lat>
     <lng>153.0232024</lng>
    </northeast>
   </viewport>
   <bounds>
    <southwest>
     <lat>-27.1686361</lat>
     <lng>153.0177633</lng>
    </southwest>
    <northeast>
     <lat>-27.1633416</lat>
     <lng>153.0232024</lng>
    </northeast>
   </bounds>
  </geometry>
  <partial_match>true</partial_match>
  <place_id>ChIJZa3Q29bvk2sR3zwP8UCjP0U</place_id>
 </result>
 <result>
  <type>route</type>
  <formatted_address>Jamaica St, Bombo NSW 2533, Australia</formatted_address>
  <address_component>
   <long_name>Jamaica Street</long_name>
   <short_name>Jamaica St</short_name>
   <type>route</type>
  </address_component>
  <address_component>
   <long_name>Bombo</long_name>
   <short_name>Bombo</short_name>
   <type>locality</type>
   <type>political</type>
  </address_component>
  <address_component>
   <long_name>The Council of the Municipality of Kiama</long_name>
   <short_name>Kiama</short_name>
   <type>administrative_area_level_2</type>
   <type>political</type>
  </address_component>
  <address_component>
   <long_name>New South Wales</long_name>
   <short_name>NSW</short_name>
   <type>administrative_area_level_1</type>
   <type>political</type>
  </address_component>
  <address_component>
   <long_name>Australia</long_name>
   <short_name>AU</short_name>
   <type>country</type>
   <type>political</type>
  </address_component>
  <address_component>
   <long_name>2533</long_name>
   <short_name>2533</short_name>
   <type>postal_code</type>
  </address_component>
  <geometry>
   <location>
    <lat>-34.6522348</lat>
    <lng>150.8475838</lng>
   </location>
   <location_type>GEOMETRIC_CENTER</location_type>
   <viewport>
    <southwest>
     <lat>-34.6534529</lat>
     <lng>150.8461296</lng>
    </southwest>
    <northeast>
     <lat>-34.6507549</lat>
     <lng>150.8488276</lng>
    </northeast>
   </viewport>
   <bounds>
    <southwest>
     <lat>-34.6524664</lat>
     <lng>150.8468578</lng>
    </southwest>
    <northeast>
     <lat>-34.6517414</lat>
     <lng>150.8480994</lng>
    </northeast>
   </bounds>
  </geometry>
  <partial_match>true</partial_match>
  <place_id>ChIJuz7q7GJsE2sRaA8TAFMHPoo</place_id>
 </result>
</GeocodeResponse>
