<?xml version="1.0" encoding="UTF-8"?>
<GeocodeResponse>
 <status>OK</status>
 <result>
  <type>administrative_area_level_2</type>
  <type>political</type>
  <formatted_address>Northern Aegean, Greece</formatted_address>
  <address_component>
   <long_name>Northern Aegean</long_name>
   <short_name>Northern Aegean</short_name>
   <type>administrative_area_level_2</type>
   <type>political</type>
  </address_component>
  <address_component>
   <long_name>Egeo</long_name>
   <short_name>Egeo</short_name>
   <type>administrative_area_level_1</type>
   <type>political</type>
  </address_component>
  <address_component>
   <long_name>Greece</long_name>
   <short_name>GR</short_name>
   <type>country</type>
   <type>political</type>
  </address_component>
  <geometry>
   <location>
    <lat>39.1069632</lat>
    <lng>26.5579824</lng>
   </location>
   <location_type>APPROXIMATE</location_type>
   <viewport>
    <southwest>
     <lat>38.9618186</lat>
     <lng>25.8199693</lng>
    </southwest>
    <northeast>
     <lat>39.3901728</lat>
     <lng>26.6158306</lng>
    </northeast>
   </viewport>
   <bounds>
    <southwest>
     <lat>37.5034773</lat>
     <lng>24.9706939</lng>
    </southwest>
    <northeast>
     <lat>40.0360188</lat>
     <lng>27.0697658</lng>
    </northeast>
   </bounds>
  </geometry>
  <place_id>ChIJe5y5K0pduxQRIMa54iy9AAE</place_id>
 </result>
</GeocodeResponse>
