<?xml version="1.0" encoding="UTF-8"?>
<GeocodeResponse>
 <status>OK</status>
 <result>
  <type>administrative_area_level_3</type>
  <type>political</type>
  <formatted_address>Adur District, West Sussex, UK</formatted_address>
  <address_component>
   <long_name>Adur District</long_name>
   <short_name>Adur District</short_name>
   <type>administrative_area_level_3</type>
   <type>political</type>
  </address_component>
  <address_component>
   <long_name>West Sussex</long_name>
   <short_name>West Sussex</short_name>
   <type>administrative_area_level_2</type>
   <type>political</type>
  </address_component>
  <address_component>
   <long_name>England</long_name>
   <short_name>England</short_name>
   <type>administrative_area_level_1</type>
   <type>political</type>
  </address_component>
  <address_component>
   <long_name>United Kingdom</long_name>
   <short_name>GB</short_name>
   <type>country</type>
   <type>political</type>
  </address_component>
  <geometry>
   <location>
    <lat>50.8348175</lat>
    <lng>-0.3101263</lng>
   </location>
   <location_type>APPROXIMATE</location_type>
   <viewport>
    <southwest>
     <lat>50.8161081</lat>
     <lng>-0.3715425</lng>
    </southwest>
    <northeast>
     <lat>50.8747450</lat>
     <lng>-0.2153221</lng>
    </northeast>
   </viewport>
   <bounds>
    <southwest>
     <lat>50.8161081</lat>
     <lng>-0.3715425</lng>
    </southwest>
    <northeast>
     <lat>50.8747450</lat>
     <lng>-0.2153221</lng>
    </northeast>
   </bounds>
  </geometry>
  <place_id>ChIJyU9ZVl-XdUgRkE3toi2uDgQ</place_id>
 </result>
 <result>
  <type>natural_feature</type>
  <type>establishment</type>
  <formatted_address>River Adur, United Kingdom</formatted_address>
  <address_component>
   <long_name>River Adur</long_name>
   <short_name>River Adur</short_name>
   <type>natural_feature</type>
   <type>establishment</type>
  </address_component>
  <address_component>
   <long_name>United Kingdom</long_name>
   <short_name>GB</short_name>
   <type>country</type>
   <type>political</type>
  </address_component>
  <geometry>
   <location>
    <lat>50.8984185</lat>
    <lng>-0.2558562</lng>
   </location>
   <location_type>APPROXIMATE</location_type>
   <viewport>
    <southwest>
     <lat>50.8248742</lat>
     <lng>-0.3104143</lng>
    </southwest>
    <northeast>
     <lat>50.9719628</lat>
     <lng>-0.2012981</lng>
    </northeast>
   </viewport>
   <bounds>
    <southwest>
     <lat>50.8248742</lat>
     <lng>-0.3104143</lng>
    </southwest>
    <northeast>
     <lat>50.9719628</lat>
     <lng>-0.2012981</lng>
    </northeast>
   </bounds>
  </geometry>
  <place_id>ChIJ6ZPaID2RdUgRRQUCKjyByxE</place_id>
 </result>
</GeocodeResponse>
