<?xml version="1.0" encoding="UTF-8"?>
<GeocodeResponse>
 <status>OK</status>
 <result>
  <type>route</type>
  <formatted_address>Crewe Rd, Cheshire East, UK</formatted_address>
  <address_component>
   <long_name>Crewe Road</long_name>
   <short_name>Crewe Rd</short_name>
   <type>route</type>
  </address_component>
  <address_component>
   <long_name>Cheshire East</long_name>
   <short_name>Cheshire East</short_name>
   <type>administrative_area_level_2</type>
   <type>political</type>
  </address_component>
  <address_component>
   <long_name>United Kingdom</long_name>
   <short_name>GB</short_name>
   <type>country</type>
   <type>political</type>
  </address_component>
  <geometry>
   <location>
    <lat>53.0701121</lat>
    <lng>-2.4917234</lng>
   </location>
   <location_type>GEOMETRIC_CENTER</location_type>
   <viewport>
    <southwest>
     <lat>53.0661922</lat>
     <lng>-2.5138799</lng>
    </southwest>
    <northeast>
     <lat>53.0778854</lat>
     <lng>-2.4717586</lng>
    </northeast>
   </viewport>
   <bounds>
    <southwest>
     <lat>53.0661922</lat>
     <lng>-2.5138799</lng>
    </southwest>
    <northeast>
     <lat>53.0778854</lat>
     <lng>-2.4717586</lng>
    </northeast>
   </bounds>
  </geometry>
  <partial_match>true</partial_match>
  <place_id>ChIJ6-I8HrL1ekgRHb3d_o8pkr8</place_id>
 </result>
 <result>
  <type>route</type>
  <formatted_address>Nantwich Rd, Crewe, Cheshire East, UK</formatted_address>
  <address_component>
   <long_name>Nantwich Road</long_name>
   <short_name>Nantwich Rd</short_name>
   <type>route</type>
  </address_component>
  <address_component>
   <long_name>Crewe</long_name>
   <short_name>Crewe</short_name>
   <type>locality</type>
   <type>political</type>
  </address_component>
  <address_component>
   <long_name>Crewe</long_name>
   <short_name>Crewe</short_name>
   <type>postal_town</type>
  </address_component>
  <address_component>
   <long_name>Cheshire East</long_name>
   <short_name>Cheshire East</short_name>
   <type>administrative_area_level_2</type>
   <type>political</type>
  </address_component>
  <address_component>
   <long_name>United Kingdom</long_name>
   <short_name>GB</short_name>
   <type>country</type>
   <type>political</type>
  </address_component>
  <geometry>
   <location>
    <lat>53.0877361</lat>
    <lng>-2.4444180</lng>
   </location>
   <location_type>GEOMETRIC_CENTER</location_type>
   <viewport>
    <southwest>
     <lat>53.0829800</lat>
     <lng>-2.4560542</lng>
    </southwest>
    <northeast>
     <lat>53.0902687</lat>
     <lng>-2.4315276</lng>
    </northeast>
   </viewport>
   <bounds>
    <southwest>
     <lat>53.0829800</lat>
     <lng>-2.4560542</lng>
    </southwest>
    <northeast>
     <lat>53.0902687</lat>
     <lng>-2.4315276</lng>
    </northeast>
   </bounds>
  </geometry>
  <partial_match>true</partial_match>
  <place_id>ChIJcyz63fT1ekgR5NBRu4J0Giw</place_id>
 </result>
 <result>
  <type>route</type>
  <formatted_address>Nantwich Rd, Woore, Crewe, Shropshire CW3 9SA, UK</formatted_address>
  <address_component>
   <long_name>Nantwich Road</long_name>
   <short_name>Nantwich Rd</short_name>
   <type>route</type>
  </address_component>
  <address_component>
   <long_name>Woore</long_name>
   <short_name>Woore</short_name>
   <type>locality</type>
   <type>political</type>
  </address_component>
  <address_component>
   <long_name>Crewe</long_name>
   <short_name>Crewe</short_name>
   <type>postal_town</type>
  </address_component>
  <address_component>
   <long_name>Shropshire</long_name>
   <short_name>Shropshire</short_name>
   <type>administrative_area_level_2</type>
   <type>political</type>
  </address_component>
  <address_component>
   <long_name>United Kingdom</long_name>
   <short_name>GB</short_name>
   <type>country</type>
   <type>political</type>
  </address_component>
  <address_component>
   <long_name>CW3 9SA</long_name>
   <short_name>CW3 9SA</short_name>
   <type>postal_code</type>
  </address_component>
  <geometry>
   <location>
    <lat>52.9803323</lat>
    <lng>-2.4049163</lng>
   </location>
   <location_type>GEOMETRIC_CENTER</location_type>
   <viewport>
    <southwest>
     <lat>52.9776528</lat>
     <lng>-2.4093247</lng>
    </southwest>
    <northeast>
     <lat>52.9818010</lat>
     <lng>-2.4029284</lng>
    </northeast>
   </viewport>
   <bounds>
    <southwest>
     <lat>52.9776528</lat>
     <lng>-2.4093247</lng>
    </southwest>
    <northeast>
     <lat>52.9818010</lat>
     <lng>-2.4029284</lng>
    </northeast>
   </bounds>
  </geometry>
  <partial_match>true</partial_match>
  <place_id>ChIJz4AWQTVgekgRCQpREZHS4QQ</place_id>
 </result>
 <result>
  <type>route</type>
  <formatted_address>Crewe Rd, Nantwich, Cheshire East CW5, UK</formatted_address>
  <address_component>
   <long_name>Crewe Road</long_name>
   <short_name>Crewe Rd</short_name>
   <type>route</type>
  </address_component>
  <address_component>
   <long_name>Nantwich</long_name>
   <short_name>Nantwich</short_name>
   <type>postal_town</type>
  </address_component>
  <address_component>
   <long_name>Cheshire East</long_name>
   <short_name>Cheshire East</short_name>
   <type>administrative_area_level_2</type>
   <type>political</type>
  </address_component>
  <address_component>
   <long_name>United Kingdom</long_name>
   <short_name>GB</short_name>
   <type>country</type>
   <type>political</type>
  </address_component>
  <address_component>
   <long_name>CW5</long_name>
   <short_name>CW5</short_name>
   <type>postal_code_prefix</type>
   <type>postal_code</type>
  </address_component>
  <geometry>
   <location>
    <lat>53.0286800</lat>
    <lng>-2.4623733</lng>
   </location>
   <location_type>GEOMETRIC_CENTER</location_type>
   <viewport>
    <southwest>
     <lat>53.0211446</lat>
     <lng>-2.4759569</lng>
    </southwest>
    <northeast>
     <lat>53.0369100</lat>
     <lng>-2.4521263</lng>
    </northeast>
   </viewport>
   <bounds>
    <southwest>
     <lat>53.0211446</lat>
     <lng>-2.4759569</lng>
    </southwest>
    <northeast>
     <lat>53.0369100</lat>
     <lng>-2.4521263</lng>
    </northeast>
   </bounds>
  </geometry>
  <partial_match>true</partial_match>
  <place_id>ChIJCf3mqDf1ekgRFaSc3FozDOk</place_id>
 </result>
 <result>
  <type>route</type>
  <formatted_address>Nantwich Rd, Middlewich CW10, UK</formatted_address>
  <address_component>
   <long_name>Nantwich Road</long_name>
   <short_name>Nantwich Rd</short_name>
   <type>route</type>
  </address_component>
  <address_component>
   <long_name>Middlewich</long_name>
   <short_name>Middlewich</short_name>
   <type>postal_town</type>
  </address_component>
  <address_component>
   <long_name>United Kingdom</long_name>
   <short_name>GB</short_name>
   <type>country</type>
   <type>political</type>
  </address_component>
  <address_component>
   <long_name>CW10</long_name>
   <short_name>CW10</short_name>
   <type>postal_code_prefix</type>
   <type>postal_code</type>
  </address_component>
  <geometry>
   <location>
    <lat>53.1691691</lat>
    <lng>-2.4663673</lng>
   </location>
   <location_type>GEOMETRIC_CENTER</location_type>
   <viewport>
    <southwest>
     <lat>53.1474581</lat>
     <lng>-2.4770026</lng>
    </southwest>
    <northeast>
     <lat>53.1934203</lat>
     <lng>-2.4344226</lng>
    </northeast>
   </viewport>
   <bounds>
    <southwest>
     <lat>53.1474581</lat>
     <lng>-2.4770026</lng>
    </southwest>
    <northeast>
     <lat>53.1934203</lat>
     <lng>-2.4344226</lng>
    </northeast>
   </bounds>
  </geometry>
  <partial_match>true</partial_match>
  <place_id>ChIJpxAxI-f3ekgRHLbF5wvWGNU</place_id>
 </result>
 <result>
  <type>route</type>
  <formatted_address>Nantwich Bypass, Willaston, Nantwich, Cheshire East CW5, UK</formatted_address>
  <address_component>
   <long_name>Nantwich Bypass</long_name>
   <short_name>Nantwich Bypass</short_name>
   <type>route</type>
  </address_component>
  <address_component>
   <long_name>Willaston</long_name>
   <short_name>Willaston</short_name>
   <type>locality</type>
   <type>political</type>
  </address_component>
  <address_component>
   <long_name>Nantwich</long_name>
   <short_name>Nantwich</short_name>
   <type>postal_town</type>
  </address_component>
  <address_component>
   <long_name>Cheshire East</long_name>
   <short_name>Cheshire East</short_name>
   <type>administrative_area_level_2</type>
   <type>political</type>
  </address_component>
  <address_component>
   <long_name>United Kingdom</long_name>
   <short_name>GB</short_name>
   <type>country</type>
   <type>political</type>
  </address_component>
  <address_component>
   <long_name>CW5</long_name>
   <short_name>CW5</short_name>
   <type>postal_code_prefix</type>
   <type>postal_code</type>
  </address_component>
  <geometry>
   <location>
    <lat>53.0737194</lat>
    <lng>-2.5002169</lng>
   </location>
   <location_type>GEOMETRIC_CENTER</location_type>
   <viewport>
    <southwest>
     <lat>53.0618350</lat>
     <lng>-2.5227003</lng>
    </southwest>
    <northeast>
     <lat>53.0790722</lat>
     <lng>-2.4887207</lng>
    </northeast>
   </viewport>
   <bounds>
    <southwest>
     <lat>53.0618350</lat>
     <lng>-2.5227003</lng>
    </southwest>
    <northeast>
     <lat>53.0790722</lat>
     <lng>-2.4887207</lng>
    </northeast>
   </bounds>
  </geometry>
  <partial_match>true</partial_match>
  <place_id>ChIJ46aexU_0ekgRFcJ3WEQ-WkE</place_id>
 </result>
 <result>
  <type>premise</type>
  <formatted_address>Crewe Hall, Weston Rd, Haslington, Crewe, Cheshire East CW1 6UY, UK</formatted_address>
  <address_component>
   <long_name>Crewe Hall</long_name>
   <short_name>Crewe Hall</short_name>
   <type>premise</type>
  </address_component>
  <address_component>
   <long_name>Weston Road</long_name>
   <short_name>Weston Rd</short_name>
   <type>route</type>
  </address_component>
  <address_component>
   <long_name>Haslington</long_name>
   <short_name>Haslington</short_name>
   <type>locality</type>
   <type>political</type>
  </address_component>
  <address_component>
   <long_name>Crewe</long_name>
   <short_name>Crewe</short_name>
   <type>postal_town</type>
  </address_component>
  <address_component>
   <long_name>Cheshire East</long_name>
   <short_name>Cheshire East</short_name>
   <type>administrative_area_level_2</type>
   <type>political</type>
  </address_component>
  <address_component>
   <long_name>United Kingdom</long_name>
   <short_name>GB</short_name>
   <type>country</type>
   <type>political</type>
  </address_component>
  <address_component>
   <long_name>CW1 6UY</long_name>
   <short_name>CW1 6UY</short_name>
   <type>postal_code</type>
  </address_component>
  <geometry>
   <location>
    <lat>53.0826761</lat>
    <lng>-2.4018317</lng>
   </location>
   <location_type>ROOFTOP</location_type>
   <viewport>
    <southwest>
     <lat>53.0813271</lat>
     <lng>-2.4031807</lng>
    </southwest>
    <northeast>
     <lat>53.0840251</lat>
     <lng>-2.4004827</lng>
    </northeast>
   </viewport>
  </geometry>
  <partial_match>true</partial_match>
  <place_id>ChIJp4X-bhdfekgRh3_D4wNMIss</place_id>
 </result>
 <result>
  <type>natural_feature</type>
  <type>establishment</type>
  <formatted_address>Nantwich Lake, Nantwich, Nantwich, Cheshire East CW5, UK</formatted_address>
  <address_component>
   <long_name>Nantwich Lake</long_name>
   <short_name>Nantwich Lake</short_name>
   <type>natural_feature</type>
   <type>establishment</type>
  </address_component>
  <address_component>
   <long_name>Nantwich</long_name>
   <short_name>Nantwich</short_name>
   <type>locality</type>
   <type>political</type>
  </address_component>
  <address_component>
   <long_name>Nantwich</long_name>
   <short_name>Nantwich</short_name>
   <type>postal_town</type>
  </address_component>
  <address_component>
   <long_name>Cheshire East</long_name>
   <short_name>Cheshire East</short_name>
   <type>administrative_area_level_2</type>
   <type>political</type>
  </address_component>
  <address_component>
   <long_name>United Kingdom</long_name>
   <short_name>GB</short_name>
   <type>country</type>
   <type>political</type>
  </address_component>
  <address_component>
   <long_name>CW5</long_name>
   <short_name>CW5</short_name>
   <type>postal_code_prefix</type>
   <type>postal_code</type>
  </address_component>
  <geometry>
   <location>
    <lat>53.0569526</lat>
    <lng>-2.5251029</lng>
   </location>
   <location_type>APPROXIMATE</location_type>
   <viewport>
    <southwest>
     <lat>53.0549329</lat>
     <lng>-2.5263763</lng>
    </southwest>
    <northeast>
     <lat>53.0582077</lat>
     <lng>-2.5236784</lng>
    </northeast>
   </viewport>
   <bounds>
    <southwest>
     <lat>53.0549329</lat>
     <lng>-2.5258693</lng>
    </southwest>
    <northeast>
     <lat>53.0582077</lat>
     <lng>-2.5241854</lng>
    </northeast>
   </bounds>
  </geometry>
  <partial_match>true</partial_match>
  <place_id>ChIJUbZP1I70ekgRfxGGqsfra1c</place_id>
 </result>
</GeocodeResponse>
