<?xml version="1.0" encoding="UTF-8"?>
<GeocodeResponse>
 <status>OK</status>
 <result>
  <type>route</type>
  <formatted_address>Kettering Rd, Northamptonshire, UK</formatted_address>
  <address_component>
   <long_name>Kettering Road</long_name>
   <short_name>Kettering Rd</short_name>
   <type>route</type>
  </address_component>
  <address_component>
   <long_name>Northamptonshire</long_name>
   <short_name>Northamptonshire</short_name>
   <type>administrative_area_level_2</type>
   <type>political</type>
  </address_component>
  <address_component>
   <long_name>United Kingdom</long_name>
   <short_name>GB</short_name>
   <type>country</type>
   <type>political</type>
  </address_component>
  <geometry>
   <location>
    <lat>52.3427013</lat>
    <lng>-0.7007916</lng>
   </location>
   <location_type>GEOMETRIC_CENTER</location_type>
   <viewport>
    <southwest>
     <lat>52.3289011</lat>
     <lng>-0.7101815</lng>
    </southwest>
    <northeast>
     <lat>52.3600655</lat>
     <lng>-0.6994034</lng>
    </northeast>
   </viewport>
   <bounds>
    <southwest>
     <lat>52.3289011</lat>
     <lng>-0.7101815</lng>
    </southwest>
    <northeast>
     <lat>52.3600655</lat>
     <lng>-0.6994034</lng>
    </northeast>
   </bounds>
  </geometry>
  <partial_match>true</partial_match>
  <place_id>ChIJ25QSNOihd0gRzSieQcloUe4</place_id>
 </result>
 <result>
  <type>route</type>
  <formatted_address>Kettering Rd, Kettering, Northamptonshire NN14, UK</formatted_address>
  <address_component>
   <long_name>Kettering Road</long_name>
   <short_name>Kettering Rd</short_name>
   <type>route</type>
  </address_component>
  <address_component>
   <long_name>Kettering</long_name>
   <short_name>Kettering</short_name>
   <type>postal_town</type>
  </address_component>
  <address_component>
   <long_name>Northamptonshire</long_name>
   <short_name>Northamptonshire</short_name>
   <type>administrative_area_level_2</type>
   <type>political</type>
  </address_component>
  <address_component>
   <long_name>United Kingdom</long_name>
   <short_name>GB</short_name>
   <type>country</type>
   <type>political</type>
  </address_component>
  <address_component>
   <long_name>NN14</long_name>
   <short_name>NN14</short_name>
   <type>postal_code_prefix</type>
   <type>postal_code</type>
  </address_component>
  <geometry>
   <location>
    <lat>52.3915950</lat>
    <lng>-0.5921565</lng>
   </location>
   <location_type>GEOMETRIC_CENTER</location_type>
   <viewport>
    <southwest>
     <lat>52.3873346</lat>
     <lng>-0.5997264</lng>
    </southwest>
    <northeast>
     <lat>52.3938430</lat>
     <lng>-0.5811352</lng>
    </northeast>
   </viewport>
   <bounds>
    <southwest>
     <lat>52.3873346</lat>
     <lng>-0.5997264</lng>
    </southwest>
    <northeast>
     <lat>52.3938430</lat>
     <lng>-0.5811352</lng>
    </northeast>
   </bounds>
  </geometry>
  <partial_match>true</partial_match>
  <place_id>ChIJq28sVYWXd0gR88x4bxwtOWA</place_id>
 </result>
 <result>
  <type>route</type>
  <formatted_address>Kettering Rd, Burton Latimer, Kettering, Northamptonshire NN15 5LP, UK</formatted_address>
  <address_component>
   <long_name>Kettering Road</long_name>
   <short_name>Kettering Rd</short_name>
   <type>route</type>
  </address_component>
  <address_component>
   <long_name>Burton Latimer</long_name>
   <short_name>Burton Latimer</short_name>
   <type>locality</type>
   <type>political</type>
  </address_component>
  <address_component>
   <long_name>Kettering</long_name>
   <short_name>Kettering</short_name>
   <type>postal_town</type>
  </address_component>
  <address_component>
   <long_name>Northamptonshire</long_name>
   <short_name>Northamptonshire</short_name>
   <type>administrative_area_level_2</type>
   <type>political</type>
  </address_component>
  <address_component>
   <long_name>United Kingdom</long_name>
   <short_name>GB</short_name>
   <type>country</type>
   <type>political</type>
  </address_component>
  <address_component>
   <long_name>NN15 5LP</long_name>
   <short_name>NN15 5LP</short_name>
   <type>postal_code</type>
  </address_component>
  <geometry>
   <location>
    <lat>52.3697707</lat>
    <lng>-0.6832540</lng>
   </location>
   <location_type>GEOMETRIC_CENTER</location_type>
   <viewport>
    <southwest>
     <lat>52.3655672</lat>
     <lng>-0.6837808</lng>
    </southwest>
    <northeast>
     <lat>52.3745984</lat>
     <lng>-0.6787001</lng>
    </northeast>
   </viewport>
   <bounds>
    <southwest>
     <lat>52.3655672</lat>
     <lng>-0.6837808</lng>
    </southwest>
    <northeast>
     <lat>52.3745984</lat>
     <lng>-0.6787001</lng>
    </northeast>
   </bounds>
  </geometry>
  <partial_match>true</partial_match>
  <place_id>ChIJ9brhW62Yd0gR-x56b-G6MGo</place_id>
 </result>
 <result>
  <type>route</type>
  <formatted_address>Kettering Rd, Southport, Merseyside PR8 2PS, UK</formatted_address>
  <address_component>
   <long_name>Kettering Road</long_name>
   <short_name>Kettering Rd</short_name>
   <type>route</type>
  </address_component>
  <address_component>
   <long_name>Southport</long_name>
   <short_name>Southport</short_name>
   <type>locality</type>
   <type>political</type>
  </address_component>
  <address_component>
   <long_name>Southport</long_name>
   <short_name>Southport</short_name>
   <type>postal_town</type>
  </address_component>
  <address_component>
   <long_name>Merseyside</long_name>
   <short_name>Merseyside</short_name>
   <type>administrative_area_level_2</type>
   <type>political</type>
  </address_component>
  <address_component>
   <long_name>United Kingdom</long_name>
   <short_name>GB</short_name>
   <type>country</type>
   <type>political</type>
  </address_component>
  <address_component>
   <long_name>PR8 2PS</long_name>
   <short_name>PR8 2PS</short_name>
   <type>postal_code</type>
  </address_component>
  <geometry>
   <location>
    <lat>53.6006851</lat>
    <lng>-3.0503924</lng>
   </location>
   <location_type>GEOMETRIC_CENTER</location_type>
   <viewport>
    <southwest>
     <lat>53.5999971</lat>
     <lng>-3.0518490</lng>
    </southwest>
    <northeast>
     <lat>53.6026951</lat>
     <lng>-3.0491511</lng>
    </northeast>
   </viewport>
   <bounds>
    <southwest>
     <lat>53.6006851</lat>
     <lng>-3.0506882</lng>
    </southwest>
    <northeast>
     <lat>53.6020071</lat>
     <lng>-3.0503119</lng>
    </northeast>
   </bounds>
  </geometry>
  <partial_match>true</partial_match>
  <place_id>ChIJc0Tbxdw7e0gROIrFx4wS5Lc</place_id>
 </result>
 <result>
  <type>route</type>
  <formatted_address>Kettering Rd, Broughton, Kettering, Northamptonshire NN14, UK</formatted_address>
  <address_component>
   <long_name>Kettering Road</long_name>
   <short_name>Kettering Rd</short_name>
   <type>route</type>
  </address_component>
  <address_component>
   <long_name>Broughton</long_name>
   <short_name>Broughton</short_name>
   <type>locality</type>
   <type>political</type>
  </address_component>
  <address_component>
   <long_name>Kettering</long_name>
   <short_name>Kettering</short_name>
   <type>postal_town</type>
  </address_component>
  <address_component>
   <long_name>Northamptonshire</long_name>
   <short_name>Northamptonshire</short_name>
   <type>administrative_area_level_2</type>
   <type>political</type>
  </address_component>
  <address_component>
   <long_name>United Kingdom</long_name>
   <short_name>GB</short_name>
   <type>country</type>
   <type>political</type>
  </address_component>
  <address_component>
   <long_name>NN14</long_name>
   <short_name>NN14</short_name>
   <type>postal_code_prefix</type>
   <type>postal_code</type>
  </address_component>
  <geometry>
   <location>
    <lat>52.3786382</lat>
    <lng>-0.7719087</lng>
   </location>
   <location_type>GEOMETRIC_CENTER</location_type>
   <viewport>
    <southwest>
     <lat>52.3770486</lat>
     <lng>-0.7736885</lng>
    </southwest>
    <northeast>
     <lat>52.3804353</lat>
     <lng>-0.7702922</lng>
    </northeast>
   </viewport>
   <bounds>
    <southwest>
     <lat>52.3770486</lat>
     <lng>-0.7736885</lng>
    </southwest>
    <northeast>
     <lat>52.3804353</lat>
     <lng>-0.7702922</lng>
    </northeast>
   </bounds>
  </geometry>
  <partial_match>true</partial_match>
  <place_id>ChIJE-mtcuefd0gRVc5WXheHeu8</place_id>
 </result>
 <result>
  <type>route</type>
  <formatted_address>Kettering Rd, Pytchley, Kettering, Northamptonshire NN14 1EP, UK</formatted_address>
  <address_component>
   <long_name>Kettering Road</long_name>
   <short_name>Kettering Rd</short_name>
   <type>route</type>
  </address_component>
  <address_component>
   <long_name>Pytchley</long_name>
   <short_name>Pytchley</short_name>
   <type>locality</type>
   <type>political</type>
  </address_component>
  <address_component>
   <long_name>Kettering</long_name>
   <short_name>Kettering</short_name>
   <type>postal_town</type>
  </address_component>
  <address_component>
   <long_name>Northamptonshire</long_name>
   <short_name>Northamptonshire</short_name>
   <type>administrative_area_level_2</type>
   <type>political</type>
  </address_component>
  <address_component>
   <long_name>United Kingdom</long_name>
   <short_name>GB</short_name>
   <type>country</type>
   <type>political</type>
  </address_component>
  <address_component>
   <long_name>NN14 1EP</long_name>
   <short_name>NN14 1EP</short_name>
   <type>postal_code</type>
  </address_component>
  <geometry>
   <location>
    <lat>52.3650323</lat>
    <lng>-0.7383087</lng>
   </location>
   <location_type>GEOMETRIC_CENTER</location_type>
   <viewport>
    <southwest>
     <lat>52.3637682</lat>
     <lng>-0.7397876</lng>
    </southwest>
    <northeast>
     <lat>52.3741553</lat>
     <lng>-0.7252285</lng>
    </northeast>
   </viewport>
   <bounds>
    <southwest>
     <lat>52.3637682</lat>
     <lng>-0.7397876</lng>
    </southwest>
    <northeast>
     <lat>52.3741553</lat>
     <lng>-0.7252285</lng>
    </northeast>
   </bounds>
  </geometry>
  <partial_match>true</partial_match>
  <place_id>ChIJr85HuIKfd0gR4Y362ceREBE</place_id>
 </result>
 <result>
  <type>route</type>
  <formatted_address>Kettering Pkwy, Kettering, Northamptonshire NN15, UK</formatted_address>
  <address_component>
   <long_name>Kettering Parkway</long_name>
   <short_name>Kettering Pkwy</short_name>
   <type>route</type>
  </address_component>
  <address_component>
   <long_name>Kettering</long_name>
   <short_name>Kettering</short_name>
   <type>locality</type>
   <type>political</type>
  </address_component>
  <address_component>
   <long_name>Kettering</long_name>
   <short_name>Kettering</short_name>
   <type>postal_town</type>
  </address_component>
  <address_component>
   <long_name>Northamptonshire</long_name>
   <short_name>Northamptonshire</short_name>
   <type>administrative_area_level_2</type>
   <type>political</type>
  </address_component>
  <address_component>
   <long_name>United Kingdom</long_name>
   <short_name>GB</short_name>
   <type>country</type>
   <type>political</type>
  </address_component>
  <address_component>
   <long_name>NN15</long_name>
   <short_name>NN15</short_name>
   <type>postal_code_prefix</type>
   <type>postal_code</type>
  </address_component>
  <geometry>
   <location>
    <lat>52.3754370</lat>
    <lng>-0.7132182</lng>
   </location>
   <location_type>GEOMETRIC_CENTER</location_type>
   <viewport>
    <southwest>
     <lat>52.3736317</lat>
     <lng>-0.7179972</lng>
    </southwest>
    <northeast>
     <lat>52.3767548</lat>
     <lng>-0.7085850</lng>
    </northeast>
   </viewport>
   <bounds>
    <southwest>
     <lat>52.3736317</lat>
     <lng>-0.7179972</lng>
    </southwest>
    <northeast>
     <lat>52.3767548</lat>
     <lng>-0.7085850</lng>
    </northeast>
   </bounds>
  </geometry>
  <partial_match>true</partial_match>
  <place_id>ChIJJaxtUWmfd0gR0t3jMDUkxvY</place_id>
 </result>
 <result>
  <type>route</type>
  <formatted_address>Kettering Rd, Enfield, Greater London EN3 6XB, UK</formatted_address>
  <address_component>
   <long_name>Kettering Road</long_name>
   <short_name>Kettering Rd</short_name>
   <type>route</type>
  </address_component>
  <address_component>
   <long_name>Enfield</long_name>
   <short_name>Enfield</short_name>
   <type>locality</type>
   <type>political</type>
  </address_component>
  <address_component>
   <long_name>Enfield</long_name>
   <short_name>Enfield</short_name>
   <type>postal_town</type>
  </address_component>
  <address_component>
   <long_name>Greater London</long_name>
   <short_name>Greater London</short_name>
   <type>administrative_area_level_2</type>
   <type>political</type>
  </address_component>
  <address_component>
   <long_name>United Kingdom</long_name>
   <short_name>GB</short_name>
   <type>country</type>
   <type>political</type>
  </address_component>
  <address_component>
   <long_name>EN3 6XB</long_name>
   <short_name>EN3 6XB</short_name>
   <type>postal_code</type>
  </address_component>
  <geometry>
   <location>
    <lat>51.6705758</lat>
    <lng>-0.0381066</lng>
   </location>
   <location_type>GEOMETRIC_CENTER</location_type>
   <viewport>
    <southwest>
     <lat>51.6692376</lat>
     <lng>-0.0397896</lng>
    </southwest>
    <northeast>
     <lat>51.6719355</lat>
     <lng>-0.0370916</lng>
    </northeast>
   </viewport>
   <bounds>
    <southwest>
     <lat>51.6699753</lat>
     <lng>-0.0390178</lng>
    </southwest>
    <northeast>
     <lat>51.6711978</lat>
     <lng>-0.0378634</lng>
    </northeast>
   </bounds>
  </geometry>
  <partial_match>true</partial_match>
  <place_id>ChIJUYMfApsfdkgRBpORhAjsgGQ</place_id>
 </result>
</GeocodeResponse>
