<?xml version="1.0" encoding="UTF-8"?>
<GeocodeResponse>
 <status>OK</status>
 <result>
  <type>route</type>
  <formatted_address>Ryedale, London SE22 0QW, UK</formatted_address>
  <address_component>
   <long_name>Ryedale</long_name>
   <short_name>Ryedale</short_name>
   <type>route</type>
  </address_component>
  <address_component>
   <long_name>London</long_name>
   <short_name>London</short_name>
   <type>locality</type>
   <type>political</type>
  </address_component>
  <address_component>
   <long_name>London</long_name>
   <short_name>London</short_name>
   <type>postal_town</type>
  </address_component>
  <address_component>
   <long_name>Greater London</long_name>
   <short_name>Greater London</short_name>
   <type>administrative_area_level_2</type>
   <type>political</type>
  </address_component>
  <address_component>
   <long_name>United Kingdom</long_name>
   <short_name>GB</short_name>
   <type>country</type>
   <type>political</type>
  </address_component>
  <address_component>
   <long_name>SE22 0QW</long_name>
   <short_name>SE22 0QW</short_name>
   <type>postal_code</type>
  </address_component>
  <geometry>
   <location>
    <lat>51.4521133</lat>
    <lng>-0.0623170</lng>
   </location>
   <location_type>GEOMETRIC_CENTER</location_type>
   <viewport>
    <southwest>
     <lat>51.4507244</lat>
     <lng>-0.0643592</lng>
    </southwest>
    <northeast>
     <lat>51.4534223</lat>
     <lng>-0.0611666</lng>
    </northeast>
   </viewport>
   <bounds>
    <southwest>
     <lat>51.4511305</lat>
     <lng>-0.0643592</lng>
    </southwest>
    <northeast>
     <lat>51.4530162</lat>
     <lng>-0.0611666</lng>
    </northeast>
   </bounds>
  </geometry>
  <partial_match>true</partial_match>
  <place_id>ChIJYd2tn7gDdkgRK-BrJFFCRKI</place_id>
 </result>
 <result>
  <type>route</type>
  <formatted_address>Ryedale, Wallsend, Tyne and Wear NE28 8TT, UK</formatted_address>
  <address_component>
   <long_name>Ryedale</long_name>
   <short_name>Ryedale</short_name>
   <type>route</type>
  </address_component>
  <address_component>
   <long_name>Wallsend</long_name>
   <short_name>Wallsend</short_name>
   <type>locality</type>
   <type>political</type>
  </address_component>
  <address_component>
   <long_name>Wallsend</long_name>
   <short_name>Wallsend</short_name>
   <type>postal_town</type>
  </address_component>
  <address_component>
   <long_name>Tyne and Wear</long_name>
   <short_name>Tyne and Wear</short_name>
   <type>administrative_area_level_2</type>
   <type>political</type>
  </address_component>
  <address_component>
   <long_name>United Kingdom</long_name>
   <short_name>GB</short_name>
   <type>country</type>
   <type>political</type>
  </address_component>
  <address_component>
   <long_name>NE28 8TT</long_name>
   <short_name>NE28 8TT</short_name>
   <type>postal_code</type>
  </address_component>
  <geometry>
   <location>
    <lat>55.0065377</lat>
    <lng>-1.5542970</lng>
   </location>
   <location_type>GEOMETRIC_CENTER</location_type>
   <viewport>
    <southwest>
     <lat>55.0053493</lat>
     <lng>-1.5560062</lng>
    </southwest>
    <northeast>
     <lat>55.0080472</lat>
     <lng>-1.5533082</lng>
    </northeast>
   </viewport>
   <bounds>
    <southwest>
     <lat>55.0061320</lat>
     <lng>-1.5557825</lng>
    </southwest>
    <northeast>
     <lat>55.0072645</lat>
     <lng>-1.5535319</lng>
    </northeast>
   </bounds>
  </geometry>
  <partial_match>true</partial_match>
  <place_id>ChIJ36IAWqVxfkgRw0ZP17gPI-Y</place_id>
 </result>
 <result>
  <type>route</type>
  <formatted_address>Ryedale, Huddersfield, West Yorkshire HD5 0HT, UK</formatted_address>
  <address_component>
   <long_name>Ryedale</long_name>
   <short_name>Ryedale</short_name>
   <type>route</type>
  </address_component>
  <address_component>
   <long_name>Huddersfield</long_name>
   <short_name>Huddersfield</short_name>
   <type>locality</type>
   <type>political</type>
  </address_component>
  <address_component>
   <long_name>Huddersfield</long_name>
   <short_name>Huddersfield</short_name>
   <type>postal_town</type>
  </address_component>
  <address_component>
   <long_name>West Yorkshire</long_name>
   <short_name>West Yorkshire</short_name>
   <type>administrative_area_level_2</type>
   <type>political</type>
  </address_component>
  <address_component>
   <long_name>United Kingdom</long_name>
   <short_name>GB</short_name>
   <type>country</type>
   <type>political</type>
  </address_component>
  <address_component>
   <long_name>HD5 0HT</long_name>
   <short_name>HD5 0HT</short_name>
   <type>postal_code</type>
  </address_component>
  <geometry>
   <location>
    <lat>53.6632719</lat>
    <lng>-1.7310672</lng>
   </location>
   <location_type>GEOMETRIC_CENTER</location_type>
   <viewport>
    <southwest>
     <lat>53.6620724</lat>
     <lng>-1.7319608</lng>
    </southwest>
    <northeast>
     <lat>53.6647704</lat>
     <lng>-1.7291725</lng>
    </northeast>
   </viewport>
   <bounds>
    <southwest>
     <lat>53.6630822</lat>
     <lng>-1.7319608</lng>
    </southwest>
    <northeast>
     <lat>53.6637606</lat>
     <lng>-1.7291725</lng>
    </northeast>
   </bounds>
  </geometry>
  <partial_match>true</partial_match>
  <place_id>ChIJwUgEXpTee0gR-MvyE3S1HyU</place_id>
 </result>
 <result>
  <type>route</type>
  <formatted_address>Ryedale, York, North Yorkshire YO62 5YE, UK</formatted_address>
  <address_component>
   <long_name>Ryedale</long_name>
   <short_name>Ryedale</short_name>
   <type>route</type>
  </address_component>
  <address_component>
   <long_name>York</long_name>
   <short_name>York</short_name>
   <type>postal_town</type>
  </address_component>
  <address_component>
   <long_name>North Yorkshire</long_name>
   <short_name>North Yorkshire</short_name>
   <type>administrative_area_level_2</type>
   <type>political</type>
  </address_component>
  <address_component>
   <long_name>United Kingdom</long_name>
   <short_name>GB</short_name>
   <type>country</type>
   <type>political</type>
  </address_component>
  <address_component>
   <long_name>YO62 5YE</long_name>
   <short_name>YO62 5YE</short_name>
   <type>postal_code</type>
  </address_component>
  <geometry>
   <location>
    <lat>54.2022780</lat>
    <lng>-1.0060311</lng>
   </location>
   <location_type>GEOMETRIC_CENTER</location_type>
   <viewport>
    <southwest>
     <lat>54.2011141</lat>
     <lng>-1.0071316</lng>
    </southwest>
    <northeast>
     <lat>54.2038120</lat>
     <lng>-1.0044337</lng>
    </northeast>
   </viewport>
   <bounds>
    <southwest>
     <lat>54.2018215</lat>
     <lng>-1.0061240</lng>
    </southwest>
    <northeast>
     <lat>54.2031046</lat>
     <lng>-1.0054413</lng>
    </northeast>
   </bounds>
  </geometry>
  <partial_match>true</partial_match>
  <place_id>ChIJZ18FJbDRfkgRPsK89MuJQI0</place_id>
 </result>
 <result>
  <type>route</type>
  <formatted_address>Ryedale, Durham, County Durham DH1 2AL, UK</formatted_address>
  <address_component>
   <long_name>Ryedale</long_name>
   <short_name>Ryedale</short_name>
   <type>route</type>
  </address_component>
  <address_component>
   <long_name>Durham</long_name>
   <short_name>Durham</short_name>
   <type>locality</type>
   <type>political</type>
  </address_component>
  <address_component>
   <long_name>Durham</long_name>
   <short_name>Durham</short_name>
   <type>postal_town</type>
  </address_component>
  <address_component>
   <long_name>County Durham</long_name>
   <short_name>County Durham</short_name>
   <type>administrative_area_level_2</type>
   <type>political</type>
  </address_component>
  <address_component>
   <long_name>United Kingdom</long_name>
   <short_name>GB</short_name>
   <type>country</type>
   <type>political</type>
  </address_component>
  <address_component>
   <long_name>DH1 2AL</long_name>
   <short_name>DH1 2AL</short_name>
   <type>postal_code</type>
  </address_component>
  <geometry>
   <location>
    <lat>54.7840920</lat>
    <lng>-1.5241275</lng>
   </location>
   <location_type>GEOMETRIC_CENTER</location_type>
   <viewport>
    <southwest>
     <lat>54.7826981</lat>
     <lng>-1.5252362</lng>
    </southwest>
    <northeast>
     <lat>54.7853960</lat>
     <lng>-1.5225382</lng>
    </northeast>
   </viewport>
   <bounds>
    <southwest>
     <lat>54.7836975</lat>
     <lng>-1.5243706</lng>
    </southwest>
    <northeast>
     <lat>54.7843966</lat>
     <lng>-1.5234038</lng>
    </northeast>
   </bounds>
  </geometry>
  <partial_match>true</partial_match>
  <place_id>ChIJTUFJ_lx9fkgRbiPsSt1NxrI</place_id>
 </result>
 <result>
  <type>route</type>
  <formatted_address>Ryedale, Elloughton, Brough, East Riding of Yorkshire HU15 1SE, UK</formatted_address>
  <address_component>
   <long_name>Ryedale</long_name>
   <short_name>Ryedale</short_name>
   <type>route</type>
  </address_component>
  <address_component>
   <long_name>Elloughton</long_name>
   <short_name>Elloughton</short_name>
   <type>locality</type>
   <type>political</type>
  </address_component>
  <address_component>
   <long_name>Brough</long_name>
   <short_name>Brough</short_name>
   <type>postal_town</type>
  </address_component>
  <address_component>
   <long_name>East Riding of Yorkshire</long_name>
   <short_name>East Riding of Yorkshire</short_name>
   <type>administrative_area_level_2</type>
   <type>political</type>
  </address_component>
  <address_component>
   <long_name>United Kingdom</long_name>
   <short_name>GB</short_name>
   <type>country</type>
   <type>political</type>
  </address_component>
  <address_component>
   <long_name>HU15 1SE</long_name>
   <short_name>HU15 1SE</short_name>
   <type>postal_code</type>
  </address_component>
  <geometry>
   <location>
    <lat>53.7334020</lat>
    <lng>-0.5600110</lng>
   </location>
   <location_type>GEOMETRIC_CENTER</location_type>
   <viewport>
    <southwest>
     <lat>53.7320981</lat>
     <lng>-0.5613277</lng>
    </southwest>
    <northeast>
     <lat>53.7347960</lat>
     <lng>-0.5586297</lng>
    </northeast>
   </viewport>
   <bounds>
    <southwest>
     <lat>53.7332218</lat>
     <lng>-0.5603707</lng>
    </southwest>
    <northeast>
     <lat>53.7336723</lat>
     <lng>-0.5595867</lng>
    </northeast>
   </bounds>
  </geometry>
  <partial_match>true</partial_match>
  <place_id>ChIJRc_cGtXpeEgR70K4m4pnSSU</place_id>
 </result>
 <result>
  <type>route</type>
  <formatted_address>Ryedale, Carlton Colville, Lowestoft, Suffolk NR33 8TB, UK</formatted_address>
  <address_component>
   <long_name>Ryedale</long_name>
   <short_name>Ryedale</short_name>
   <type>route</type>
  </address_component>
  <address_component>
   <long_name>Carlton Colville</long_name>
   <short_name>Carlton Colville</short_name>
   <type>locality</type>
   <type>political</type>
  </address_component>
  <address_component>
   <long_name>Lowestoft</long_name>
   <short_name>Lowestoft</short_name>
   <type>postal_town</type>
  </address_component>
  <address_component>
   <long_name>Suffolk</long_name>
   <short_name>Suffolk</short_name>
   <type>administrative_area_level_2</type>
   <type>political</type>
  </address_component>
  <address_component>
   <long_name>United Kingdom</long_name>
   <short_name>GB</short_name>
   <type>country</type>
   <type>political</type>
  </address_component>
  <address_component>
   <long_name>NR33 8TB</long_name>
   <short_name>NR33 8TB</short_name>
   <type>postal_code</type>
  </address_component>
  <geometry>
   <location>
    <lat>52.4528461</lat>
    <lng>1.7150364</lng>
   </location>
   <location_type>GEOMETRIC_CENTER</location_type>
   <viewport>
    <southwest>
     <lat>52.4515448</lat>
     <lng>1.7136752</lng>
    </southwest>
    <northeast>
     <lat>52.4542428</lat>
     <lng>1.7163731</lng>
    </northeast>
   </viewport>
   <bounds>
    <southwest>
     <lat>52.4525418</lat>
     <lng>1.7147422</lng>
    </southwest>
    <northeast>
     <lat>52.4532458</lat>
     <lng>1.7153061</lng>
    </northeast>
   </bounds>
  </geometry>
  <partial_match>true</partial_match>
  <place_id>ChIJXQWk1Mcb2kcRnjBarFFwpUw</place_id>
 </result>
 <result>
  <type>route</type>
  <formatted_address>Ryedale, Sunderland, Tyne and Wear SR6 8AQ, UK</formatted_address>
  <address_component>
   <long_name>Ryedale</long_name>
   <short_name>Ryedale</short_name>
   <type>route</type>
  </address_component>
  <address_component>
   <long_name>Sunderland</long_name>
   <short_name>Sunderland</short_name>
   <type>locality</type>
   <type>political</type>
  </address_component>
  <address_component>
   <long_name>Sunderland</long_name>
   <short_name>Sunderland</short_name>
   <type>postal_town</type>
  </address_component>
  <address_component>
   <long_name>Tyne and Wear</long_name>
   <short_name>Tyne and Wear</short_name>
   <type>administrative_area_level_2</type>
   <type>political</type>
  </address_component>
  <address_component>
   <long_name>United Kingdom</long_name>
   <short_name>GB</short_name>
   <type>country</type>
   <type>political</type>
  </address_component>
  <address_component>
   <long_name>SR6 8AQ</long_name>
   <short_name>SR6 8AQ</short_name>
   <type>postal_code</type>
  </address_component>
  <geometry>
   <location>
    <lat>54.9426748</lat>
    <lng>-1.3671733</lng>
   </location>
   <location_type>GEOMETRIC_CENTER</location_type>
   <viewport>
    <southwest>
     <lat>54.9412212</lat>
     <lng>-1.3686097</lng>
    </southwest>
    <northeast>
     <lat>54.9439192</lat>
     <lng>-1.3659118</lng>
    </northeast>
   </viewport>
   <bounds>
    <southwest>
     <lat>54.9423348</lat>
     <lng>-1.3673713</lng>
    </southwest>
    <northeast>
     <lat>54.9428056</lat>
     <lng>-1.3671502</lng>
    </northeast>
   </bounds>
  </geometry>
  <partial_match>true</partial_match>
  <place_id>ChIJS0gjSyNmfkgRNh2U9TPb-wU</place_id>
 </result>
 <result>
  <type>political</type>
  <formatted_address>Ryedale, Malton, Malton, North Yorkshire YO17, UK</formatted_address>
  <address_component>
   <long_name>Ryedale</long_name>
   <short_name>Ryedale</short_name>
   <type>political</type>
  </address_component>
  <address_component>
   <long_name>Malton</long_name>
   <short_name>Malton</short_name>
   <type>locality</type>
   <type>political</type>
  </address_component>
  <address_component>
   <long_name>Malton</long_name>
   <short_name>Malton</short_name>
   <type>postal_town</type>
  </address_component>
  <address_component>
   <long_name>North Yorkshire</long_name>
   <short_name>North Yorkshire</short_name>
   <type>administrative_area_level_2</type>
   <type>political</type>
  </address_component>
  <address_component>
   <long_name>United Kingdom</long_name>
   <short_name>GB</short_name>
   <type>country</type>
   <type>political</type>
  </address_component>
  <address_component>
   <long_name>YO17</long_name>
   <short_name>YO17</short_name>
   <type>postal_code_prefix</type>
   <type>postal_code</type>
  </address_component>
  <geometry>
   <location>
    <lat>54.1390000</lat>
    <lng>-0.7900000</lng>
   </location>
   <location_type>APPROXIMATE</location_type>
   <viewport>
    <southwest>
     <lat>54.1376510</lat>
     <lng>-0.7913490</lng>
    </southwest>
    <northeast>
     <lat>54.1403490</lat>
     <lng>-0.7886510</lng>
    </northeast>
   </viewport>
  </geometry>
  <partial_match>true</partial_match>
  <place_id>ChIJNYWfrk8qf0gRZiQqLFG3szE</place_id>
 </result>
 <result>
  <type>administrative_area_level_3</type>
  <type>political</type>
  <formatted_address>Ryedale District, North Yorkshire, UK</formatted_address>
  <address_component>
   <long_name>Ryedale District</long_name>
   <short_name>Ryedale District</short_name>
   <type>administrative_area_level_3</type>
   <type>political</type>
  </address_component>
  <address_component>
   <long_name>North Yorkshire</long_name>
   <short_name>North Yorkshire</short_name>
   <type>administrative_area_level_2</type>
   <type>political</type>
  </address_component>
  <address_component>
   <long_name>England</long_name>
   <short_name>England</short_name>
   <type>administrative_area_level_1</type>
   <type>political</type>
  </address_component>
  <address_component>
   <long_name>United Kingdom</long_name>
   <short_name>GB</short_name>
   <type>country</type>
   <type>political</type>
  </address_component>
  <geometry>
   <location>
    <lat>54.1698076</lat>
    <lng>-0.7282461</lng>
   </location>
   <location_type>APPROXIMATE</location_type>
   <viewport>
    <southwest>
     <lat>53.9815311</lat>
     <lng>-1.2659936</lng>
    </southwest>
    <northeast>
     <lat>54.4153315</lat>
     <lng>-0.4180347</lng>
    </northeast>
   </viewport>
   <bounds>
    <southwest>
     <lat>53.9815311</lat>
     <lng>-1.2659936</lng>
    </southwest>
    <northeast>
     <lat>54.4153315</lat>
     <lng>-0.4180347</lng>
    </northeast>
   </bounds>
  </geometry>
  <partial_match>true</partial_match>
  <place_id>ChIJeQmbNyTWfkgRIONs7Z75DAQ</place_id>
 </result>
</GeocodeResponse>
