<?xml version="1.0" encoding="UTF-8"?>
<GeocodeResponse>
 <status>OK</status>
 <result>
  <type>route</type>
  <formatted_address>Copeland, Peterborough, Peterborough PE3 6YJ, UK</formatted_address>
  <address_component>
   <long_name>Copeland</long_name>
   <short_name>Copeland</short_name>
   <type>route</type>
  </address_component>
  <address_component>
   <long_name>Peterborough</long_name>
   <short_name>Peterborough</short_name>
   <type>locality</type>
   <type>political</type>
  </address_component>
  <address_component>
   <long_name>Peterborough</long_name>
   <short_name>Peterborough</short_name>
   <type>postal_town</type>
  </address_component>
  <address_component>
   <long_name>Peterborough</long_name>
   <short_name>Peterborough</short_name>
   <type>administrative_area_level_2</type>
   <type>political</type>
  </address_component>
  <address_component>
   <long_name>United Kingdom</long_name>
   <short_name>GB</short_name>
   <type>country</type>
   <type>political</type>
  </address_component>
  <address_component>
   <long_name>PE3 6YJ</long_name>
   <short_name>PE3 6YJ</short_name>
   <type>postal_code</type>
  </address_component>
  <geometry>
   <location>
    <lat>52.5766306</lat>
    <lng>-0.2895225</lng>
   </location>
   <location_type>GEOMETRIC_CENTER</location_type>
   <viewport>
    <southwest>
     <lat>52.5752873</lat>
     <lng>-0.2918698</lng>
    </southwest>
    <northeast>
     <lat>52.5779852</lat>
     <lng>-0.2869768</lng>
    </northeast>
   </viewport>
   <bounds>
    <southwest>
     <lat>52.5761870</lat>
     <lng>-0.2918698</lng>
    </southwest>
    <northeast>
     <lat>52.5770855</lat>
     <lng>-0.2869768</lng>
    </northeast>
   </bounds>
  </geometry>
  <place_id>ChIJvcu9HH_xd0gR6z2hQnViYog</place_id>
 </result>
 <result>
  <type>route</type>
  <formatted_address>Copeland, Rugby, Warwickshire CV21 1NL, UK</formatted_address>
  <address_component>
   <long_name>Copeland</long_name>
   <short_name>Copeland</short_name>
   <type>route</type>
  </address_component>
  <address_component>
   <long_name>Rugby</long_name>
   <short_name>Rugby</short_name>
   <type>locality</type>
   <type>political</type>
  </address_component>
  <address_component>
   <long_name>Rugby</long_name>
   <short_name>Rugby</short_name>
   <type>postal_town</type>
  </address_component>
  <address_component>
   <long_name>Warwickshire</long_name>
   <short_name>Warwickshire</short_name>
   <type>administrative_area_level_2</type>
   <type>political</type>
  </address_component>
  <address_component>
   <long_name>United Kingdom</long_name>
   <short_name>GB</short_name>
   <type>country</type>
   <type>political</type>
  </address_component>
  <address_component>
   <long_name>CV21 1NL</long_name>
   <short_name>CV21 1NL</short_name>
   <type>postal_code</type>
  </address_component>
  <geometry>
   <location>
    <lat>52.3921203</lat>
    <lng>-1.2497798</lng>
   </location>
   <location_type>GEOMETRIC_CENTER</location_type>
   <viewport>
    <southwest>
     <lat>52.3906377</lat>
     <lng>-1.2510188</lng>
    </southwest>
    <northeast>
     <lat>52.3933356</lat>
     <lng>-1.2483208</lng>
    </northeast>
   </viewport>
   <bounds>
    <southwest>
     <lat>52.3914985</lat>
     <lng>-1.2508463</lng>
    </southwest>
    <northeast>
     <lat>52.3924748</lat>
     <lng>-1.2484933</lng>
    </northeast>
   </bounds>
  </geometry>
  <place_id>ChIJd_zZUudAd0gRWlWcZ-sDGw8</place_id>
 </result>
 <result>
  <type>political</type>
  <formatted_address>Copeland, Seascale, Cumbria CA20, UK</formatted_address>
  <address_component>
   <long_name>Copeland</long_name>
   <short_name>Copeland</short_name>
   <type>political</type>
  </address_component>
  <address_component>
   <long_name>Seascale</long_name>
   <short_name>Seascale</short_name>
   <type>postal_town</type>
  </address_component>
  <address_component>
   <long_name>Cumbria</long_name>
   <short_name>Cumbria</short_name>
   <type>administrative_area_level_2</type>
   <type>political</type>
  </address_component>
  <address_component>
   <long_name>United Kingdom</long_name>
   <short_name>GB</short_name>
   <type>country</type>
   <type>political</type>
  </address_component>
  <address_component>
   <long_name>CA20</long_name>
   <short_name>CA20</short_name>
   <type>postal_code_prefix</type>
   <type>postal_code</type>
  </address_component>
  <geometry>
   <location>
    <lat>54.4310000</lat>
    <lng>-3.3890000</lng>
   </location>
   <location_type>APPROXIMATE</location_type>
   <viewport>
    <southwest>
     <lat>54.4296510</lat>
     <lng>-3.3903490</lng>
    </southwest>
    <northeast>
     <lat>54.4323490</lat>
     <lng>-3.3876510</lng>
    </northeast>
   </viewport>
  </geometry>
  <place_id>ChIJBYATqarLfEgR8Kbedars9LU</place_id>
 </result>
</GeocodeResponse>
