<?xml version="1.0" encoding="UTF-8"?>
<GeocodeResponse>
 <status>OK</status>
 <result>
  <type>route</type>
  <formatted_address>Fylde Rd, Preston, Lancashire PR2 2NH, UK</formatted_address>
  <address_component>
   <long_name>Fylde Road</long_name>
   <short_name>Fylde Rd</short_name>
   <type>route</type>
  </address_component>
  <address_component>
   <long_name>Preston</long_name>
   <short_name>Preston</short_name>
   <type>locality</type>
   <type>political</type>
  </address_component>
  <address_component>
   <long_name>Preston</long_name>
   <short_name>Preston</short_name>
   <type>postal_town</type>
  </address_component>
  <address_component>
   <long_name>Lancashire</long_name>
   <short_name>Lancashire</short_name>
   <type>administrative_area_level_2</type>
   <type>political</type>
  </address_component>
  <address_component>
   <long_name>United Kingdom</long_name>
   <short_name>GB</short_name>
   <type>country</type>
   <type>political</type>
  </address_component>
  <address_component>
   <long_name>PR2 2NH</long_name>
   <short_name>PR2 2NH</short_name>
   <type>postal_code</type>
  </address_component>
  <geometry>
   <location>
    <lat>53.7648037</lat>
    <lng>-2.7133251</lng>
   </location>
   <location_type>GEOMETRIC_CENTER</location_type>
   <viewport>
    <southwest>
     <lat>53.7626562</lat>
     <lng>-2.7206318</lng>
    </southwest>
    <northeast>
     <lat>53.7655479</lat>
     <lng>-2.7077010</lng>
    </northeast>
   </viewport>
   <bounds>
    <southwest>
     <lat>53.7626562</lat>
     <lng>-2.7206318</lng>
    </southwest>
    <northeast>
     <lat>53.7655479</lat>
     <lng>-2.7077010</lng>
    </northeast>
   </bounds>
  </geometry>
  <partial_match>true</partial_match>
  <place_id>ChIJj-_4L3Zye0gR-Ng8iEg_K94</place_id>
 </result>
 <result>
  <type>premise</type>
  <formatted_address>Fylde House, Cowley Rd, Coventry, West Midlands CV2 5GB, UK</formatted_address>
  <address_component>
   <long_name>Fylde House</long_name>
   <short_name>Fylde House</short_name>
   <type>premise</type>
  </address_component>
  <address_component>
   <long_name>Cowley Road</long_name>
   <short_name>Cowley Rd</short_name>
   <type>route</type>
  </address_component>
  <address_component>
   <long_name>Coventry</long_name>
   <short_name>Coventry</short_name>
   <type>locality</type>
   <type>political</type>
  </address_component>
  <address_component>
   <long_name>Coventry</long_name>
   <short_name>Coventry</short_name>
   <type>postal_town</type>
  </address_component>
  <address_component>
   <long_name>West Midlands</long_name>
   <short_name>West Midlands</short_name>
   <type>administrative_area_level_2</type>
   <type>political</type>
  </address_component>
  <address_component>
   <long_name>United Kingdom</long_name>
   <short_name>GB</short_name>
   <type>country</type>
   <type>political</type>
  </address_component>
  <address_component>
   <long_name>CV2 5GB</long_name>
   <short_name>CV2 5GB</short_name>
   <type>postal_code</type>
  </address_component>
  <geometry>
   <location>
    <lat>52.4146941</lat>
    <lng>-1.4596250</lng>
   </location>
   <location_type>ROOFTOP</location_type>
   <viewport>
    <southwest>
     <lat>52.4133451</lat>
     <lng>-1.4609740</lng>
    </southwest>
    <northeast>
     <lat>52.4160431</lat>
     <lng>-1.4582760</lng>
    </northeast>
   </viewport>
   <bounds>
    <southwest>
     <lat>52.4145877</lat>
     <lng>-1.4597912</lng>
    </southwest>
    <northeast>
     <lat>52.4148005</lat>
     <lng>-1.4594588</lng>
    </northeast>
   </bounds>
  </geometry>
  <partial_match>true</partial_match>
  <place_id>ChIJATuOtGlJd0gRURa6wOSD0Jk</place_id>
 </result>
 <result>
  <type>route</type>
  <formatted_address>Fylde Rd, Southport, Merseyside PR9 9XZ, UK</formatted_address>
  <address_component>
   <long_name>Fylde Road</long_name>
   <short_name>Fylde Rd</short_name>
   <type>route</type>
  </address_component>
  <address_component>
   <long_name>Southport</long_name>
   <short_name>Southport</short_name>
   <type>locality</type>
   <type>political</type>
  </address_component>
  <address_component>
   <long_name>Southport</long_name>
   <short_name>Southport</short_name>
   <type>postal_town</type>
  </address_component>
  <address_component>
   <long_name>Merseyside</long_name>
   <short_name>Merseyside</short_name>
   <type>administrative_area_level_2</type>
   <type>political</type>
  </address_component>
  <address_component>
   <long_name>United Kingdom</long_name>
   <short_name>GB</short_name>
   <type>country</type>
   <type>political</type>
  </address_component>
  <address_component>
   <long_name>PR9 9XZ</long_name>
   <short_name>PR9 9XZ</short_name>
   <type>postal_code</type>
  </address_component>
  <geometry>
   <location>
    <lat>53.6716421</lat>
    <lng>-2.9631011</lng>
   </location>
   <location_type>GEOMETRIC_CENTER</location_type>
   <viewport>
    <southwest>
     <lat>53.6691305</lat>
     <lng>-2.9722285</lng>
    </southwest>
    <northeast>
     <lat>53.6741433</lat>
     <lng>-2.9535051</lng>
    </northeast>
   </viewport>
   <bounds>
    <southwest>
     <lat>53.6691305</lat>
     <lng>-2.9722285</lng>
    </southwest>
    <northeast>
     <lat>53.6741433</lat>
     <lng>-2.9535051</lng>
    </northeast>
   </bounds>
  </geometry>
  <partial_match>true</partial_match>
  <place_id>ChIJi75t9KQ_e0gRBYVevQbqqV8</place_id>
 </result>
 <result>
  <type>premise</type>
  <formatted_address>Fylde Lodge, Lindsey Way, Gipsey Bridge, Boston, Lincolnshire PE22 7BT, UK</formatted_address>
  <address_component>
   <long_name>Fylde Lodge</long_name>
   <short_name>Fylde Lodge</short_name>
   <type>premise</type>
  </address_component>
  <address_component>
   <long_name>Lindsey Way</long_name>
   <short_name>Lindsey Way</short_name>
   <type>route</type>
  </address_component>
  <address_component>
   <long_name>Gipsey Bridge</long_name>
   <short_name>Gipsey Bridge</short_name>
   <type>locality</type>
   <type>political</type>
  </address_component>
  <address_component>
   <long_name>Boston</long_name>
   <short_name>Boston</short_name>
   <type>postal_town</type>
  </address_component>
  <address_component>
   <long_name>Lincolnshire</long_name>
   <short_name>Lincolnshire</short_name>
   <type>administrative_area_level_2</type>
   <type>political</type>
  </address_component>
  <address_component>
   <long_name>United Kingdom</long_name>
   <short_name>GB</short_name>
   <type>country</type>
   <type>political</type>
  </address_component>
  <address_component>
   <long_name>PE22 7BT</long_name>
   <short_name>PE22 7BT</short_name>
   <type>postal_code</type>
  </address_component>
  <geometry>
   <location>
    <lat>53.0315315</lat>
    <lng>-0.0912960</lng>
   </location>
   <location_type>ROOFTOP</location_type>
   <viewport>
    <southwest>
     <lat>53.0301825</lat>
     <lng>-0.0926450</lng>
    </southwest>
    <northeast>
     <lat>53.0328805</lat>
     <lng>-0.0899470</lng>
    </northeast>
   </viewport>
  </geometry>
  <partial_match>true</partial_match>
  <place_id>ChIJ0VPkuFsLeEgRsvixUrht--I</place_id>
 </result>
 <result>
  <type>premise</type>
  <formatted_address>Fylde House, Croft Ln, Haverhill, Suffolk CB9 8EJ, UK</formatted_address>
  <address_component>
   <long_name>Fylde House</long_name>
   <short_name>Fylde House</short_name>
   <type>premise</type>
  </address_component>
  <address_component>
   <long_name>Croft Lane</long_name>
   <short_name>Croft Ln</short_name>
   <type>route</type>
  </address_component>
  <address_component>
   <long_name>Haverhill</long_name>
   <short_name>Haverhill</short_name>
   <type>locality</type>
   <type>political</type>
  </address_component>
  <address_component>
   <long_name>Haverhill</long_name>
   <short_name>Haverhill</short_name>
   <type>postal_town</type>
  </address_component>
  <address_component>
   <long_name>Suffolk</long_name>
   <short_name>Suffolk</short_name>
   <type>administrative_area_level_2</type>
   <type>political</type>
  </address_component>
  <address_component>
   <long_name>United Kingdom</long_name>
   <short_name>GB</short_name>
   <type>country</type>
   <type>political</type>
  </address_component>
  <address_component>
   <long_name>CB9 8EJ</long_name>
   <short_name>CB9 8EJ</short_name>
   <type>postal_code</type>
  </address_component>
  <geometry>
   <location>
    <lat>52.0768173</lat>
    <lng>0.4453529</lng>
   </location>
   <location_type>ROOFTOP</location_type>
   <viewport>
    <southwest>
     <lat>52.0754683</lat>
     <lng>0.4440039</lng>
    </southwest>
    <northeast>
     <lat>52.0781662</lat>
     <lng>0.4467018</lng>
    </northeast>
   </viewport>
   <bounds>
    <southwest>
     <lat>52.0767542</lat>
     <lng>0.4452378</lng>
    </southwest>
    <northeast>
     <lat>52.0768803</lat>
     <lng>0.4454679</lng>
    </northeast>
   </bounds>
  </geometry>
  <partial_match>true</partial_match>
  <place_id>ChIJxQDZLu5e2EcRbjDQPe5MchE</place_id>
 </result>
 <result>
  <type>route</type>
  <formatted_address>Fylde St, Farnworth, Bolton BL3 2QF, UK</formatted_address>
  <address_component>
   <long_name>Fylde Street</long_name>
   <short_name>Fylde St</short_name>
   <type>route</type>
  </address_component>
  <address_component>
   <long_name>Farnworth</long_name>
   <short_name>Farnworth</short_name>
   <type>locality</type>
   <type>political</type>
  </address_component>
  <address_component>
   <long_name>Bolton</long_name>
   <short_name>Bolton</short_name>
   <type>postal_town</type>
  </address_component>
  <address_component>
   <long_name>Greater Manchester</long_name>
   <short_name>Greater Manchester</short_name>
   <type>administrative_area_level_2</type>
   <type>political</type>
  </address_component>
  <address_component>
   <long_name>United Kingdom</long_name>
   <short_name>GB</short_name>
   <type>country</type>
   <type>political</type>
  </address_component>
  <address_component>
   <long_name>BL3 2QF</long_name>
   <short_name>BL3 2QF</short_name>
   <type>postal_code</type>
  </address_component>
  <geometry>
   <location>
    <lat>53.5564484</lat>
    <lng>-2.4000044</lng>
   </location>
   <location_type>GEOMETRIC_CENTER</location_type>
   <viewport>
    <southwest>
     <lat>53.5550493</lat>
     <lng>-2.4012542</lng>
    </southwest>
    <northeast>
     <lat>53.5577472</lat>
     <lng>-2.3985562</lng>
    </northeast>
   </viewport>
   <bounds>
    <southwest>
     <lat>53.5563075</lat>
     <lng>-2.4010505</lng>
    </southwest>
    <northeast>
     <lat>53.5564890</lat>
     <lng>-2.3987599</lng>
    </northeast>
   </bounds>
  </geometry>
  <partial_match>true</partial_match>
  <place_id>ChIJP4n00hWme0gReCLybOwKOos</place_id>
 </result>
 <result>
  <type>premise</type>
  <formatted_address>Fylde Cottage, Stockdove Wood, Thornton-Cleveleys, Lancashire FY5 2JP, UK</formatted_address>
  <address_component>
   <long_name>Fylde Cottage</long_name>
   <short_name>Fylde Cottage</short_name>
   <type>premise</type>
  </address_component>
  <address_component>
   <long_name>Stockdove Wood</long_name>
   <short_name>Stockdove Wood</short_name>
   <type>route</type>
  </address_component>
  <address_component>
   <long_name>Thornton-Cleveleys</long_name>
   <short_name>Thornton-Cleveleys</short_name>
   <type>postal_town</type>
  </address_component>
  <address_component>
   <long_name>Lancashire</long_name>
   <short_name>Lancashire</short_name>
   <type>administrative_area_level_2</type>
   <type>political</type>
  </address_component>
  <address_component>
   <long_name>United Kingdom</long_name>
   <short_name>GB</short_name>
   <type>country</type>
   <type>political</type>
  </address_component>
  <address_component>
   <long_name>FY5 2JP</long_name>
   <short_name>FY5 2JP</short_name>
   <type>postal_code</type>
  </address_component>
  <geometry>
   <location>
    <lat>53.8795959</lat>
    <lng>-3.0297787</lng>
   </location>
   <location_type>ROOFTOP</location_type>
   <viewport>
    <southwest>
     <lat>53.8782469</lat>
     <lng>-3.0311277</lng>
    </southwest>
    <northeast>
     <lat>53.8809449</lat>
     <lng>-3.0284297</lng>
    </northeast>
   </viewport>
  </geometry>
  <partial_match>true</partial_match>
  <place_id>ChIJA69Qy7Zce0gRVokejSZCdjo</place_id>
 </result>
 <result>
  <type>route</type>
  <formatted_address>Fylde Rd, Lytham Saint Annes, Lancashire FY8 4BB, UK</formatted_address>
  <address_component>
   <long_name>Fylde Road</long_name>
   <short_name>Fylde Rd</short_name>
   <type>route</type>
  </address_component>
  <address_component>
   <long_name>Lytham Saint Annes</long_name>
   <short_name>Lytham Saint Annes</short_name>
   <type>postal_town</type>
  </address_component>
  <address_component>
   <long_name>Lancashire</long_name>
   <short_name>Lancashire</short_name>
   <type>administrative_area_level_2</type>
   <type>political</type>
  </address_component>
  <address_component>
   <long_name>United Kingdom</long_name>
   <short_name>GB</short_name>
   <type>country</type>
   <type>political</type>
  </address_component>
  <address_component>
   <long_name>FY8 4BB</long_name>
   <short_name>FY8 4BB</short_name>
   <type>postal_code</type>
  </address_component>
  <geometry>
   <location>
    <lat>53.7470495</lat>
    <lng>-2.9923330</lng>
   </location>
   <location_type>GEOMETRIC_CENTER</location_type>
   <viewport>
    <southwest>
     <lat>53.7456095</lat>
     <lng>-2.9939391</lng>
    </southwest>
    <northeast>
     <lat>53.7487372</lat>
     <lng>-2.9912411</lng>
    </northeast>
   </viewport>
   <bounds>
    <southwest>
     <lat>53.7456095</lat>
     <lng>-2.9931487</lng>
    </southwest>
    <northeast>
     <lat>53.7487372</lat>
     <lng>-2.9920315</lng>
    </northeast>
   </bounds>
  </geometry>
  <partial_match>true</partial_match>
  <place_id>ChIJSVc_bQNBe0gRdkuHmLacdYg</place_id>
 </result>
 <result>
  <type>route</type>
  <formatted_address>Fylde Ln, Manchester, Manchester M18, UK</formatted_address>
  <address_component>
   <long_name>Fylde Lane</long_name>
   <short_name>Fylde Ln</short_name>
   <type>route</type>
  </address_component>
  <address_component>
   <long_name>Manchester</long_name>
   <short_name>Manchester</short_name>
   <type>locality</type>
   <type>political</type>
  </address_component>
  <address_component>
   <long_name>Manchester</long_name>
   <short_name>Manchester</short_name>
   <type>postal_town</type>
  </address_component>
  <address_component>
   <long_name>Greater Manchester</long_name>
   <short_name>Greater Manchester</short_name>
   <type>administrative_area_level_2</type>
   <type>political</type>
  </address_component>
  <address_component>
   <long_name>United Kingdom</long_name>
   <short_name>GB</short_name>
   <type>country</type>
   <type>political</type>
  </address_component>
  <address_component>
   <long_name>M18</long_name>
   <short_name>M18</short_name>
   <type>postal_code_prefix</type>
   <type>postal_code</type>
  </address_component>
  <geometry>
   <location>
    <lat>53.4524888</lat>
    <lng>-2.1674756</lng>
   </location>
   <location_type>GEOMETRIC_CENTER</location_type>
   <viewport>
    <southwest>
     <lat>53.4509295</lat>
     <lng>-2.1686832</lng>
    </southwest>
    <northeast>
     <lat>53.4536275</lat>
     <lng>-2.1659853</lng>
    </northeast>
   </viewport>
   <bounds>
    <southwest>
     <lat>53.4518305</lat>
     <lng>-2.1680500</lng>
    </southwest>
    <northeast>
     <lat>53.4527265</lat>
     <lng>-2.1666185</lng>
    </northeast>
   </bounds>
  </geometry>
  <partial_match>true</partial_match>
  <place_id>ChIJN1Q6gvyze0gRB5PN_C8nxW0</place_id>
 </result>
 <result>
  <type>route</type>
  <formatted_address>Fylde Ave, Bailrigg, Lancaster, Lancashire LA1 4YR, UK</formatted_address>
  <address_component>
   <long_name>Fylde Avenue</long_name>
   <short_name>Fylde Ave</short_name>
   <type>route</type>
  </address_component>
  <address_component>
   <long_name>Bailrigg</long_name>
   <short_name>Bailrigg</short_name>
   <type>locality</type>
   <type>political</type>
  </address_component>
  <address_component>
   <long_name>Lancaster</long_name>
   <short_name>Lancaster</short_name>
   <type>postal_town</type>
  </address_component>
  <address_component>
   <long_name>Lancashire</long_name>
   <short_name>Lancashire</short_name>
   <type>administrative_area_level_2</type>
   <type>political</type>
  </address_component>
  <address_component>
   <long_name>United Kingdom</long_name>
   <short_name>GB</short_name>
   <type>country</type>
   <type>political</type>
  </address_component>
  <address_component>
   <long_name>LA1 4YR</long_name>
   <short_name>LA1 4YR</short_name>
   <type>postal_code</type>
  </address_component>
  <geometry>
   <location>
    <lat>54.0084266</lat>
    <lng>-2.7835137</lng>
   </location>
   <location_type>GEOMETRIC_CENTER</location_type>
   <viewport>
    <southwest>
     <lat>54.0067572</lat>
     <lng>-2.7854108</lng>
    </southwest>
    <northeast>
     <lat>54.0094551</lat>
     <lng>-2.7827129</lng>
    </northeast>
   </viewport>
   <bounds>
    <southwest>
     <lat>54.0077857</lat>
     <lng>-2.7847846</lng>
    </southwest>
    <northeast>
     <lat>54.0084266</lat>
     <lng>-2.7833391</lng>
    </northeast>
   </bounds>
  </geometry>
  <partial_match>true</partial_match>
  <place_id>ChIJ0SnoZQJje0gRp-7ZGXxSCSI</place_id>
 </result>
</GeocodeResponse>
