<?xml version="1.0" encoding="UTF-8"?>
<GeocodeResponse>
 <status>OK</status>
 <result>
  <type>country</type>
  <type>political</type>
  <formatted_address>Lebanon</formatted_address>
  <address_component>
   <long_name>Lebanon</long_name>
   <short_name>LB</short_name>
   <type>country</type>
   <type>political</type>
  </address_component>
  <geometry>
   <location>
    <lat>33.8547210</lat>
    <lng>35.8622850</lng>
   </location>
   <location_type>APPROXIMATE</location_type>
   <viewport>
    <southwest>
     <lat>33.0550256</lat>
     <lng>35.1037781</lng>
    </southwest>
    <northeast>
     <lat>34.6920900</lat>
     <lng>36.6237200</lng>
    </northeast>
   </viewport>
   <bounds>
    <southwest>
     <lat>33.0550256</lat>
     <lng>35.1037781</lng>
    </southwest>
    <northeast>
     <lat>34.6920900</lat>
     <lng>36.6237200</lng>
    </northeast>
   </bounds>
  </geometry>
  <place_id>ChIJraoihAIXHxURcPkAbAk0fcw</place_id>
 </result>
 <result>
  <type>locality</type>
  <type>political</type>
  <formatted_address>Lebanon, TN, USA</formatted_address>
  <address_component>
   <long_name>Lebanon</long_name>
   <short_name>Lebanon</short_name>
   <type>locality</type>
   <type>political</type>
  </address_component>
  <address_component>
   <long_name>Wilson County</long_name>
   <short_name>Wilson County</short_name>
   <type>administrative_area_level_2</type>
   <type>political</type>
  </address_component>
  <address_component>
   <long_name>Tennessee</long_name>
   <short_name>TN</short_name>
   <type>administrative_area_level_1</type>
   <type>political</type>
  </address_component>
  <address_component>
   <long_name>United States</long_name>
   <short_name>US</short_name>
   <type>country</type>
   <type>political</type>
  </address_component>
  <geometry>
   <location>
    <lat>36.2081098</lat>
    <lng>-86.2911024</lng>
   </location>
   <location_type>APPROXIMATE</location_type>
   <viewport>
    <southwest>
     <lat>36.1175559</lat>
     <lng>-86.4541441</lng>
    </southwest>
    <northeast>
     <lat>36.2562771</lat>
     <lng>-86.2443341</lng>
    </northeast>
   </viewport>
   <bounds>
    <southwest>
     <lat>36.1175559</lat>
     <lng>-86.4541441</lng>
    </southwest>
    <northeast>
     <lat>36.2562771</lat>
     <lng>-86.2443341</lng>
    </northeast>
   </bounds>
  </geometry>
  <place_id>ChIJU5WUOH8EZIgRGhGQoJrhoUM</place_id>
 </result>
 <result>
  <type>locality</type>
  <type>political</type>
  <formatted_address>Lebanon, PA, USA</formatted_address>
  <address_component>
   <long_name>Lebanon</long_name>
   <short_name>Lebanon</short_name>
   <type>locality</type>
   <type>political</type>
  </address_component>
  <address_component>
   <long_name>Lebanon County</long_name>
   <short_name>Lebanon County</short_name>
   <type>administrative_area_level_2</type>
   <type>political</type>
  </address_component>
  <address_component>
   <long_name>Pennsylvania</long_name>
   <short_name>PA</short_name>
   <type>administrative_area_level_1</type>
   <type>political</type>
  </address_component>
  <address_component>
   <long_name>United States</long_name>
   <short_name>US</short_name>
   <type>country</type>
   <type>political</type>
  </address_component>
  <geometry>
   <location>
    <lat>40.3409251</lat>
    <lng>-76.4113497</lng>
   </location>
   <location_type>APPROXIMATE</location_type>
   <viewport>
    <southwest>
     <lat>40.3202489</lat>
     <lng>-76.4506731</lng>
    </southwest>
    <northeast>
     <lat>40.3560790</lat>
     <lng>-76.3915520</lng>
    </northeast>
   </viewport>
   <bounds>
    <southwest>
     <lat>40.3202489</lat>
     <lng>-76.4506731</lng>
    </southwest>
    <northeast>
     <lat>40.3560790</lat>
     <lng>-76.3915520</lng>
    </northeast>
   </bounds>
  </geometry>
  <place_id>ChIJJ66b4ecCxokRxe1IIMLjbnI</place_id>
 </result>
 <result>
  <type>locality</type>
  <type>political</type>
  <formatted_address>Lebanon, MO 65536, USA</formatted_address>
  <address_component>
   <long_name>Lebanon</long_name>
   <short_name>Lebanon</short_name>
   <type>locality</type>
   <type>political</type>
  </address_component>
  <address_component>
   <long_name>Lebanon Township</long_name>
   <short_name>Lebanon Township</short_name>
   <type>administrative_area_level_3</type>
   <type>political</type>
  </address_component>
  <address_component>
   <long_name>Laclede County</long_name>
   <short_name>Laclede County</short_name>
   <type>administrative_area_level_2</type>
   <type>political</type>
  </address_component>
  <address_component>
   <long_name>Missouri</long_name>
   <short_name>MO</short_name>
   <type>administrative_area_level_1</type>
   <type>political</type>
  </address_component>
  <address_component>
   <long_name>United States</long_name>
   <short_name>US</short_name>
   <type>country</type>
   <type>political</type>
  </address_component>
  <address_component>
   <long_name>65536</long_name>
   <short_name>65536</short_name>
   <type>postal_code</type>
  </address_component>
  <geometry>
   <location>
    <lat>37.6805967</lat>
    <lng>-92.6637865</lng>
   </location>
   <location_type>APPROXIMATE</location_type>
   <viewport>
    <southwest>
     <lat>37.6259210</lat>
     <lng>-92.6987930</lng>
    </southwest>
    <northeast>
     <lat>37.7177370</lat>
     <lng>-92.6263510</lng>
    </northeast>
   </viewport>
   <bounds>
    <southwest>
     <lat>37.6259210</lat>
     <lng>-92.6987930</lng>
    </southwest>
    <northeast>
     <lat>37.7177370</lat>
     <lng>-92.6263510</lng>
    </northeast>
   </bounds>
  </geometry>
  <place_id>ChIJmTL9rwI4xYcRXblviMxnct0</place_id>
 </result>
 <result>
  <type>locality</type>
  <type>political</type>
  <formatted_address>Lebanon, NH, USA</formatted_address>
  <address_component>
   <long_name>Lebanon</long_name>
   <short_name>Lebanon</short_name>
   <type>locality</type>
   <type>political</type>
  </address_component>
  <address_component>
   <long_name>Grafton County</long_name>
   <short_name>Grafton County</short_name>
   <type>administrative_area_level_2</type>
   <type>political</type>
  </address_component>
  <address_component>
   <long_name>New Hampshire</long_name>
   <short_name>NH</short_name>
   <type>administrative_area_level_1</type>
   <type>political</type>
  </address_component>
  <address_component>
   <long_name>United States</long_name>
   <short_name>US</short_name>
   <type>country</type>
   <type>political</type>
  </address_component>
  <geometry>
   <location>
    <lat>43.6422934</lat>
    <lng>-72.2517569</lng>
   </location>
   <location_type>APPROXIMATE</location_type>
   <viewport>
    <southwest>
     <lat>43.5851620</lat>
     <lng>-72.3349030</lng>
    </southwest>
    <northeast>
     <lat>43.6926140</lat>
     <lng>-72.1603318</lng>
    </northeast>
   </viewport>
   <bounds>
    <southwest>
     <lat>43.5851620</lat>
     <lng>-72.3349030</lng>
    </southwest>
    <northeast>
     <lat>43.6926140</lat>
     <lng>-72.1603318</lng>
    </northeast>
   </bounds>
  </geometry>
  <place_id>ChIJNfKLOVm0tEwR3sbIIQqOkmw</place_id>
 </result>
 <result>
  <type>locality</type>
  <type>political</type>
  <formatted_address>Lebanon, OH 45036, USA</formatted_address>
  <address_component>
   <long_name>Lebanon</long_name>
   <short_name>Lebanon</short_name>
   <type>locality</type>
   <type>political</type>
  </address_component>
  <address_component>
   <long_name>Warren County</long_name>
   <short_name>Warren County</short_name>
   <type>administrative_area_level_2</type>
   <type>political</type>
  </address_component>
  <address_component>
   <long_name>Ohio</long_name>
   <short_name>OH</short_name>
   <type>administrative_area_level_1</type>
   <type>political</type>
  </address_component>
  <address_component>
   <long_name>United States</long_name>
   <short_name>US</short_name>
   <type>country</type>
   <type>political</type>
  </address_component>
  <address_component>
   <long_name>45036</long_name>
   <short_name>45036</short_name>
   <type>postal_code</type>
  </address_component>
  <geometry>
   <location>
    <lat>39.4353373</lat>
    <lng>-84.2029922</lng>
   </location>
   <location_type>APPROXIMATE</location_type>
   <viewport>
    <southwest>
     <lat>39.3653730</lat>
     <lng>-84.2700410</lng>
    </southwest>
    <northeast>
     <lat>39.4675969</lat>
     <lng>-84.1602120</lng>
    </northeast>
   </viewport>
   <bounds>
    <southwest>
     <lat>39.3653730</lat>
     <lng>-84.2700410</lng>
    </southwest>
    <northeast>
     <lat>39.4675969</lat>
     <lng>-84.1602120</lng>
    </northeast>
   </bounds>
  </geometry>
  <place_id>ChIJSU5wSCf0QIgRlDsilDNt6KU</place_id>
 </result>
</GeocodeResponse>
