<?xml version="1.0" encoding="UTF-8"?>
<GeocodeResponse>
 <status>OK</status>
 <result>
  <type>intersection</type>
  <formatted_address>Kilsyth Rd, Bonnybridge, Falkirk FK4, UK</formatted_address>
  <address_component>
   <long_name>Kilsyth Road</long_name>
   <short_name>Kilsyth Rd</short_name>
   <type>route</type>
  </address_component>
  <address_component>
   <long_name>Bonnybridge</long_name>
   <short_name>Bonnybridge</short_name>
   <type>postal_town</type>
  </address_component>
  <address_component>
   <long_name>Falkirk</long_name>
   <short_name>Falkirk</short_name>
   <type>administrative_area_level_2</type>
   <type>political</type>
  </address_component>
  <address_component>
   <long_name>United Kingdom</long_name>
   <short_name>GB</short_name>
   <type>country</type>
   <type>political</type>
  </address_component>
  <address_component>
   <long_name>FK4</long_name>
   <short_name>FK4</short_name>
   <type>postal_code</type>
   <type>postal_code_prefix</type>
  </address_component>
  <geometry>
   <location>
    <lat>55.9918950</lat>
    <lng>-3.9302729</lng>
   </location>
   <location_type>APPROXIMATE</location_type>
   <viewport>
    <southwest>
     <lat>55.9905460</lat>
     <lng>-3.9316219</lng>
    </southwest>
    <northeast>
     <lat>55.9932440</lat>
     <lng>-3.9289239</lng>
    </northeast>
   </viewport>
  </geometry>
  <partial_match>true</partial_match>
  <place_id>EihLaWxzeXRoIFJkLCBCb25ueWJyaWRnZSwgRmFsa2lyayBGSzQsIFVL</place_id>
 </result>
 <result>
  <type>route</type>
  <formatted_address>Kilsyth Rd, Glasgow, UK</formatted_address>
  <address_component>
   <long_name>Kilsyth Road</long_name>
   <short_name>Kilsyth Rd</short_name>
   <type>route</type>
  </address_component>
  <address_component>
   <long_name>Glasgow</long_name>
   <short_name>Glasgow</short_name>
   <type>postal_town</type>
  </address_component>
  <address_component>
   <long_name>United Kingdom</long_name>
   <short_name>GB</short_name>
   <type>country</type>
   <type>political</type>
  </address_component>
  <geometry>
   <location>
    <lat>55.9723666</lat>
    <lng>-4.0921589</lng>
   </location>
   <location_type>GEOMETRIC_CENTER</location_type>
   <viewport>
    <southwest>
     <lat>55.9706216</lat>
     <lng>-4.0947678</lng>
    </southwest>
    <northeast>
     <lat>55.9733195</lat>
     <lng>-4.0889034</lng>
    </northeast>
   </viewport>
   <bounds>
    <southwest>
     <lat>55.9710067</lat>
     <lng>-4.0947678</lng>
    </southwest>
    <northeast>
     <lat>55.9729344</lat>
     <lng>-4.0889034</lng>
    </northeast>
   </bounds>
  </geometry>
  <partial_match>true</partial_match>
  <place_id>ChIJTYeZGVVdiEgRI_jMIEh-2Qs</place_id>
 </result>
</GeocodeResponse>
