<?xml version="1.0" encoding="UTF-8"?>
<GeocodeResponse>
 <status>OK</status>
 <result>
  <type>locality</type>
  <type>political</type>
  <formatted_address>Eastwood, LA, USA</formatted_address>
  <address_component>
   <long_name>Eastwood</long_name>
   <short_name>Eastwood</short_name>
   <type>locality</type>
   <type>political</type>
  </address_component>
  <address_component>
   <long_name>2</long_name>
   <short_name>2</short_name>
   <type>administrative_area_level_3</type>
   <type>political</type>
  </address_component>
  <address_component>
   <long_name>Bossier Parish</long_name>
   <short_name>Bossier Parish</short_name>
   <type>administrative_area_level_2</type>
   <type>political</type>
  </address_component>
  <address_component>
   <long_name>Louisiana</long_name>
   <short_name>LA</short_name>
   <type>administrative_area_level_1</type>
   <type>political</type>
  </address_component>
  <address_component>
   <long_name>United States</long_name>
   <short_name>US</short_name>
   <type>country</type>
   <type>political</type>
  </address_component>
  <geometry>
   <location>
    <lat>32.5562617</lat>
    <lng>-93.5671195</lng>
   </location>
   <location_type>APPROXIMATE</location_type>
   <viewport>
    <southwest>
     <lat>32.5419751</lat>
     <lng>-93.5867991</lng>
    </southwest>
    <northeast>
     <lat>32.5860721</lat>
     <lng>-93.5336459</lng>
    </northeast>
   </viewport>
   <bounds>
    <southwest>
     <lat>32.5419751</lat>
     <lng>-93.5867991</lng>
    </southwest>
    <northeast>
     <lat>32.5860721</lat>
     <lng>-93.5336459</lng>
    </northeast>
   </bounds>
  </geometry>
  <place_id>ChIJ36ztShE6MYYRwMisS-7ugh0</place_id>
 </result>
 <result>
  <type>locality</type>
  <type>political</type>
  <formatted_address>Eastwood, TN 37924, USA</formatted_address>
  <address_component>
   <long_name>Eastwood</long_name>
   <short_name>Eastwood</short_name>
   <type>locality</type>
   <type>political</type>
  </address_component>
  <address_component>
   <long_name>Knox County</long_name>
   <short_name>Knox County</short_name>
   <type>administrative_area_level_2</type>
   <type>political</type>
  </address_component>
  <address_component>
   <long_name>Tennessee</long_name>
   <short_name>TN</short_name>
   <type>administrative_area_level_1</type>
   <type>political</type>
  </address_component>
  <address_component>
   <long_name>United States</long_name>
   <short_name>US</short_name>
   <type>country</type>
   <type>political</type>
  </address_component>
  <address_component>
   <long_name>37924</long_name>
   <short_name>37924</short_name>
   <type>postal_code</type>
  </address_component>
  <geometry>
   <location>
    <lat>36.0278623</lat>
    <lng>-83.7846243</lng>
   </location>
   <location_type>APPROXIMATE</location_type>
   <viewport>
    <southwest>
     <lat>36.0265133</lat>
     <lng>-83.7859733</lng>
    </southwest>
    <northeast>
     <lat>36.0292113</lat>
     <lng>-83.7832753</lng>
    </northeast>
   </viewport>
  </geometry>
  <place_id>ChIJEeF8aT0SXIgRmOYx3WEfyM8</place_id>
 </result>
 <result>
  <type>locality</type>
  <type>political</type>
  <formatted_address>Eastwood, OH 45176, USA</formatted_address>
  <address_component>
   <long_name>Eastwood</long_name>
   <short_name>Eastwood</short_name>
   <type>locality</type>
   <type>political</type>
  </address_component>
  <address_component>
   <long_name>Sterling Township</long_name>
   <short_name>Sterling Township</short_name>
   <type>administrative_area_level_3</type>
   <type>political</type>
  </address_component>
  <address_component>
   <long_name>Brown County</long_name>
   <short_name>Brown County</short_name>
   <type>administrative_area_level_2</type>
   <type>political</type>
  </address_component>
  <address_component>
   <long_name>Ohio</long_name>
   <short_name>OH</short_name>
   <type>administrative_area_level_1</type>
   <type>political</type>
  </address_component>
  <address_component>
   <long_name>United States</long_name>
   <short_name>US</short_name>
   <type>country</type>
   <type>political</type>
  </address_component>
  <address_component>
   <long_name>45176</long_name>
   <short_name>45176</short_name>
   <type>postal_code</type>
  </address_component>
  <geometry>
   <location>
    <lat>39.0489541</lat>
    <lng>-83.9846538</lng>
   </location>
   <location_type>APPROXIMATE</location_type>
   <viewport>
    <southwest>
     <lat>39.0476051</lat>
     <lng>-83.9860028</lng>
    </southwest>
    <northeast>
     <lat>39.0503031</lat>
     <lng>-83.9833048</lng>
    </northeast>
   </viewport>
  </geometry>
  <place_id>ChIJbe2xeAUZQYgR5tc4Kx1Mh0k</place_id>
 </result>
 <result>
  <type>locality</type>
  <type>political</type>
  <formatted_address>Eastwood, MO 63965, USA</formatted_address>
  <address_component>
   <long_name>Eastwood</long_name>
   <short_name>Eastwood</short_name>
   <type>locality</type>
   <type>political</type>
  </address_component>
  <address_component>
   <long_name>Kelly Township</long_name>
   <short_name>Kelly Township</short_name>
   <type>administrative_area_level_3</type>
   <type>political</type>
  </address_component>
  <address_component>
   <long_name>Carter County</long_name>
   <short_name>Carter County</short_name>
   <type>administrative_area_level_2</type>
   <type>political</type>
  </address_component>
  <address_component>
   <long_name>Missouri</long_name>
   <short_name>MO</short_name>
   <type>administrative_area_level_1</type>
   <type>political</type>
  </address_component>
  <address_component>
   <long_name>United States</long_name>
   <short_name>US</short_name>
   <type>country</type>
   <type>political</type>
  </address_component>
  <address_component>
   <long_name>63965</long_name>
   <short_name>63965</short_name>
   <type>postal_code</type>
  </address_component>
  <geometry>
   <location>
    <lat>36.8908864</lat>
    <lng>-91.0329058</lng>
   </location>
   <location_type>APPROXIMATE</location_type>
   <viewport>
    <southwest>
     <lat>36.8895374</lat>
     <lng>-91.0342548</lng>
    </southwest>
    <northeast>
     <lat>36.8922354</lat>
     <lng>-91.0315568</lng>
    </northeast>
   </viewport>
  </geometry>
  <place_id>ChIJFRVaj7s514cRvGisxzthzYY</place_id>
 </result>
 <result>
  <type>locality</type>
  <type>political</type>
  <formatted_address>Eastwood NSW 2122, Australia</formatted_address>
  <address_component>
   <long_name>Eastwood</long_name>
   <short_name>Eastwood</short_name>
   <type>locality</type>
   <type>political</type>
  </address_component>
  <address_component>
   <long_name>New South Wales</long_name>
   <short_name>NSW</short_name>
   <type>administrative_area_level_1</type>
   <type>political</type>
  </address_component>
  <address_component>
   <long_name>Australia</long_name>
   <short_name>AU</short_name>
   <type>country</type>
   <type>political</type>
  </address_component>
  <address_component>
   <long_name>2122</long_name>
   <short_name>2122</short_name>
   <type>postal_code</type>
  </address_component>
  <geometry>
   <location>
    <lat>-33.7903620</lat>
    <lng>151.0817310</lng>
   </location>
   <location_type>APPROXIMATE</location_type>
   <viewport>
    <southwest>
     <lat>-33.7996622</lat>
     <lng>151.0639120</lng>
    </southwest>
    <northeast>
     <lat>-33.7773575</lat>
     <lng>151.1050214</lng>
    </northeast>
   </viewport>
   <bounds>
    <southwest>
     <lat>-33.7996622</lat>
     <lng>151.0639120</lng>
    </southwest>
    <northeast>
     <lat>-33.7773575</lat>
     <lng>151.1050214</lng>
    </northeast>
   </bounds>
  </geometry>
  <place_id>ChIJM2hb8aSlEmsR0LUyFmh9AQU</place_id>
 </result>
 <result>
  <type>neighborhood</type>
  <type>political</type>
  <formatted_address>Eastwood, Syracuse, NY 13206, USA</formatted_address>
  <address_component>
   <long_name>Eastwood</long_name>
   <short_name>Eastwood</short_name>
   <type>neighborhood</type>
   <type>political</type>
  </address_component>
  <address_component>
   <long_name>Syracuse</long_name>
   <short_name>Syracuse</short_name>
   <type>locality</type>
   <type>political</type>
  </address_component>
  <address_component>
   <long_name>Onondaga County</long_name>
   <short_name>Onondaga County</short_name>
   <type>administrative_area_level_2</type>
   <type>political</type>
  </address_component>
  <address_component>
   <long_name>New York</long_name>
   <short_name>NY</short_name>
   <type>administrative_area_level_1</type>
   <type>political</type>
  </address_component>
  <address_component>
   <long_name>United States</long_name>
   <short_name>US</short_name>
   <type>country</type>
   <type>political</type>
  </address_component>
  <address_component>
   <long_name>13206</long_name>
   <short_name>13206</short_name>
   <type>postal_code</type>
  </address_component>
  <geometry>
   <location>
    <lat>43.0631800</lat>
    <lng>-76.1059004</lng>
   </location>
   <location_type>APPROXIMATE</location_type>
   <viewport>
    <southwest>
     <lat>43.0534661</lat>
     <lng>-76.1233449</lng>
    </southwest>
    <northeast>
     <lat>43.0764190</lat>
     <lng>-76.0842499</lng>
    </northeast>
   </viewport>
   <bounds>
    <southwest>
     <lat>43.0534661</lat>
     <lng>-76.1233449</lng>
    </southwest>
    <northeast>
     <lat>43.0764190</lat>
     <lng>-76.0842499</lng>
    </northeast>
   </bounds>
  </geometry>
  <place_id>ChIJy8Xrsdzy2YkRfvtU1_oSlRU</place_id>
 </result>
 <result>
  <type>neighborhood</type>
  <type>political</type>
  <formatted_address>Eastwood, Kalamazoo, MI 49048, USA</formatted_address>
  <address_component>
   <long_name>Eastwood</long_name>
   <short_name>Eastwood</short_name>
   <type>neighborhood</type>
   <type>political</type>
  </address_component>
  <address_component>
   <long_name>Kalamazoo</long_name>
   <short_name>Kalamazoo</short_name>
   <type>locality</type>
   <type>political</type>
  </address_component>
  <address_component>
   <long_name>Kalamazoo County</long_name>
   <short_name>Kalamazoo County</short_name>
   <type>administrative_area_level_2</type>
   <type>political</type>
  </address_component>
  <address_component>
   <long_name>Michigan</long_name>
   <short_name>MI</short_name>
   <type>administrative_area_level_1</type>
   <type>political</type>
  </address_component>
  <address_component>
   <long_name>United States</long_name>
   <short_name>US</short_name>
   <type>country</type>
   <type>political</type>
  </address_component>
  <address_component>
   <long_name>49048</long_name>
   <short_name>49048</short_name>
   <type>postal_code</type>
  </address_component>
  <geometry>
   <location>
    <lat>42.3026351</lat>
    <lng>-85.5457689</lng>
   </location>
   <location_type>APPROXIMATE</location_type>
   <viewport>
    <southwest>
     <lat>42.2874110</lat>
     <lng>-85.5633060</lng>
    </southwest>
    <northeast>
     <lat>42.3215999</lat>
     <lng>-85.5307019</lng>
    </northeast>
   </viewport>
   <bounds>
    <southwest>
     <lat>42.2874110</lat>
     <lng>-85.5633060</lng>
    </southwest>
    <northeast>
     <lat>42.3215999</lat>
     <lng>-85.5307019</lng>
    </northeast>
   </bounds>
  </geometry>
  <place_id>ChIJyd7tZcmcF4gRn5eYPYY6f5Q</place_id>
 </result>
 <result>
  <type>locality</type>
  <type>political</type>
  <formatted_address>Eastwood, Nottingham, Nottinghamshire NG16, UK</formatted_address>
  <address_component>
   <long_name>Eastwood</long_name>
   <short_name>Eastwood</short_name>
   <type>locality</type>
   <type>political</type>
  </address_component>
  <address_component>
   <long_name>Nottingham</long_name>
   <short_name>Nottingham</short_name>
   <type>postal_town</type>
  </address_component>
  <address_component>
   <long_name>Broxtowe District</long_name>
   <short_name>Broxtowe District</short_name>
   <type>administrative_area_level_3</type>
   <type>political</type>
  </address_component>
  <address_component>
   <long_name>Nottinghamshire</long_name>
   <short_name>Nottinghamshire</short_name>
   <type>administrative_area_level_2</type>
   <type>political</type>
  </address_component>
  <address_component>
   <long_name>England</long_name>
   <short_name>England</short_name>
   <type>administrative_area_level_1</type>
   <type>political</type>
  </address_component>
  <address_component>
   <long_name>United Kingdom</long_name>
   <short_name>GB</short_name>
   <type>country</type>
   <type>political</type>
  </address_component>
  <address_component>
   <long_name>NG16</long_name>
   <short_name>NG16</short_name>
   <type>postal_code</type>
   <type>postal_code_prefix</type>
  </address_component>
  <geometry>
   <location>
    <lat>53.0181150</lat>
    <lng>-1.3085440</lng>
   </location>
   <location_type>APPROXIMATE</location_type>
   <viewport>
    <southwest>
     <lat>53.0020118</lat>
     <lng>-1.3284511</lng>
    </southwest>
    <northeast>
     <lat>53.0310266</lat>
     <lng>-1.2853207</lng>
    </northeast>
   </viewport>
   <bounds>
    <southwest>
     <lat>53.0020118</lat>
     <lng>-1.3284511</lng>
    </southwest>
    <northeast>
     <lat>53.0310266</lat>
     <lng>-1.2853207</lng>
    </northeast>
   </bounds>
  </geometry>
  <place_id>ChIJ51oPKUzreUgROF-kn18Rx3M</place_id>
 </result>
 <result>
  <type>neighborhood</type>
  <type>political</type>
  <formatted_address>Eastwood, Birmingham, AL, USA</formatted_address>
  <address_component>
   <long_name>Eastwood</long_name>
   <short_name>Eastwood</short_name>
   <type>neighborhood</type>
   <type>political</type>
  </address_component>
  <address_component>
   <long_name>Birmingham</long_name>
   <short_name>Birmingham</short_name>
   <type>locality</type>
   <type>political</type>
  </address_component>
  <address_component>
   <long_name>Jefferson County</long_name>
   <short_name>Jefferson County</short_name>
   <type>administrative_area_level_2</type>
   <type>political</type>
  </address_component>
  <address_component>
   <long_name>Alabama</long_name>
   <short_name>AL</short_name>
   <type>administrative_area_level_1</type>
   <type>political</type>
  </address_component>
  <address_component>
   <long_name>United States</long_name>
   <short_name>US</short_name>
   <type>country</type>
   <type>political</type>
  </address_component>
  <geometry>
   <location>
    <lat>33.5265792</lat>
    <lng>-86.7139704</lng>
   </location>
   <location_type>APPROXIMATE</location_type>
   <viewport>
    <southwest>
     <lat>33.5182010</lat>
     <lng>-86.7273879</lng>
    </southwest>
    <northeast>
     <lat>33.5428040</lat>
     <lng>-86.7012349</lng>
    </northeast>
   </viewport>
   <bounds>
    <southwest>
     <lat>33.5182010</lat>
     <lng>-86.7273879</lng>
    </southwest>
    <northeast>
     <lat>33.5428040</lat>
     <lng>-86.7012349</lng>
    </northeast>
   </bounds>
  </geometry>
  <place_id>ChIJOyUMjFgQiYgRPv-mfNtaeL0</place_id>
 </result>
 <result>
  <type>neighborhood</type>
  <type>political</type>
  <formatted_address>Eastwood, Nashville, TN 37206, USA</formatted_address>
  <address_component>
   <long_name>Eastwood</long_name>
   <short_name>Eastwood</short_name>
   <type>neighborhood</type>
   <type>political</type>
  </address_component>
  <address_component>
   <long_name>Nashville</long_name>
   <short_name>Nashville</short_name>
   <type>locality</type>
   <type>political</type>
  </address_component>
  <address_component>
   <long_name>Davidson County</long_name>
   <short_name>Davidson County</short_name>
   <type>administrative_area_level_2</type>
   <type>political</type>
  </address_component>
  <address_component>
   <long_name>Tennessee</long_name>
   <short_name>TN</short_name>
   <type>administrative_area_level_1</type>
   <type>political</type>
  </address_component>
  <address_component>
   <long_name>United States</long_name>
   <short_name>US</short_name>
   <type>country</type>
   <type>political</type>
  </address_component>
  <address_component>
   <long_name>37206</long_name>
   <short_name>37206</short_name>
   <type>postal_code</type>
  </address_component>
  <geometry>
   <location>
    <lat>36.1876062</lat>
    <lng>-86.7378655</lng>
   </location>
   <location_type>APPROXIMATE</location_type>
   <viewport>
    <southwest>
     <lat>36.1822550</lat>
     <lng>-86.7480980</lng>
    </southwest>
    <northeast>
     <lat>36.1923550</lat>
     <lng>-86.7285968</lng>
    </northeast>
   </viewport>
   <bounds>
    <southwest>
     <lat>36.1822550</lat>
     <lng>-86.7480980</lng>
    </southwest>
    <northeast>
     <lat>36.1923550</lat>
     <lng>-86.7285968</lng>
    </northeast>
   </bounds>
  </geometry>
  <place_id>ChIJr53TbXdoZIgRLFpM2s52BT4</place_id>
 </result>
</GeocodeResponse>
