<?xml version="1.0" encoding="UTF-8"?>
<GeocodeResponse>
 <status>OK</status>
 <result>
  <type>administrative_area_level_1</type>
  <type>political</type>
  <formatted_address>Co. Monaghan, Ireland</formatted_address>
  <address_component>
   <long_name>Monaghan</long_name>
   <short_name>Monaghan</short_name>
   <type>administrative_area_level_1</type>
   <type>political</type>
  </address_component>
  <address_component>
   <long_name>Ireland</long_name>
   <short_name>IE</short_name>
   <type>country</type>
   <type>political</type>
  </address_component>
  <geometry>
   <location>
    <lat>54.2492046</lat>
    <lng>-6.9683132</lng>
   </location>
   <location_type>APPROXIMATE</location_type>
   <viewport>
    <southwest>
     <lat>53.9006798</lat>
     <lng>-7.3395060</lng>
    </southwest>
    <northeast>
     <lat>54.4213907</lat>
     <lng>-6.5497282</lng>
    </northeast>
   </viewport>
   <bounds>
    <southwest>
     <lat>53.9006798</lat>
     <lng>-7.3395060</lng>
    </southwest>
    <northeast>
     <lat>54.4213907</lat>
     <lng>-6.5497282</lng>
    </northeast>
   </bounds>
  </geometry>
  <place_id>ChIJR6rlR0ShYEgRwAGA8azHABg</place_id>
 </result>
 <result>
  <type>locality</type>
  <type>political</type>
  <formatted_address>Monaghan, Ireland</formatted_address>
  <address_component>
   <long_name>Monaghan</long_name>
   <short_name>Monaghan</short_name>
   <type>locality</type>
   <type>political</type>
  </address_component>
  <address_component>
   <long_name>Monaghan</long_name>
   <short_name>Monaghan</short_name>
   <type>administrative_area_level_2</type>
   <type>political</type>
  </address_component>
  <address_component>
   <long_name>Monaghan</long_name>
   <short_name>Monaghan</short_name>
   <type>administrative_area_level_1</type>
   <type>political</type>
  </address_component>
  <address_component>
   <long_name>Ireland</long_name>
   <short_name>IE</short_name>
   <type>country</type>
   <type>political</type>
  </address_component>
  <geometry>
   <location>
    <lat>54.2492434</lat>
    <lng>-6.9683082</lng>
   </location>
   <location_type>APPROXIMATE</location_type>
   <viewport>
    <southwest>
     <lat>54.2273700</lat>
     <lng>-6.9994099</lng>
    </southwest>
    <northeast>
     <lat>54.2640800</lat>
     <lng>-6.9426000</lng>
    </northeast>
   </viewport>
   <bounds>
    <southwest>
     <lat>54.2273700</lat>
     <lng>-6.9994099</lng>
    </southwest>
    <northeast>
     <lat>54.2640800</lat>
     <lng>-6.9426000</lng>
    </northeast>
   </bounds>
  </geometry>
  <place_id>ChIJXQivX0KfYEgRkHIxl6nHAAo</place_id>
 </result>
 <result>
  <type>administrative_area_level_2</type>
  <type>political</type>
  <formatted_address>Monaghan, Co. Monaghan, Ireland</formatted_address>
  <address_component>
   <long_name>Monaghan</long_name>
   <short_name>Monaghan</short_name>
   <type>administrative_area_level_2</type>
   <type>political</type>
  </address_component>
  <address_component>
   <long_name>Monaghan</long_name>
   <short_name>Monaghan</short_name>
   <type>administrative_area_level_1</type>
   <type>political</type>
  </address_component>
  <address_component>
   <long_name>Ireland</long_name>
   <short_name>IE</short_name>
   <type>country</type>
   <type>political</type>
  </address_component>
  <geometry>
   <location>
    <lat>54.2492046</lat>
    <lng>-6.9683132</lng>
   </location>
   <location_type>APPROXIMATE</location_type>
   <viewport>
    <southwest>
     <lat>53.9006798</lat>
     <lng>-7.3395060</lng>
    </southwest>
    <northeast>
     <lat>54.4213907</lat>
     <lng>-6.5497282</lng>
    </northeast>
   </viewport>
   <bounds>
    <southwest>
     <lat>53.9006798</lat>
     <lng>-7.3395060</lng>
    </southwest>
    <northeast>
     <lat>54.4213907</lat>
     <lng>-6.5497282</lng>
    </northeast>
   </bounds>
  </geometry>
  <place_id>ChIJ--AL-UKfYEgRT7glEhngANY</place_id>
 </result>
 <result>
  <type>administrative_area_level_3</type>
  <type>political</type>
  <formatted_address>Monaghan Township, PA, USA</formatted_address>
  <address_component>
   <long_name>Monaghan Township</long_name>
   <short_name>Monaghan Township</short_name>
   <type>administrative_area_level_3</type>
   <type>political</type>
  </address_component>
  <address_component>
   <long_name>York County</long_name>
   <short_name>York County</short_name>
   <type>administrative_area_level_2</type>
   <type>political</type>
  </address_component>
  <address_component>
   <long_name>Pennsylvania</long_name>
   <short_name>PA</short_name>
   <type>administrative_area_level_1</type>
   <type>political</type>
  </address_component>
  <address_component>
   <long_name>United States</long_name>
   <short_name>US</short_name>
   <type>country</type>
   <type>political</type>
  </address_component>
  <geometry>
   <location>
    <lat>40.1277252</lat>
    <lng>-76.9527836</lng>
   </location>
   <location_type>APPROXIMATE</location_type>
   <viewport>
    <southwest>
     <lat>40.1072619</lat>
     <lng>-76.9995101</lng>
    </southwest>
    <northeast>
     <lat>40.1658269</lat>
     <lng>-76.9116389</lng>
    </northeast>
   </viewport>
   <bounds>
    <southwest>
     <lat>40.1072619</lat>
     <lng>-76.9995101</lng>
    </southwest>
    <northeast>
     <lat>40.1658269</lat>
     <lng>-76.9116389</lng>
    </northeast>
   </bounds>
  </geometry>
  <place_id>ChIJyawC4tLuyIkRMb0XEW0UqnI</place_id>
 </result>
</GeocodeResponse>
