<?xml version="1.0" encoding="UTF-8"?>
<GeocodeResponse>
 <status>OK</status>
 <result>
  <type>route</type>
  <formatted_address>Extremadura, Centro, 59800 Jacona de Plancarte, Mich., Mexico</formatted_address>
  <address_component>
   <long_name>Extremadura</long_name>
   <short_name>Extremadura</short_name>
   <type>route</type>
  </address_component>
  <address_component>
   <long_name>Centro</long_name>
   <short_name>Centro</short_name>
   <type>sublocality_level_1</type>
   <type>sublocality</type>
   <type>political</type>
  </address_component>
  <address_component>
   <long_name>Jacona de Plancarte</long_name>
   <short_name>Jacona de Plancarte</short_name>
   <type>locality</type>
   <type>political</type>
  </address_component>
  <address_component>
   <long_name>Jacona</long_name>
   <short_name>Jacona</short_name>
   <type>administrative_area_level_2</type>
   <type>political</type>
  </address_component>
  <address_component>
   <long_name>Michoacán</long_name>
   <short_name>Mich.</short_name>
   <type>administrative_area_level_1</type>
   <type>political</type>
  </address_component>
  <address_component>
   <long_name>Mexico</long_name>
   <short_name>MX</short_name>
   <type>country</type>
   <type>political</type>
  </address_component>
  <address_component>
   <long_name>59800</long_name>
   <short_name>59800</short_name>
   <type>postal_code</type>
  </address_component>
  <geometry>
   <location>
    <lat>19.9647915</lat>
    <lng>-102.3029269</lng>
   </location>
   <location_type>GEOMETRIC_CENTER</location_type>
   <viewport>
    <southwest>
     <lat>19.9634425</lat>
     <lng>-102.3042759</lng>
    </southwest>
    <northeast>
     <lat>19.9661404</lat>
     <lng>-102.3015780</lng>
    </northeast>
   </viewport>
   <bounds>
    <southwest>
     <lat>19.9645022</lat>
     <lng>-102.3035692</lng>
    </southwest>
    <northeast>
     <lat>19.9650807</lat>
     <lng>-102.3022847</lng>
    </northeast>
   </bounds>
  </geometry>
  <place_id>ChIJuYUU0B2JLoQRijoPju20T6g</place_id>
 </result>
 <result>
  <type>route</type>
  <formatted_address>Extremadura, Santa Cruz de la Sierra, Bolivia</formatted_address>
  <address_component>
   <long_name>Extremadura</long_name>
   <short_name>Extremadura</short_name>
   <type>route</type>
  </address_component>
  <address_component>
   <long_name>El Pari</long_name>
   <short_name>El Pari</short_name>
   <type>sublocality_level_1</type>
   <type>sublocality</type>
   <type>political</type>
  </address_component>
  <address_component>
   <long_name>Santa Cruz de la Sierra</long_name>
   <short_name>Santa Cruz</short_name>
   <type>locality</type>
   <type>political</type>
  </address_component>
  <address_component>
   <long_name>Provincia de Andrés Ibáñez</long_name>
   <short_name>Provincia de Andrés Ibáñez</short_name>
   <type>administrative_area_level_2</type>
   <type>political</type>
  </address_component>
  <address_component>
   <long_name>Santa Cruz</long_name>
   <short_name>Santa Cruz</short_name>
   <type>administrative_area_level_1</type>
   <type>political</type>
  </address_component>
  <address_component>
   <long_name>Bolivia</long_name>
   <short_name>BO</short_name>
   <type>country</type>
   <type>political</type>
  </address_component>
  <geometry>
   <location>
    <lat>-17.8142012</lat>
    <lng>-63.2054870</lng>
   </location>
   <location_type>GEOMETRIC_CENTER</location_type>
   <viewport>
    <southwest>
     <lat>-17.8149954</lat>
     <lng>-63.2063552</lng>
    </southwest>
    <northeast>
     <lat>-17.8122975</lat>
     <lng>-63.2036572</lng>
    </northeast>
   </viewport>
   <bounds>
    <southwest>
     <lat>-17.8142012</lat>
     <lng>-63.2054870</lng>
    </southwest>
    <northeast>
     <lat>-17.8130917</lat>
     <lng>-63.2045254</lng>
    </northeast>
   </bounds>
  </geometry>
  <partial_match>true</partial_match>
  <place_id>ChIJPc5fX4LC8ZMRXa8liVXRPtY</place_id>
 </result>
 <result>
  <type>route</type>
  <formatted_address>Extremadura, Puerta de Hierro, 45116 Zapopan, Jal., Mexico</formatted_address>
  <address_component>
   <long_name>Extremadura</long_name>
   <short_name>Extremadura</short_name>
   <type>route</type>
  </address_component>
  <address_component>
   <long_name>Puerta de Hierro</long_name>
   <short_name>Puerta de Hierro</short_name>
   <type>sublocality_level_1</type>
   <type>sublocality</type>
   <type>political</type>
  </address_component>
  <address_component>
   <long_name>Zapopan</long_name>
   <short_name>Zapopan</short_name>
   <type>locality</type>
   <type>political</type>
  </address_component>
  <address_component>
   <long_name>Zapopan</long_name>
   <short_name>Zapopan</short_name>
   <type>administrative_area_level_2</type>
   <type>political</type>
  </address_component>
  <address_component>
   <long_name>Jalisco</long_name>
   <short_name>Jal.</short_name>
   <type>administrative_area_level_1</type>
   <type>political</type>
  </address_component>
  <address_component>
   <long_name>Mexico</long_name>
   <short_name>MX</short_name>
   <type>country</type>
   <type>political</type>
  </address_component>
  <address_component>
   <long_name>45116</long_name>
   <short_name>45116</short_name>
   <type>postal_code</type>
  </address_component>
  <geometry>
   <location>
    <lat>20.7108524</lat>
    <lng>-103.4196616</lng>
   </location>
   <location_type>GEOMETRIC_CENTER</location_type>
   <viewport>
    <southwest>
     <lat>20.7094120</lat>
     <lng>-103.4210169</lng>
    </southwest>
    <northeast>
     <lat>20.7121100</lat>
     <lng>-103.4183190</lng>
    </northeast>
   </viewport>
   <bounds>
    <southwest>
     <lat>20.7100851</lat>
     <lng>-103.4198555</lng>
    </southwest>
    <northeast>
     <lat>20.7114369</lat>
     <lng>-103.4194804</lng>
    </northeast>
   </bounds>
  </geometry>
  <partial_match>true</partial_match>
  <place_id>ChIJrRtLWRyvKIQRWQpB7yPtxog</place_id>
 </result>
 <result>
  <type>route</type>
  <formatted_address>Extremadura, España, León, Gto., Mexico</formatted_address>
  <address_component>
   <long_name>Extremadura</long_name>
   <short_name>Extremadura</short_name>
   <type>route</type>
  </address_component>
  <address_component>
   <long_name>España</long_name>
   <short_name>España</short_name>
   <type>sublocality_level_1</type>
   <type>sublocality</type>
   <type>political</type>
  </address_component>
  <address_component>
   <long_name>León</long_name>
   <short_name>León</short_name>
   <type>locality</type>
   <type>political</type>
  </address_component>
  <address_component>
   <long_name>León</long_name>
   <short_name>León</short_name>
   <type>administrative_area_level_2</type>
   <type>political</type>
  </address_component>
  <address_component>
   <long_name>Guanajuato</long_name>
   <short_name>Gto.</short_name>
   <type>administrative_area_level_1</type>
   <type>political</type>
  </address_component>
  <address_component>
   <long_name>Mexico</long_name>
   <short_name>MX</short_name>
   <type>country</type>
   <type>political</type>
  </address_component>
  <geometry>
   <location>
    <lat>21.1336875</lat>
    <lng>-101.7007929</lng>
   </location>
   <location_type>GEOMETRIC_CENTER</location_type>
   <viewport>
    <southwest>
     <lat>21.1317649</lat>
     <lng>-101.7021360</lng>
    </southwest>
    <northeast>
     <lat>21.1356046</lat>
     <lng>-101.6994381</lng>
    </northeast>
   </viewport>
   <bounds>
    <southwest>
     <lat>21.1317649</lat>
     <lng>-101.7012704</lng>
    </southwest>
    <northeast>
     <lat>21.1356046</lat>
     <lng>-101.7003037</lng>
    </northeast>
   </bounds>
  </geometry>
  <partial_match>true</partial_match>
  <place_id>ChIJEasqrGa_K4QRh2DUJRinQ60</place_id>
 </result>
 <result>
  <type>route</type>
  <formatted_address>Extremadura, Torremolinos, 64850 Monterrey, N.L., Mexico</formatted_address>
  <address_component>
   <long_name>Extremadura</long_name>
   <short_name>Extremadura</short_name>
   <type>route</type>
  </address_component>
  <address_component>
   <long_name>Torremolinos</long_name>
   <short_name>Torremolinos</short_name>
   <type>sublocality_level_1</type>
   <type>sublocality</type>
   <type>political</type>
  </address_component>
  <address_component>
   <long_name>Monterrey</long_name>
   <short_name>Monterrey</short_name>
   <type>locality</type>
   <type>political</type>
  </address_component>
  <address_component>
   <long_name>Monterrey</long_name>
   <short_name>Monterrey</short_name>
   <type>administrative_area_level_2</type>
   <type>political</type>
  </address_component>
  <address_component>
   <long_name>Nuevo León</long_name>
   <short_name>N.L.</short_name>
   <type>administrative_area_level_1</type>
   <type>political</type>
  </address_component>
  <address_component>
   <long_name>Mexico</long_name>
   <short_name>MX</short_name>
   <type>country</type>
   <type>political</type>
  </address_component>
  <address_component>
   <long_name>64850</long_name>
   <short_name>64850</short_name>
   <type>postal_code</type>
  </address_component>
  <geometry>
   <location>
    <lat>25.6369669</lat>
    <lng>-100.2738027</lng>
   </location>
   <location_type>GEOMETRIC_CENTER</location_type>
   <viewport>
    <southwest>
     <lat>25.6354237</lat>
     <lng>-100.2751736</lng>
    </southwest>
    <northeast>
     <lat>25.6381216</lat>
     <lng>-100.2724756</lng>
    </northeast>
   </viewport>
   <bounds>
    <southwest>
     <lat>25.6354379</lat>
     <lng>-100.2740024</lng>
    </southwest>
    <northeast>
     <lat>25.6381074</lat>
     <lng>-100.2736468</lng>
    </northeast>
   </bounds>
  </geometry>
  <partial_match>true</partial_match>
  <place_id>ChIJSyN4gZy_YoYRo5_zkYrxz8I</place_id>
 </result>
 <result>
  <type>route</type>
  <formatted_address>Extremadura, Villa Alegre, 64130 Monterrey, N.L., Mexico</formatted_address>
  <address_component>
   <long_name>Extremadura</long_name>
   <short_name>Extremadura</short_name>
   <type>route</type>
  </address_component>
  <address_component>
   <long_name>Villa Alegre</long_name>
   <short_name>Villa Alegre</short_name>
   <type>sublocality_level_1</type>
   <type>sublocality</type>
   <type>political</type>
  </address_component>
  <address_component>
   <long_name>Monterrey</long_name>
   <short_name>Monterrey</short_name>
   <type>locality</type>
   <type>political</type>
  </address_component>
  <address_component>
   <long_name>Nuevo León</long_name>
   <short_name>N.L.</short_name>
   <type>administrative_area_level_1</type>
   <type>political</type>
  </address_component>
  <address_component>
   <long_name>Mexico</long_name>
   <short_name>MX</short_name>
   <type>country</type>
   <type>political</type>
  </address_component>
  <address_component>
   <long_name>64130</long_name>
   <short_name>64130</short_name>
   <type>postal_code</type>
  </address_component>
  <geometry>
   <location>
    <lat>25.7472569</lat>
    <lng>-100.3702000</lng>
   </location>
   <location_type>GEOMETRIC_CENTER</location_type>
   <viewport>
    <southwest>
     <lat>25.7459773</lat>
     <lng>-100.3714202</lng>
    </southwest>
    <northeast>
     <lat>25.7486753</lat>
     <lng>-100.3687223</lng>
    </northeast>
   </viewport>
   <bounds>
    <southwest>
     <lat>25.7468310</lat>
     <lng>-100.3713781</lng>
    </southwest>
    <northeast>
     <lat>25.7478216</lat>
     <lng>-100.3687644</lng>
    </northeast>
   </bounds>
  </geometry>
  <partial_match>true</partial_match>
  <place_id>ChIJSxFg0riWYoYRGFZFjY7nOmA</place_id>
 </result>
 <result>
  <type>route</type>
  <formatted_address>Extremadura, Real Valdepeñas, Zapopan, Jal., Mexico</formatted_address>
  <address_component>
   <long_name>Extremadura</long_name>
   <short_name>Extremadura</short_name>
   <type>route</type>
  </address_component>
  <address_component>
   <long_name>Real Valdepeñas</long_name>
   <short_name>Real Valdepeñas</short_name>
   <type>sublocality_level_1</type>
   <type>sublocality</type>
   <type>political</type>
  </address_component>
  <address_component>
   <long_name>Zapopan</long_name>
   <short_name>Zapopan</short_name>
   <type>locality</type>
   <type>political</type>
  </address_component>
  <address_component>
   <long_name>Zapopan</long_name>
   <short_name>Zapopan</short_name>
   <type>administrative_area_level_2</type>
   <type>political</type>
  </address_component>
  <address_component>
   <long_name>Jalisco</long_name>
   <short_name>Jal.</short_name>
   <type>administrative_area_level_1</type>
   <type>political</type>
  </address_component>
  <address_component>
   <long_name>Mexico</long_name>
   <short_name>MX</short_name>
   <type>country</type>
   <type>political</type>
  </address_component>
  <geometry>
   <location>
    <lat>20.7599140</lat>
    <lng>-103.4031265</lng>
   </location>
   <location_type>GEOMETRIC_CENTER</location_type>
   <viewport>
    <southwest>
     <lat>20.7584739</lat>
     <lng>-103.4046596</lng>
    </southwest>
    <northeast>
     <lat>20.7611718</lat>
     <lng>-103.4019616</lng>
    </northeast>
   </viewport>
   <bounds>
    <southwest>
     <lat>20.7595818</lat>
     <lng>-103.4038374</lng>
    </southwest>
    <northeast>
     <lat>20.7600639</lat>
     <lng>-103.4027838</lng>
    </northeast>
   </bounds>
  </geometry>
  <partial_match>true</partial_match>
  <place_id>ChIJS-YyOH-lKIQRSXlH8S_1uI0</place_id>
 </result>
</GeocodeResponse>
