<?xml version="1.0" encoding="UTF-8"?>
<GeocodeResponse>
 <status>OK</status>
 <result>
  <type>route</type>
  <formatted_address>Durham Rd, Stockton-on-Tees, Stockton-on-Tees, UK</formatted_address>
  <address_component>
   <long_name>Durham Road</long_name>
   <short_name>Durham Rd</short_name>
   <type>route</type>
  </address_component>
  <address_component>
   <long_name>Stockton-on-Tees</long_name>
   <short_name>Stockton-on-Tees</short_name>
   <type>postal_town</type>
  </address_component>
  <address_component>
   <long_name>Stockton-on-Tees</long_name>
   <short_name>Stockton-on-Tees</short_name>
   <type>administrative_area_level_2</type>
   <type>political</type>
  </address_component>
  <address_component>
   <long_name>United Kingdom</long_name>
   <short_name>GB</short_name>
   <type>country</type>
   <type>political</type>
  </address_component>
  <geometry>
   <location>
    <lat>54.6117582</lat>
    <lng>-1.3880506</lng>
   </location>
   <location_type>GEOMETRIC_CENTER</location_type>
   <viewport>
    <southwest>
     <lat>54.5986664</lat>
     <lng>-1.4004575</lng>
    </southwest>
    <northeast>
     <lat>54.6276461</lat>
     <lng>-1.3640981</lng>
    </northeast>
   </viewport>
   <bounds>
    <southwest>
     <lat>54.5986664</lat>
     <lng>-1.4004575</lng>
    </southwest>
    <northeast>
     <lat>54.6276461</lat>
     <lng>-1.3640981</lng>
    </northeast>
   </bounds>
  </geometry>
  <partial_match>true</partial_match>
  <place_id>ChIJ9xeRuAuSfkgRSzfcMz-fjBo</place_id>
 </result>
 <result>
  <type>route</type>
  <formatted_address>Durham Rd, Wolviston, Billingham, Stockton-on-Tees TS22, UK</formatted_address>
  <address_component>
   <long_name>Durham Road</long_name>
   <short_name>Durham Rd</short_name>
   <type>route</type>
  </address_component>
  <address_component>
   <long_name>Wolviston</long_name>
   <short_name>Wolviston</short_name>
   <type>locality</type>
   <type>political</type>
  </address_component>
  <address_component>
   <long_name>Billingham</long_name>
   <short_name>Billingham</short_name>
   <type>postal_town</type>
  </address_component>
  <address_component>
   <long_name>Stockton-on-Tees</long_name>
   <short_name>Stockton-on-Tees</short_name>
   <type>administrative_area_level_2</type>
   <type>political</type>
  </address_component>
  <address_component>
   <long_name>United Kingdom</long_name>
   <short_name>GB</short_name>
   <type>country</type>
   <type>political</type>
  </address_component>
  <address_component>
   <long_name>TS22</long_name>
   <short_name>TS22</short_name>
   <type>postal_code_prefix</type>
   <type>postal_code</type>
  </address_component>
  <geometry>
   <location>
    <lat>54.6244976</lat>
    <lng>-1.3012556</lng>
   </location>
   <location_type>GEOMETRIC_CENTER</location_type>
   <viewport>
    <southwest>
     <lat>54.6231358</lat>
     <lng>-1.3032632</lng>
    </southwest>
    <northeast>
     <lat>54.6258337</lat>
     <lng>-1.2991364</lng>
    </northeast>
   </viewport>
   <bounds>
    <southwest>
     <lat>54.6241867</lat>
     <lng>-1.3032632</lng>
    </southwest>
    <northeast>
     <lat>54.6247828</lat>
     <lng>-1.2991364</lng>
    </northeast>
   </bounds>
  </geometry>
  <partial_match>true</partial_match>
  <place_id>ChIJnTUHCkCNfkgRGWsO3ewBjSM</place_id>
 </result>
</GeocodeResponse>
