<?xml version="1.0" encoding="UTF-8"?>
<GeocodeResponse>
 <status>OK</status>
 <result>
  <type>administrative_area_level_2</type>
  <type>political</type>
  <formatted_address>Oost Gelre, Netherlands</formatted_address>
  <address_component>
   <long_name>Oost Gelre</long_name>
   <short_name>Oost Gelre</short_name>
   <type>administrative_area_level_2</type>
   <type>political</type>
  </address_component>
  <address_component>
   <long_name>Gelderland</long_name>
   <short_name>GE</short_name>
   <type>administrative_area_level_1</type>
   <type>political</type>
  </address_component>
  <address_component>
   <long_name>Netherlands</long_name>
   <short_name>NL</short_name>
   <type>country</type>
   <type>political</type>
  </address_component>
  <geometry>
   <location>
    <lat>51.9901169</lat>
    <lng>6.5670679</lng>
   </location>
   <location_type>APPROXIMATE</location_type>
   <viewport>
    <southwest>
     <lat>51.9625727</lat>
     <lng>6.4589992</lng>
    </southwest>
    <northeast>
     <lat>52.0680265</lat>
     <lng>6.6898670</lng>
    </northeast>
   </viewport>
   <bounds>
    <southwest>
     <lat>51.9625727</lat>
     <lng>6.4589992</lng>
    </southwest>
    <northeast>
     <lat>52.0680265</lat>
     <lng>6.6898670</lng>
    </northeast>
   </bounds>
  </geometry>
  <partial_match>true</partial_match>
  <place_id>ChIJ41-font3uEcRyVzxtTu9vYg</place_id>
 </result>
 <result>
  <type>route</type>
  <formatted_address>Oostweg, 6631 Horssen, Netherlands</formatted_address>
  <address_component>
   <long_name>Oostweg</long_name>
   <short_name>Oostweg</short_name>
   <type>route</type>
  </address_component>
  <address_component>
   <long_name>Horssen</long_name>
   <short_name>Horssen</short_name>
   <type>locality</type>
   <type>political</type>
  </address_component>
  <address_component>
   <long_name>Druten</long_name>
   <short_name>Druten</short_name>
   <type>administrative_area_level_2</type>
   <type>political</type>
  </address_component>
  <address_component>
   <long_name>Gelderland</long_name>
   <short_name>GE</short_name>
   <type>administrative_area_level_1</type>
   <type>political</type>
  </address_component>
  <address_component>
   <long_name>Netherlands</long_name>
   <short_name>NL</short_name>
   <type>country</type>
   <type>political</type>
  </address_component>
  <address_component>
   <long_name>6631</long_name>
   <short_name>6631</short_name>
   <type>postal_code_prefix</type>
   <type>postal_code</type>
  </address_component>
  <geometry>
   <location>
    <lat>51.8445813</lat>
    <lng>5.6197484</lng>
   </location>
   <location_type>GEOMETRIC_CENTER</location_type>
   <viewport>
    <southwest>
     <lat>51.8397855</lat>
     <lng>5.6046595</lng>
    </southwest>
    <northeast>
     <lat>51.8507290</lat>
     <lng>5.6311434</lng>
    </northeast>
   </viewport>
   <bounds>
    <southwest>
     <lat>51.8397855</lat>
     <lng>5.6046595</lng>
    </southwest>
    <northeast>
     <lat>51.8507290</lat>
     <lng>5.6311434</lng>
    </northeast>
   </bounds>
  </geometry>
  <partial_match>true</partial_match>
  <place_id>ChIJ2_pUqyoAx0cRihZ6wHw2f6A</place_id>
 </result>
 <result>
  <type>route</type>
  <formatted_address>Oostlaan, 3771 Barneveld, Netherlands</formatted_address>
  <address_component>
   <long_name>Oostlaan</long_name>
   <short_name>Oostlaan</short_name>
   <type>route</type>
  </address_component>
  <address_component>
   <long_name>Barneveld</long_name>
   <short_name>Barneveld</short_name>
   <type>locality</type>
   <type>political</type>
  </address_component>
  <address_component>
   <long_name>Barneveld</long_name>
   <short_name>Barneveld</short_name>
   <type>administrative_area_level_2</type>
   <type>political</type>
  </address_component>
  <address_component>
   <long_name>Gelderland</long_name>
   <short_name>GE</short_name>
   <type>administrative_area_level_1</type>
   <type>political</type>
  </address_component>
  <address_component>
   <long_name>Netherlands</long_name>
   <short_name>NL</short_name>
   <type>country</type>
   <type>political</type>
  </address_component>
  <address_component>
   <long_name>3771</long_name>
   <short_name>3771</short_name>
   <type>postal_code_prefix</type>
   <type>postal_code</type>
  </address_component>
  <geometry>
   <location>
    <lat>52.1477958</lat>
    <lng>5.5821219</lng>
   </location>
   <location_type>GEOMETRIC_CENTER</location_type>
   <viewport>
    <southwest>
     <lat>52.1464582</lat>
     <lng>5.5805818</lng>
    </southwest>
    <northeast>
     <lat>52.1491562</lat>
     <lng>5.5832798</lng>
    </northeast>
   </viewport>
   <bounds>
    <southwest>
     <lat>52.1472874</lat>
     <lng>5.5806218</lng>
    </southwest>
    <northeast>
     <lat>52.1483270</lat>
     <lng>5.5832398</lng>
    </northeast>
   </bounds>
  </geometry>
  <partial_match>true</partial_match>
  <place_id>ChIJZ0nbCPlLxkcRQURKD6fDYiY</place_id>
 </result>
 <result>
  <type>route</type>
  <formatted_address>Ooststraat, 6828 Arnhem, Netherlands</formatted_address>
  <address_component>
   <long_name>Ooststraat</long_name>
   <short_name>Ooststraat</short_name>
   <type>route</type>
  </address_component>
  <address_component>
   <long_name>Bij de John Frostbrug</long_name>
   <short_name>Bij de John Frostbrug</short_name>
   <type>sublocality_level_2</type>
   <type>sublocality</type>
   <type>political</type>
  </address_component>
  <address_component>
   <long_name>Arnhem</long_name>
   <short_name>Arnhem</short_name>
   <type>locality</type>
   <type>political</type>
  </address_component>
  <address_component>
   <long_name>Arnhem</long_name>
   <short_name>Arnhem</short_name>
   <type>administrative_area_level_2</type>
   <type>political</type>
  </address_component>
  <address_component>
   <long_name>Gelderland</long_name>
   <short_name>GE</short_name>
   <type>administrative_area_level_1</type>
   <type>political</type>
  </address_component>
  <address_component>
   <long_name>Netherlands</long_name>
   <short_name>NL</short_name>
   <type>country</type>
   <type>political</type>
  </address_component>
  <address_component>
   <long_name>6828</long_name>
   <short_name>6828</short_name>
   <type>postal_code_prefix</type>
   <type>postal_code</type>
  </address_component>
  <geometry>
   <location>
    <lat>51.9758000</lat>
    <lng>5.9133331</lng>
   </location>
   <location_type>GEOMETRIC_CENTER</location_type>
   <viewport>
    <southwest>
     <lat>51.9744880</lat>
     <lng>5.9120407</lng>
    </southwest>
    <northeast>
     <lat>51.9771860</lat>
     <lng>5.9147387</lng>
    </northeast>
   </viewport>
   <bounds>
    <southwest>
     <lat>51.9754184</lat>
     <lng>5.9128277</lng>
    </southwest>
    <northeast>
     <lat>51.9762556</lat>
     <lng>5.9139517</lng>
    </northeast>
   </bounds>
  </geometry>
  <partial_match>true</partial_match>
  <place_id>ChIJf-jf8DSkx0cRQoseOrL2IpQ</place_id>
 </result>
 <result>
  <type>sublocality_level_1</type>
  <type>sublocality</type>
  <type>political</type>
  <formatted_address>Nijmegen-Oost, Nijmegen, Netherlands</formatted_address>
  <address_component>
   <long_name>Nijmegen-Oost</long_name>
   <short_name>Nijmegen-Oost</short_name>
   <type>sublocality_level_1</type>
   <type>sublocality</type>
   <type>political</type>
  </address_component>
  <address_component>
   <long_name>Nijmegen</long_name>
   <short_name>Nijmegen</short_name>
   <type>locality</type>
   <type>political</type>
  </address_component>
  <address_component>
   <long_name>Nijmegen</long_name>
   <short_name>Nijmegen</short_name>
   <type>administrative_area_level_2</type>
   <type>political</type>
  </address_component>
  <address_component>
   <long_name>Gelderland</long_name>
   <short_name>GE</short_name>
   <type>administrative_area_level_1</type>
   <type>political</type>
  </address_component>
  <address_component>
   <long_name>Netherlands</long_name>
   <short_name>NL</short_name>
   <type>country</type>
   <type>political</type>
  </address_component>
  <geometry>
   <location>
    <lat>51.8352134</lat>
    <lng>5.8773281</lng>
   </location>
   <location_type>APPROXIMATE</location_type>
   <viewport>
    <southwest>
     <lat>51.8098460</lat>
     <lng>5.8509388</lng>
    </southwest>
    <northeast>
     <lat>51.8593210</lat>
     <lng>5.9077620</lng>
    </northeast>
   </viewport>
   <bounds>
    <southwest>
     <lat>51.8098460</lat>
     <lng>5.8509388</lng>
    </southwest>
    <northeast>
     <lat>51.8593210</lat>
     <lng>5.9077620</lng>
    </northeast>
   </bounds>
  </geometry>
  <partial_match>true</partial_match>
  <place_id>ChIJGz9v5v8Ix0cRcdUdRNUfBlw</place_id>
 </result>
 <result>
  <type>route</type>
  <formatted_address>Oostweg, Beekbergen, Netherlands</formatted_address>
  <address_component>
   <long_name>Oostweg</long_name>
   <short_name>Oostweg</short_name>
   <type>route</type>
  </address_component>
  <address_component>
   <long_name>Beekbergen</long_name>
   <short_name>Beekbergen</short_name>
   <type>locality</type>
   <type>political</type>
  </address_component>
  <address_component>
   <long_name>Apeldoorn</long_name>
   <short_name>Apeldoorn</short_name>
   <type>administrative_area_level_2</type>
   <type>political</type>
  </address_component>
  <address_component>
   <long_name>Gelderland</long_name>
   <short_name>GE</short_name>
   <type>administrative_area_level_1</type>
   <type>political</type>
  </address_component>
  <address_component>
   <long_name>Netherlands</long_name>
   <short_name>NL</short_name>
   <type>country</type>
   <type>political</type>
  </address_component>
  <geometry>
   <location>
    <lat>52.1339835</lat>
    <lng>5.9401830</lng>
   </location>
   <location_type>GEOMETRIC_CENTER</location_type>
   <viewport>
    <southwest>
     <lat>52.1252606</lat>
     <lng>5.9352318</lng>
    </southwest>
    <northeast>
     <lat>52.1435606</lat>
     <lng>5.9447339</lng>
    </northeast>
   </viewport>
   <bounds>
    <southwest>
     <lat>52.1252606</lat>
     <lng>5.9352318</lng>
    </southwest>
    <northeast>
     <lat>52.1435606</lat>
     <lng>5.9447339</lng>
    </northeast>
   </bounds>
  </geometry>
  <partial_match>true</partial_match>
  <place_id>ChIJFQJrpIO5x0cR39I4A-mWGMs</place_id>
 </result>
 <result>
  <type>route</type>
  <formatted_address>Oostlaan, 6952 Dieren, Netherlands</formatted_address>
  <address_component>
   <long_name>Oostlaan</long_name>
   <short_name>Oostlaan</short_name>
   <type>route</type>
  </address_component>
  <address_component>
   <long_name>Dieren</long_name>
   <short_name>Dieren</short_name>
   <type>locality</type>
   <type>political</type>
  </address_component>
  <address_component>
   <long_name>Rheden</long_name>
   <short_name>Rheden</short_name>
   <type>administrative_area_level_2</type>
   <type>political</type>
  </address_component>
  <address_component>
   <long_name>Gelderland</long_name>
   <short_name>GE</short_name>
   <type>administrative_area_level_1</type>
   <type>political</type>
  </address_component>
  <address_component>
   <long_name>Netherlands</long_name>
   <short_name>NL</short_name>
   <type>country</type>
   <type>political</type>
  </address_component>
  <address_component>
   <long_name>6952</long_name>
   <short_name>6952</short_name>
   <type>postal_code_prefix</type>
   <type>postal_code</type>
  </address_component>
  <geometry>
   <location>
    <lat>52.0490285</lat>
    <lng>6.0863095</lng>
   </location>
   <location_type>GEOMETRIC_CENTER</location_type>
   <viewport>
    <southwest>
     <lat>52.0446243</lat>
     <lng>6.0768423</lng>
    </southwest>
    <northeast>
     <lat>52.0533853</lat>
     <lng>6.0961042</lng>
    </northeast>
   </viewport>
   <bounds>
    <southwest>
     <lat>52.0446243</lat>
     <lng>6.0768423</lng>
    </southwest>
    <northeast>
     <lat>52.0533853</lat>
     <lng>6.0961042</lng>
    </northeast>
   </bounds>
  </geometry>
  <partial_match>true</partial_match>
  <place_id>ChIJBwvloli9x0cRafs0zlTla2w</place_id>
 </result>
 <result>
  <type>sublocality_level_1</type>
  <type>sublocality</type>
  <type>political</type>
  <formatted_address>Apeldoorn Oost, Apeldoorn, Netherlands</formatted_address>
  <address_component>
   <long_name>Apeldoorn Oost</long_name>
   <short_name>Apeldoorn Oost</short_name>
   <type>sublocality_level_1</type>
   <type>sublocality</type>
   <type>political</type>
  </address_component>
  <address_component>
   <long_name>Apeldoorn</long_name>
   <short_name>Apeldoorn</short_name>
   <type>locality</type>
   <type>political</type>
  </address_component>
  <address_component>
   <long_name>Apeldoorn</long_name>
   <short_name>Apeldoorn</short_name>
   <type>administrative_area_level_2</type>
   <type>political</type>
  </address_component>
  <address_component>
   <long_name>Gelderland</long_name>
   <short_name>GE</short_name>
   <type>administrative_area_level_1</type>
   <type>political</type>
  </address_component>
  <address_component>
   <long_name>Netherlands</long_name>
   <short_name>NL</short_name>
   <type>country</type>
   <type>political</type>
  </address_component>
  <geometry>
   <location>
    <lat>52.2058357</lat>
    <lng>6.0104244</lng>
   </location>
   <location_type>APPROXIMATE</location_type>
   <viewport>
    <southwest>
     <lat>52.1934360</lat>
     <lng>5.9691030</lng>
    </southwest>
    <northeast>
     <lat>52.2206160</lat>
     <lng>6.0476221</lng>
    </northeast>
   </viewport>
   <bounds>
    <southwest>
     <lat>52.1934360</lat>
     <lng>5.9691030</lng>
    </southwest>
    <northeast>
     <lat>52.2206160</lat>
     <lng>6.0476221</lng>
    </northeast>
   </bounds>
  </geometry>
  <partial_match>true</partial_match>
  <place_id>ChIJT4u3PKq4x0cR3R-jg1tiRfI</place_id>
 </result>
 <result>
  <type>sublocality_level_2</type>
  <type>sublocality</type>
  <type>political</type>
  <formatted_address>Neerbosch-Oost, Nijmegen, Netherlands</formatted_address>
  <address_component>
   <long_name>Neerbosch-Oost</long_name>
   <short_name>Neerbosch-Oost</short_name>
   <type>sublocality_level_2</type>
   <type>sublocality</type>
   <type>political</type>
  </address_component>
  <address_component>
   <long_name>Nijmegen-Nieuw-West</long_name>
   <short_name>Nijmegen-Nieuw-West</short_name>
   <type>sublocality_level_1</type>
   <type>sublocality</type>
   <type>political</type>
  </address_component>
  <address_component>
   <long_name>Nijmegen</long_name>
   <short_name>Nijmegen</short_name>
   <type>locality</type>
   <type>political</type>
  </address_component>
  <address_component>
   <long_name>Nijmegen</long_name>
   <short_name>Nijmegen</short_name>
   <type>administrative_area_level_2</type>
   <type>political</type>
  </address_component>
  <address_component>
   <long_name>Gelderland</long_name>
   <short_name>GE</short_name>
   <type>administrative_area_level_1</type>
   <type>political</type>
  </address_component>
  <address_component>
   <long_name>Netherlands</long_name>
   <short_name>NL</short_name>
   <type>country</type>
   <type>political</type>
  </address_component>
  <geometry>
   <location>
    <lat>51.8315958</lat>
    <lng>5.8143495</lng>
   </location>
   <location_type>APPROXIMATE</location_type>
   <viewport>
    <southwest>
     <lat>51.8255880</lat>
     <lng>5.8070498</lng>
    </southwest>
    <northeast>
     <lat>51.8417829</lat>
     <lng>5.8265169</lng>
    </northeast>
   </viewport>
   <bounds>
    <southwest>
     <lat>51.8255880</lat>
     <lng>5.8070498</lng>
    </southwest>
    <northeast>
     <lat>51.8417829</lat>
     <lng>5.8265169</lng>
    </northeast>
   </bounds>
  </geometry>
  <partial_match>true</partial_match>
  <place_id>ChIJc-5mGy0Gx0cRxfKrEw8xztI</place_id>
 </result>
 <result>
  <type>sublocality_level_2</type>
  <type>sublocality</type>
  <type>political</type>
  <formatted_address>Osseveld-Oost, 7325 Apeldoorn, Netherlands</formatted_address>
  <address_component>
   <long_name>Osseveld-Oost</long_name>
   <short_name>Osseveld-Oost</short_name>
   <type>sublocality_level_2</type>
   <type>sublocality</type>
   <type>political</type>
  </address_component>
  <address_component>
   <long_name>Apeldoorn Noord-Oost</long_name>
   <short_name>Apeldoorn Noordoost</short_name>
   <type>sublocality_level_1</type>
   <type>sublocality</type>
   <type>political</type>
  </address_component>
  <address_component>
   <long_name>Apeldoorn</long_name>
   <short_name>Apeldoorn</short_name>
   <type>locality</type>
   <type>political</type>
  </address_component>
  <address_component>
   <long_name>Apeldoorn</long_name>
   <short_name>Apeldoorn</short_name>
   <type>administrative_area_level_2</type>
   <type>political</type>
  </address_component>
  <address_component>
   <long_name>Gelderland</long_name>
   <short_name>GE</short_name>
   <type>administrative_area_level_1</type>
   <type>political</type>
  </address_component>
  <address_component>
   <long_name>Netherlands</long_name>
   <short_name>NL</short_name>
   <type>country</type>
   <type>political</type>
  </address_component>
  <address_component>
   <long_name>7325</long_name>
   <short_name>7325</short_name>
   <type>postal_code_prefix</type>
   <type>postal_code</type>
  </address_component>
  <geometry>
   <location>
    <lat>52.2202388</lat>
    <lng>6.0028581</lng>
   </location>
   <location_type>APPROXIMATE</location_type>
   <viewport>
    <southwest>
     <lat>52.2145358</lat>
     <lng>6.0001588</lng>
    </southwest>
    <northeast>
     <lat>52.2253119</lat>
     <lng>6.0149260</lng>
    </northeast>
   </viewport>
   <bounds>
    <southwest>
     <lat>52.2145358</lat>
     <lng>6.0001588</lng>
    </southwest>
    <northeast>
     <lat>52.2253119</lat>
     <lng>6.0149260</lng>
    </northeast>
   </bounds>
  </geometry>
  <partial_match>true</partial_match>
  <place_id>ChIJH0_wL07Hx0cRp2OfBBbV-dc</place_id>
 </result>
</GeocodeResponse>
