<?xml version="1.0" encoding="UTF-8"?>
<GeocodeResponse>
 <status>OK</status>
 <result>
  <type>locality</type>
  <type>political</type>
  <formatted_address>Ciutadella de Menorca, Balearic Islands, Spain</formatted_address>
  <address_component>
   <long_name>Ciutadella de Menorca</long_name>
   <short_name>Ciutadella de Menorca</short_name>
   <type>locality</type>
   <type>political</type>
  </address_component>
  <address_component>
   <long_name>Ciutadella de Menorca</long_name>
   <short_name>Ciutadella de Menorca</short_name>
   <type>administrative_area_level_4</type>
   <type>political</type>
  </address_component>
  <address_component>
   <long_name>Área Metropolitana de Ciutadella</long_name>
   <short_name>Área Metropolitana de Ciutadella</short_name>
   <type>administrative_area_level_3</type>
   <type>political</type>
  </address_component>
  <address_component>
   <long_name>Balearic Islands</long_name>
   <short_name>Balearic Islands</short_name>
   <type>administrative_area_level_2</type>
   <type>political</type>
  </address_component>
  <address_component>
   <long_name>Balearic Islands</long_name>
   <short_name>PM</short_name>
   <type>administrative_area_level_1</type>
   <type>political</type>
  </address_component>
  <address_component>
   <long_name>Spain</long_name>
   <short_name>ES</short_name>
   <type>country</type>
   <type>political</type>
  </address_component>
  <geometry>
   <location>
    <lat>39.9991163</lat>
    <lng>3.8389047</lng>
   </location>
   <location_type>APPROXIMATE</location_type>
   <viewport>
    <southwest>
     <lat>39.9896697</lat>
     <lng>3.8258194</lng>
    </southwest>
    <northeast>
     <lat>40.0126505</lat>
     <lng>3.8642301</lng>
    </northeast>
   </viewport>
   <bounds>
    <southwest>
     <lat>39.9896697</lat>
     <lng>3.8258194</lng>
    </southwest>
    <northeast>
     <lat>40.0126505</lat>
     <lng>3.8642301</lng>
    </northeast>
   </bounds>
  </geometry>
  <place_id>ChIJD4kIqwoEvhIRHnxwNi-kRYE</place_id>
 </result>
 <result>
  <type>natural_feature</type>
  <type>establishment</type>
  <formatted_address>Minorca, Balearic Islands, Spain</formatted_address>
  <address_component>
   <long_name>Minorca</long_name>
   <short_name>Minorca</short_name>
   <type>natural_feature</type>
   <type>establishment</type>
  </address_component>
  <address_component>
   <long_name>Balearic Islands</long_name>
   <short_name>Balearic Islands</short_name>
   <type>administrative_area_level_2</type>
   <type>political</type>
  </address_component>
  <address_component>
   <long_name>Balearic Islands</long_name>
   <short_name>PM</short_name>
   <type>administrative_area_level_1</type>
   <type>political</type>
  </address_component>
  <address_component>
   <long_name>Spain</long_name>
   <short_name>ES</short_name>
   <type>country</type>
   <type>political</type>
  </address_component>
  <geometry>
   <location>
    <lat>39.9496287</lat>
    <lng>4.1104449</lng>
   </location>
   <location_type>APPROXIMATE</location_type>
   <viewport>
    <southwest>
     <lat>39.8089628</lat>
     <lng>3.7907857</lng>
    </southwest>
    <northeast>
     <lat>40.0894478</lat>
     <lng>4.3277847</lng>
    </northeast>
   </viewport>
   <bounds>
    <southwest>
     <lat>39.8089628</lat>
     <lng>3.7907857</lng>
    </southwest>
    <northeast>
     <lat>40.0894478</lat>
     <lng>4.3277847</lng>
    </northeast>
   </bounds>
  </geometry>
  <place_id>ChIJ6SC4LJ0fvhIRyXeOF4TEmlI</place_id>
 </result>
</GeocodeResponse>
