<?xml version="1.0" encoding="UTF-8"?>
<GeocodeResponse>
 <status>OK</status>
 <result>
  <type>route</type>
  <formatted_address>Gazipaşa, Anadolu Ünv., 26555 Tepebaşı/Eskişehir, Turkey</formatted_address>
  <address_component>
   <long_name>Anadolu Üniversitesi</long_name>
   <short_name>Anadolu Ünv.</short_name>
   <type>route</type>
  </address_component>
  <address_component>
   <long_name>Gazipaşa Mahallesi</long_name>
   <short_name>Gazipaşa</short_name>
   <type>administrative_area_level_4</type>
   <type>political</type>
  </address_component>
  <address_component>
   <long_name>Tepebaşı</long_name>
   <short_name>Tepebaşı</short_name>
   <type>administrative_area_level_2</type>
   <type>political</type>
  </address_component>
  <address_component>
   <long_name>Eskişehir</long_name>
   <short_name>Eskişehir</short_name>
   <type>administrative_area_level_1</type>
   <type>political</type>
  </address_component>
  <address_component>
   <long_name>Turkey</long_name>
   <short_name>TR</short_name>
   <type>country</type>
   <type>political</type>
  </address_component>
  <address_component>
   <long_name>26555</long_name>
   <short_name>26555</short_name>
   <type>postal_code</type>
  </address_component>
  <geometry>
   <location>
    <lat>39.8132124</lat>
    <lng>30.5389096</lng>
   </location>
   <location_type>GEOMETRIC_CENTER</location_type>
   <viewport>
    <southwest>
     <lat>39.8118504</lat>
     <lng>30.5375746</lng>
    </southwest>
    <northeast>
     <lat>39.8145483</lat>
     <lng>30.5402725</lng>
    </northeast>
   </viewport>
   <bounds>
    <southwest>
     <lat>39.8120468</lat>
     <lng>30.5387707</lng>
    </southwest>
    <northeast>
     <lat>39.8143519</lat>
     <lng>30.5390764</lng>
    </northeast>
   </bounds>
  </geometry>
  <partial_match>true</partial_match>
  <place_id>ChIJRTJ_-dE_zBQR1G73_MscUMA</place_id>
 </result>
 <result>
  <type>route</type>
  <formatted_address>Yazır, İç Anadolu Sk., 42250 Selçuklu/Konya, Turkey</formatted_address>
  <address_component>
   <long_name>İç Anadolu Sokak</long_name>
   <short_name>İç Anadolu Sk.</short_name>
   <type>route</type>
  </address_component>
  <address_component>
   <long_name>Yazır Mahallesi</long_name>
   <short_name>Yazır</short_name>
   <type>administrative_area_level_4</type>
   <type>political</type>
  </address_component>
  <address_component>
   <long_name>Selçuklu</long_name>
   <short_name>Selçuklu</short_name>
   <type>administrative_area_level_2</type>
   <type>political</type>
  </address_component>
  <address_component>
   <long_name>Konya</long_name>
   <short_name>Konya</short_name>
   <type>administrative_area_level_1</type>
   <type>political</type>
  </address_component>
  <address_component>
   <long_name>Turkey</long_name>
   <short_name>TR</short_name>
   <type>country</type>
   <type>political</type>
  </address_component>
  <address_component>
   <long_name>42250</long_name>
   <short_name>42250</short_name>
   <type>postal_code</type>
  </address_component>
  <geometry>
   <location>
    <lat>37.9717950</lat>
    <lng>32.4976698</lng>
   </location>
   <location_type>GEOMETRIC_CENTER</location_type>
   <viewport>
    <southwest>
     <lat>37.9704836</lat>
     <lng>32.4961416</lng>
    </southwest>
    <northeast>
     <lat>37.9731815</lat>
     <lng>32.5000939</lng>
    </northeast>
   </viewport>
   <bounds>
    <southwest>
     <lat>37.9717885</lat>
     <lng>32.4961416</lng>
    </southwest>
    <northeast>
     <lat>37.9718766</lat>
     <lng>32.5000939</lng>
    </northeast>
   </bounds>
  </geometry>
  <partial_match>true</partial_match>
  <place_id>ChIJgcBwUXmO0BQRXZS-vl0jzTw</place_id>
 </result>
 <result>
  <type>route</type>
  <formatted_address>Ulubatlıhasan, İç Anadolu Sk., 42050 Karatay/Konya, Turkey</formatted_address>
  <address_component>
   <long_name>İç Anadolu Sokak</long_name>
   <short_name>İç Anadolu Sk.</short_name>
   <type>route</type>
  </address_component>
  <address_component>
   <long_name>Ulubatlıhasan Mahallesi</long_name>
   <short_name>Ulubatlıhasan</short_name>
   <type>administrative_area_level_4</type>
   <type>political</type>
  </address_component>
  <address_component>
   <long_name>Karatay</long_name>
   <short_name>Karatay</short_name>
   <type>administrative_area_level_2</type>
   <type>political</type>
  </address_component>
  <address_component>
   <long_name>Konya</long_name>
   <short_name>Konya</short_name>
   <type>administrative_area_level_1</type>
   <type>political</type>
  </address_component>
  <address_component>
   <long_name>Turkey</long_name>
   <short_name>TR</short_name>
   <type>country</type>
   <type>political</type>
  </address_component>
  <address_component>
   <long_name>42050</long_name>
   <short_name>42050</short_name>
   <type>postal_code</type>
  </address_component>
  <geometry>
   <location>
    <lat>37.9001569</lat>
    <lng>32.5256683</lng>
   </location>
   <location_type>GEOMETRIC_CENTER</location_type>
   <viewport>
    <southwest>
     <lat>37.8987262</lat>
     <lng>32.5242140</lng>
    </southwest>
    <northeast>
     <lat>37.9014242</lat>
     <lng>32.5269120</lng>
    </northeast>
   </viewport>
   <bounds>
    <southwest>
     <lat>37.8993722</lat>
     <lng>32.5251808</lng>
    </southwest>
    <northeast>
     <lat>37.9007782</lat>
     <lng>32.5259452</lng>
    </northeast>
   </bounds>
  </geometry>
  <partial_match>true</partial_match>
  <place_id>ChIJqchsDPCP0BQRYGSLI8tH0r8</place_id>
 </result>
 <result>
  <type>route</type>
  <formatted_address>Anadolu Cd., 41420 Çayırova/Kocaeli, Turkey</formatted_address>
  <address_component>
   <long_name>Anadolu Caddesi</long_name>
   <short_name>Anadolu Cd.</short_name>
   <type>route</type>
  </address_component>
  <address_component>
   <long_name>Çayırova</long_name>
   <short_name>Çayırova</short_name>
   <type>administrative_area_level_2</type>
   <type>political</type>
  </address_component>
  <address_component>
   <long_name>Kocaeli</long_name>
   <short_name>Kocaeli</short_name>
   <type>administrative_area_level_1</type>
   <type>political</type>
  </address_component>
  <address_component>
   <long_name>Turkey</long_name>
   <short_name>TR</short_name>
   <type>country</type>
   <type>political</type>
  </address_component>
  <address_component>
   <long_name>41420</long_name>
   <short_name>41420</short_name>
   <type>postal_code</type>
  </address_component>
  <geometry>
   <location>
    <lat>40.8655153</lat>
    <lng>29.3943295</lng>
   </location>
   <location_type>GEOMETRIC_CENTER</location_type>
   <viewport>
    <southwest>
     <lat>40.8614336</lat>
     <lng>29.3891640</lng>
    </southwest>
    <northeast>
     <lat>40.8678323</lat>
     <lng>29.3996605</lng>
    </northeast>
   </viewport>
   <bounds>
    <southwest>
     <lat>40.8614336</lat>
     <lng>29.3891640</lng>
    </southwest>
    <northeast>
     <lat>40.8678323</lat>
     <lng>29.3996605</lng>
    </northeast>
   </bounds>
  </geometry>
  <partial_match>true</partial_match>
  <place_id>ChIJYX5ITOvYyhQRnz_l0OourHA</place_id>
 </result>
 <result>
  <type>route</type>
  <formatted_address>Aksinne, İç Anadolu Sk., 42040 Meram/Konya, Turkey</formatted_address>
  <address_component>
   <long_name>İç Anadolu Sokak</long_name>
   <short_name>İç Anadolu Sk.</short_name>
   <type>route</type>
  </address_component>
  <address_component>
   <long_name>Aksinne Mahallesi</long_name>
   <short_name>Aksinne</short_name>
   <type>administrative_area_level_4</type>
   <type>political</type>
  </address_component>
  <address_component>
   <long_name>Meram</long_name>
   <short_name>Meram</short_name>
   <type>administrative_area_level_2</type>
   <type>political</type>
  </address_component>
  <address_component>
   <long_name>Konya</long_name>
   <short_name>Konya</short_name>
   <type>administrative_area_level_1</type>
   <type>political</type>
  </address_component>
  <address_component>
   <long_name>Turkey</long_name>
   <short_name>TR</short_name>
   <type>country</type>
   <type>political</type>
  </address_component>
  <address_component>
   <long_name>42040</long_name>
   <short_name>42040</short_name>
   <type>postal_code</type>
  </address_component>
  <geometry>
   <location>
    <lat>37.8641798</lat>
    <lng>32.4921756</lng>
   </location>
   <location_type>GEOMETRIC_CENTER</location_type>
   <viewport>
    <southwest>
     <lat>37.8631119</lat>
     <lng>32.4908975</lng>
    </southwest>
    <northeast>
     <lat>37.8658099</lat>
     <lng>32.4935955</lng>
    </northeast>
   </viewport>
   <bounds>
    <southwest>
     <lat>37.8641480</lat>
     <lng>32.4920913</lng>
    </southwest>
    <northeast>
     <lat>37.8647738</lat>
     <lng>32.4924017</lng>
    </northeast>
   </bounds>
  </geometry>
  <partial_match>true</partial_match>
  <place_id>ChIJbWdXBgCF0BQRaH8exC8Rf14</place_id>
 </result>
 <result>
  <type>route</type>
  <formatted_address>Yeni, Anadolu Cd., 14900 Gerede/Bolu, Turkey</formatted_address>
  <address_component>
   <long_name>Anadolu Caddesi</long_name>
   <short_name>Anadolu Cd.</short_name>
   <type>route</type>
  </address_component>
  <address_component>
   <long_name>Yeni Mahallesi</long_name>
   <short_name>Yeni</short_name>
   <type>administrative_area_level_4</type>
   <type>political</type>
  </address_component>
  <address_component>
   <long_name>Gerede</long_name>
   <short_name>Gerede</short_name>
   <type>administrative_area_level_2</type>
   <type>political</type>
  </address_component>
  <address_component>
   <long_name>Bolu</long_name>
   <short_name>Bolu</short_name>
   <type>administrative_area_level_1</type>
   <type>political</type>
  </address_component>
  <address_component>
   <long_name>Turkey</long_name>
   <short_name>TR</short_name>
   <type>country</type>
   <type>political</type>
  </address_component>
  <address_component>
   <long_name>14900</long_name>
   <short_name>14900</short_name>
   <type>postal_code</type>
  </address_component>
  <geometry>
   <location>
    <lat>40.7878483</lat>
    <lng>32.2140226</lng>
   </location>
   <location_type>GEOMETRIC_CENTER</location_type>
   <viewport>
    <southwest>
     <lat>40.7867733</lat>
     <lng>32.2128270</lng>
    </southwest>
    <northeast>
     <lat>40.7894712</lat>
     <lng>32.2155250</lng>
    </northeast>
   </viewport>
   <bounds>
    <southwest>
     <lat>40.7867855</lat>
     <lng>32.2131664</lng>
    </southwest>
    <northeast>
     <lat>40.7894590</lat>
     <lng>32.2151856</lng>
    </northeast>
   </bounds>
  </geometry>
  <partial_match>true</partial_match>
  <place_id>ChIJlRdPFS3UgkARNGbGskEVdfQ</place_id>
 </result>
 <result>
  <type>route</type>
  <formatted_address>Elmasbahçeler, 3. Orta Sk., 16230 Osmangazi/Bursa, Turkey</formatted_address>
  <address_component>
   <long_name>3. Orta Sokak</long_name>
   <short_name>3. Orta Sk.</short_name>
   <type>route</type>
  </address_component>
  <address_component>
   <long_name>Elmasbahçeler Mahallesi</long_name>
   <short_name>Elmasbahçeler</short_name>
   <type>administrative_area_level_4</type>
   <type>political</type>
  </address_component>
  <address_component>
   <long_name>Osmangazi</long_name>
   <short_name>Osmangazi</short_name>
   <type>administrative_area_level_2</type>
   <type>political</type>
  </address_component>
  <address_component>
   <long_name>Bursa</long_name>
   <short_name>Bursa</short_name>
   <type>administrative_area_level_1</type>
   <type>political</type>
  </address_component>
  <address_component>
   <long_name>Turkey</long_name>
   <short_name>TR</short_name>
   <type>country</type>
   <type>political</type>
  </address_component>
  <address_component>
   <long_name>16230</long_name>
   <short_name>16230</short_name>
   <type>postal_code</type>
  </address_component>
  <geometry>
   <location>
    <lat>40.1894760</lat>
    <lng>29.0754770</lng>
   </location>
   <location_type>GEOMETRIC_CENTER</location_type>
   <viewport>
    <southwest>
     <lat>40.1883271</lat>
     <lng>29.0744246</lng>
    </southwest>
    <northeast>
     <lat>40.1916438</lat>
     <lng>29.0771226</lng>
    </northeast>
   </viewport>
   <bounds>
    <southwest>
     <lat>40.1883271</lat>
     <lng>29.0746904</lng>
    </southwest>
    <northeast>
     <lat>40.1916438</lat>
     <lng>29.0768568</lng>
    </northeast>
   </bounds>
  </geometry>
  <partial_match>true</partial_match>
  <place_id>ChIJQ3mCZXE-yhQRSk3PGueJUrw</place_id>
 </result>
 <result>
  <type>route</type>
  <formatted_address>Ortabağlar, 8. Orta Sk., 16310 Yıldırım/Bursa, Turkey</formatted_address>
  <address_component>
   <long_name>8. Orta Sokak</long_name>
   <short_name>8. Orta Sk.</short_name>
   <type>route</type>
  </address_component>
  <address_component>
   <long_name>Ortabağlar Mahallesi</long_name>
   <short_name>Ortabağlar</short_name>
   <type>administrative_area_level_4</type>
   <type>political</type>
  </address_component>
  <address_component>
   <long_name>Yıldırım</long_name>
   <short_name>Yıldırım</short_name>
   <type>administrative_area_level_2</type>
   <type>political</type>
  </address_component>
  <address_component>
   <long_name>Bursa</long_name>
   <short_name>Bursa</short_name>
   <type>administrative_area_level_1</type>
   <type>political</type>
  </address_component>
  <address_component>
   <long_name>Turkey</long_name>
   <short_name>TR</short_name>
   <type>country</type>
   <type>political</type>
  </address_component>
  <address_component>
   <long_name>16310</long_name>
   <short_name>16310</short_name>
   <type>postal_code</type>
  </address_component>
  <geometry>
   <location>
    <lat>40.1854681</lat>
    <lng>29.1173646</lng>
   </location>
   <location_type>GEOMETRIC_CENTER</location_type>
   <viewport>
    <southwest>
     <lat>40.1841555</lat>
     <lng>29.1158375</lng>
    </southwest>
    <northeast>
     <lat>40.1868534</lat>
     <lng>29.1185355</lng>
    </northeast>
   </viewport>
   <bounds>
    <southwest>
     <lat>40.1852935</lat>
     <lng>29.1163538</lng>
    </southwest>
    <northeast>
     <lat>40.1857154</lat>
     <lng>29.1180192</lng>
    </northeast>
   </bounds>
  </geometry>
  <partial_match>true</partial_match>
  <place_id>ChIJr-kc6r0-yhQRZWgHI8L1zy4</place_id>
 </result>
 <result>
  <type>route</type>
  <formatted_address>Duaçınarı, 3. Orta Sk., 16270 Yıldırım/Bursa, Turkey</formatted_address>
  <address_component>
   <long_name>3. Orta Sokak</long_name>
   <short_name>3. Orta Sk.</short_name>
   <type>route</type>
  </address_component>
  <address_component>
   <long_name>Duaçınarı Mahallesi</long_name>
   <short_name>Duaçınarı</short_name>
   <type>administrative_area_level_4</type>
   <type>political</type>
  </address_component>
  <address_component>
   <long_name>Yıldırım</long_name>
   <short_name>Yıldırım</short_name>
   <type>administrative_area_level_2</type>
   <type>political</type>
  </address_component>
  <address_component>
   <long_name>Bursa</long_name>
   <short_name>Bursa</short_name>
   <type>administrative_area_level_1</type>
   <type>political</type>
  </address_component>
  <address_component>
   <long_name>Turkey</long_name>
   <short_name>TR</short_name>
   <type>country</type>
   <type>political</type>
  </address_component>
  <address_component>
   <long_name>16270</long_name>
   <short_name>16270</short_name>
   <type>postal_code</type>
  </address_component>
  <geometry>
   <location>
    <lat>40.1931647</lat>
    <lng>29.1008734</lng>
   </location>
   <location_type>GEOMETRIC_CENTER</location_type>
   <viewport>
    <southwest>
     <lat>40.1917889</lat>
     <lng>29.0994660</lng>
    </southwest>
    <northeast>
     <lat>40.1944869</lat>
     <lng>29.1021639</lng>
    </northeast>
   </viewport>
   <bounds>
    <southwest>
     <lat>40.1925238</lat>
     <lng>29.1006900</lng>
    </southwest>
    <northeast>
     <lat>40.1937520</lat>
     <lng>29.1009399</lng>
    </northeast>
   </bounds>
  </geometry>
  <partial_match>true</partial_match>
  <place_id>ChIJ_UZiVow-yhQRLNiLhtnBCV8</place_id>
 </result>
 <result>
  <type>route</type>
  <formatted_address>Çavuşoğlu, Hasbahçe Sk., 34873 Kartal/İstanbul, Turkey</formatted_address>
  <address_component>
   <long_name>Hasbahçe Sokak</long_name>
   <short_name>Hasbahçe Sk.</short_name>
   <type>route</type>
  </address_component>
  <address_component>
   <long_name>Çavuşoğlu Mahallesi</long_name>
   <short_name>Çavuşoğlu</short_name>
   <type>administrative_area_level_4</type>
   <type>political</type>
  </address_component>
  <address_component>
   <long_name>Kartal</long_name>
   <short_name>Kartal</short_name>
   <type>administrative_area_level_2</type>
   <type>political</type>
  </address_component>
  <address_component>
   <long_name>İstanbul</long_name>
   <short_name>İstanbul</short_name>
   <type>administrative_area_level_1</type>
   <type>political</type>
  </address_component>
  <address_component>
   <long_name>Turkey</long_name>
   <short_name>TR</short_name>
   <type>country</type>
   <type>political</type>
  </address_component>
  <address_component>
   <long_name>34873</long_name>
   <short_name>34873</short_name>
   <type>postal_code</type>
  </address_component>
  <geometry>
   <location>
    <lat>40.8914557</lat>
    <lng>29.2002289</lng>
   </location>
   <location_type>GEOMETRIC_CENTER</location_type>
   <viewport>
    <southwest>
     <lat>40.8905344</lat>
     <lng>29.1987754</lng>
    </southwest>
    <northeast>
     <lat>40.8932323</lat>
     <lng>29.2014733</lng>
    </northeast>
   </viewport>
   <bounds>
    <southwest>
     <lat>40.8913003</lat>
     <lng>29.1999133</lng>
    </southwest>
    <northeast>
     <lat>40.8924664</lat>
     <lng>29.2003354</lng>
    </northeast>
   </bounds>
  </geometry>
  <partial_match>true</partial_match>
  <place_id>ChIJc65mf2PDyhQRP1hb96qhx4I</place_id>
 </result>
</GeocodeResponse>
