<?xml version="1.0" encoding="UTF-8"?>
<GeocodeResponse>
 <status>OK</status>
 <result>
  <type>route</type>
  <formatted_address>Adnan Menderes, Batı Sk., 33100 Akdeniz/Mersin, Turkey</formatted_address>
  <address_component>
   <long_name>Batı Sokak</long_name>
   <short_name>Batı Sk.</short_name>
   <type>route</type>
  </address_component>
  <address_component>
   <long_name>Adnan Menderes Mahallesi</long_name>
   <short_name>Adnan Menderes</short_name>
   <type>administrative_area_level_4</type>
   <type>political</type>
  </address_component>
  <address_component>
   <long_name>Akdeniz</long_name>
   <short_name>Akdeniz</short_name>
   <type>administrative_area_level_2</type>
   <type>political</type>
  </address_component>
  <address_component>
   <long_name>Mersin</long_name>
   <short_name>Mersin</short_name>
   <type>administrative_area_level_1</type>
   <type>political</type>
  </address_component>
  <address_component>
   <long_name>Turkey</long_name>
   <short_name>TR</short_name>
   <type>country</type>
   <type>political</type>
  </address_component>
  <address_component>
   <long_name>33100</long_name>
   <short_name>33100</short_name>
   <type>postal_code</type>
  </address_component>
  <geometry>
   <location>
    <lat>36.8774767</lat>
    <lng>34.8159831</lng>
   </location>
   <location_type>GEOMETRIC_CENTER</location_type>
   <viewport>
    <southwest>
     <lat>36.8752438</lat>
     <lng>34.8147648</lng>
    </southwest>
    <northeast>
     <lat>36.8798008</lat>
     <lng>34.8174627</lng>
    </northeast>
   </viewport>
   <bounds>
    <southwest>
     <lat>36.8752438</lat>
     <lng>34.8149735</lng>
    </southwest>
    <northeast>
     <lat>36.8798008</lat>
     <lng>34.8172540</lng>
    </northeast>
   </bounds>
  </geometry>
  <partial_match>true</partial_match>
  <place_id>ChIJhb7D_EzmJxURdGYkznjOg1I</place_id>
 </result>
 <result>
  <type>route</type>
  <formatted_address>Değirmenlikızık, 1. Batı Sk., 16320 Yıldırım/Bursa, Turkey</formatted_address>
  <address_component>
   <long_name>1. Batı Sokak</long_name>
   <short_name>1. Batı Sk.</short_name>
   <type>route</type>
  </address_component>
  <address_component>
   <long_name>Değirmenlikızık Mahallesi</long_name>
   <short_name>Değirmenlikızık</short_name>
   <type>administrative_area_level_4</type>
   <type>political</type>
  </address_component>
  <address_component>
   <long_name>Yıldırım</long_name>
   <short_name>Yıldırım</short_name>
   <type>administrative_area_level_2</type>
   <type>political</type>
  </address_component>
  <address_component>
   <long_name>Bursa</long_name>
   <short_name>Bursa</short_name>
   <type>administrative_area_level_1</type>
   <type>political</type>
  </address_component>
  <address_component>
   <long_name>Turkey</long_name>
   <short_name>TR</short_name>
   <type>country</type>
   <type>political</type>
  </address_component>
  <address_component>
   <long_name>16320</long_name>
   <short_name>16320</short_name>
   <type>postal_code</type>
  </address_component>
  <geometry>
   <location>
    <lat>40.1797990</lat>
    <lng>29.1049660</lng>
   </location>
   <location_type>GEOMETRIC_CENTER</location_type>
   <viewport>
    <southwest>
     <lat>40.1783598</lat>
     <lng>29.1036821</lng>
    </southwest>
    <northeast>
     <lat>40.1810577</lat>
     <lng>29.1063800</lng>
    </northeast>
   </viewport>
   <bounds>
    <southwest>
     <lat>40.1791380</lat>
     <lng>29.1042001</lng>
    </southwest>
    <northeast>
     <lat>40.1802795</lat>
     <lng>29.1058620</lng>
    </northeast>
   </bounds>
  </geometry>
  <partial_match>true</partial_match>
  <place_id>ChIJXQQvu5w-yhQRCwFqzmSR80I</place_id>
 </result>
 <result>
  <type>route</type>
  <formatted_address>Batı Cd., 34956 Aydınlı - Boya Vernik OSB/Tuzla/İstanbul, Turkey</formatted_address>
  <address_component>
   <long_name>Batı Caddesi</long_name>
   <short_name>Batı Cd.</short_name>
   <type>route</type>
  </address_component>
  <address_component>
   <long_name>Aydınlı - Boya Vernik Organize Sanayi Bölgesi</long_name>
   <short_name>Aydınlı - Boya Vernik OSB</short_name>
   <type>administrative_area_level_3</type>
   <type>political</type>
  </address_component>
  <address_component>
   <long_name>Tuzla</long_name>
   <short_name>Tuzla</short_name>
   <type>administrative_area_level_2</type>
   <type>political</type>
  </address_component>
  <address_component>
   <long_name>İstanbul</long_name>
   <short_name>İstanbul</short_name>
   <type>administrative_area_level_1</type>
   <type>political</type>
  </address_component>
  <address_component>
   <long_name>Turkey</long_name>
   <short_name>TR</short_name>
   <type>country</type>
   <type>political</type>
  </address_component>
  <address_component>
   <long_name>34956</long_name>
   <short_name>34956</short_name>
   <type>postal_code</type>
  </address_component>
  <geometry>
   <location>
    <lat>40.8803650</lat>
    <lng>29.3946860</lng>
   </location>
   <location_type>GEOMETRIC_CENTER</location_type>
   <viewport>
    <southwest>
     <lat>40.8773399</lat>
     <lng>29.3900760</lng>
    </southwest>
    <northeast>
     <lat>40.8839718</lat>
     <lng>29.4020430</lng>
    </northeast>
   </viewport>
   <bounds>
    <southwest>
     <lat>40.8773399</lat>
     <lng>29.3900760</lng>
    </southwest>
    <northeast>
     <lat>40.8839718</lat>
     <lng>29.4020430</lng>
    </northeast>
   </bounds>
  </geometry>
  <partial_match>true</partial_match>
  <place_id>ChIJW7oTXWDYyhQR2OxqhM5G3Ow</place_id>
 </result>
 <result>
  <type>route</type>
  <formatted_address>Çavuşoğlu, Hasbahçe Sk., 34873 Kartal/İstanbul, Turkey</formatted_address>
  <address_component>
   <long_name>Hasbahçe Sokak</long_name>
   <short_name>Hasbahçe Sk.</short_name>
   <type>route</type>
  </address_component>
  <address_component>
   <long_name>Çavuşoğlu Mahallesi</long_name>
   <short_name>Çavuşoğlu</short_name>
   <type>administrative_area_level_4</type>
   <type>political</type>
  </address_component>
  <address_component>
   <long_name>Kartal</long_name>
   <short_name>Kartal</short_name>
   <type>administrative_area_level_2</type>
   <type>political</type>
  </address_component>
  <address_component>
   <long_name>İstanbul</long_name>
   <short_name>İstanbul</short_name>
   <type>administrative_area_level_1</type>
   <type>political</type>
  </address_component>
  <address_component>
   <long_name>Turkey</long_name>
   <short_name>TR</short_name>
   <type>country</type>
   <type>political</type>
  </address_component>
  <address_component>
   <long_name>34873</long_name>
   <short_name>34873</short_name>
   <type>postal_code</type>
  </address_component>
  <geometry>
   <location>
    <lat>40.8914557</lat>
    <lng>29.2002289</lng>
   </location>
   <location_type>GEOMETRIC_CENTER</location_type>
   <viewport>
    <southwest>
     <lat>40.8905344</lat>
     <lng>29.1987754</lng>
    </southwest>
    <northeast>
     <lat>40.8932323</lat>
     <lng>29.2014733</lng>
    </northeast>
   </viewport>
   <bounds>
    <southwest>
     <lat>40.8913003</lat>
     <lng>29.1999133</lng>
    </southwest>
    <northeast>
     <lat>40.8924664</lat>
     <lng>29.2003354</lng>
    </northeast>
   </bounds>
  </geometry>
  <partial_match>true</partial_match>
  <place_id>ChIJc65mf2PDyhQRP1hb96qhx4I</place_id>
 </result>
 <result>
  <type>route</type>
  <formatted_address>Esentepe, Anadolu Cd., 34870 Kartal/İstanbul, Turkey</formatted_address>
  <address_component>
   <long_name>Anadolu Caddesi</long_name>
   <short_name>Anadolu Cd.</short_name>
   <type>route</type>
  </address_component>
  <address_component>
   <long_name>Esentepe Mahallesi</long_name>
   <short_name>Esentepe</short_name>
   <type>administrative_area_level_4</type>
   <type>political</type>
  </address_component>
  <address_component>
   <long_name>Kartal</long_name>
   <short_name>Kartal</short_name>
   <type>administrative_area_level_2</type>
   <type>political</type>
  </address_component>
  <address_component>
   <long_name>İstanbul</long_name>
   <short_name>İstanbul</short_name>
   <type>administrative_area_level_1</type>
   <type>political</type>
  </address_component>
  <address_component>
   <long_name>Turkey</long_name>
   <short_name>TR</short_name>
   <type>country</type>
   <type>political</type>
  </address_component>
  <address_component>
   <long_name>34870</long_name>
   <short_name>34870</short_name>
   <type>postal_code</type>
  </address_component>
  <geometry>
   <location>
    <lat>40.9093149</lat>
    <lng>29.1861654</lng>
   </location>
   <location_type>GEOMETRIC_CENTER</location_type>
   <viewport>
    <southwest>
     <lat>40.9078708</lat>
     <lng>29.1854072</lng>
    </southwest>
    <northeast>
     <lat>40.9108292</lat>
     <lng>29.1883762</lng>
    </northeast>
   </viewport>
   <bounds>
    <southwest>
     <lat>40.9078708</lat>
     <lng>29.1854072</lng>
    </southwest>
    <northeast>
     <lat>40.9108292</lat>
     <lng>29.1883762</lng>
    </northeast>
   </bounds>
  </geometry>
  <partial_match>true</partial_match>
  <place_id>ChIJyax34ofEyhQRj1NkEUvsngg</place_id>
 </result>
 <result>
  <type>route</type>
  <formatted_address>Piremir, 5. Batı Sk., 16340 Yıldırım/Bursa, Turkey</formatted_address>
  <address_component>
   <long_name>5. Batı Sokak</long_name>
   <short_name>5. Batı Sk.</short_name>
   <type>route</type>
  </address_component>
  <address_component>
   <long_name>Piremir Mahallesi</long_name>
   <short_name>Piremir</short_name>
   <type>administrative_area_level_4</type>
   <type>political</type>
  </address_component>
  <address_component>
   <long_name>Yıldırım</long_name>
   <short_name>Yıldırım</short_name>
   <type>administrative_area_level_2</type>
   <type>political</type>
  </address_component>
  <address_component>
   <long_name>Bursa</long_name>
   <short_name>Bursa</short_name>
   <type>administrative_area_level_1</type>
   <type>political</type>
  </address_component>
  <address_component>
   <long_name>Turkey</long_name>
   <short_name>TR</short_name>
   <type>country</type>
   <type>political</type>
  </address_component>
  <address_component>
   <long_name>16340</long_name>
   <short_name>16340</short_name>
   <type>postal_code</type>
  </address_component>
  <geometry>
   <location>
    <lat>40.1728298</lat>
    <lng>29.0871987</lng>
   </location>
   <location_type>GEOMETRIC_CENTER</location_type>
   <viewport>
    <southwest>
     <lat>40.1714317</lat>
     <lng>29.0858700</lng>
    </southwest>
    <northeast>
     <lat>40.1741297</lat>
     <lng>29.0885680</lng>
    </northeast>
   </viewport>
   <bounds>
    <southwest>
     <lat>40.1723487</lat>
     <lng>29.0870009</lng>
    </southwest>
    <northeast>
     <lat>40.1732127</lat>
     <lng>29.0874371</lng>
    </northeast>
   </bounds>
  </geometry>
  <partial_match>true</partial_match>
  <place_id>ChIJOTpNJNI9yhQR2vky1_NxK4M</place_id>
 </result>
 <result>
  <type>route</type>
  <formatted_address>Başaran, 2. Batı Sk., 16240 Osmangazi/Bursa, Turkey</formatted_address>
  <address_component>
   <long_name>2. Batı Sokak</long_name>
   <short_name>2. Batı Sk.</short_name>
   <type>route</type>
  </address_component>
  <address_component>
   <long_name>Başaran Mahallesi</long_name>
   <short_name>Başaran</short_name>
   <type>administrative_area_level_4</type>
   <type>political</type>
  </address_component>
  <address_component>
   <long_name>Osmangazi</long_name>
   <short_name>Osmangazi</short_name>
   <type>administrative_area_level_2</type>
   <type>political</type>
  </address_component>
  <address_component>
   <long_name>Bursa</long_name>
   <short_name>Bursa</short_name>
   <type>administrative_area_level_1</type>
   <type>political</type>
  </address_component>
  <address_component>
   <long_name>Turkey</long_name>
   <short_name>TR</short_name>
   <type>country</type>
   <type>political</type>
  </address_component>
  <address_component>
   <long_name>16240</long_name>
   <short_name>16240</short_name>
   <type>postal_code</type>
  </address_component>
  <geometry>
   <location>
    <lat>40.2112274</lat>
    <lng>29.0704808</lng>
   </location>
   <location_type>GEOMETRIC_CENTER</location_type>
   <viewport>
    <southwest>
     <lat>40.2100270</lat>
     <lng>29.0686458</lng>
    </southwest>
    <northeast>
     <lat>40.2127249</lat>
     <lng>29.0713438</lng>
    </northeast>
   </viewport>
   <bounds>
    <southwest>
     <lat>40.2112030</lat>
     <lng>29.0695088</lng>
    </southwest>
    <northeast>
     <lat>40.2115489</lat>
     <lng>29.0704808</lng>
    </northeast>
   </bounds>
  </geometry>
  <partial_match>true</partial_match>
  <place_id>ChIJmwtUm0c-yhQROLEdWZNwvAA</place_id>
 </result>
 <result>
  <type>route</type>
  <formatted_address>Çavuşoğlu, Bilim Sk., 34873 Kartal/İstanbul, Turkey</formatted_address>
  <address_component>
   <long_name>Bilim Sokak</long_name>
   <short_name>Bilim Sk.</short_name>
   <type>route</type>
  </address_component>
  <address_component>
   <long_name>Çavuşoğlu Mahallesi</long_name>
   <short_name>Çavuşoğlu</short_name>
   <type>administrative_area_level_4</type>
   <type>political</type>
  </address_component>
  <address_component>
   <long_name>Kartal</long_name>
   <short_name>Kartal</short_name>
   <type>administrative_area_level_2</type>
   <type>political</type>
  </address_component>
  <address_component>
   <long_name>İstanbul</long_name>
   <short_name>İstanbul</short_name>
   <type>administrative_area_level_1</type>
   <type>political</type>
  </address_component>
  <address_component>
   <long_name>Turkey</long_name>
   <short_name>TR</short_name>
   <type>country</type>
   <type>political</type>
  </address_component>
  <address_component>
   <long_name>34873</long_name>
   <short_name>34873</short_name>
   <type>postal_code</type>
  </address_component>
  <geometry>
   <location>
    <lat>40.8886443</lat>
    <lng>29.1962464</lng>
   </location>
   <location_type>GEOMETRIC_CENTER</location_type>
   <viewport>
    <southwest>
     <lat>40.8871610</lat>
     <lng>29.1948714</lng>
    </southwest>
    <northeast>
     <lat>40.8898589</lat>
     <lng>29.1975693</lng>
    </northeast>
   </viewport>
   <bounds>
    <southwest>
     <lat>40.8882669</lat>
     <lng>29.1960153</lng>
    </southwest>
    <northeast>
     <lat>40.8887530</lat>
     <lng>29.1964254</lng>
    </northeast>
   </bounds>
  </geometry>
  <partial_match>true</partial_match>
  <place_id>ChIJxc-JpHrDyhQRDeH6BsmVb5o</place_id>
 </result>
 <result>
  <type>route</type>
  <formatted_address>Arabayatağı, 1. Batı Sk., 16290 Yıldırım/Bursa, Turkey</formatted_address>
  <address_component>
   <long_name>1. Batı Sokak</long_name>
   <short_name>1. Batı Sk.</short_name>
   <type>route</type>
  </address_component>
  <address_component>
   <long_name>Arabayatağı Mahallesi</long_name>
   <short_name>Arabayatağı</short_name>
   <type>administrative_area_level_4</type>
   <type>political</type>
  </address_component>
  <address_component>
   <long_name>Yıldırım</long_name>
   <short_name>Yıldırım</short_name>
   <type>administrative_area_level_2</type>
   <type>political</type>
  </address_component>
  <address_component>
   <long_name>Bursa</long_name>
   <short_name>Bursa</short_name>
   <type>administrative_area_level_1</type>
   <type>political</type>
  </address_component>
  <address_component>
   <long_name>Turkey</long_name>
   <short_name>TR</short_name>
   <type>country</type>
   <type>political</type>
  </address_component>
  <address_component>
   <long_name>16290</long_name>
   <short_name>16290</short_name>
   <type>postal_code</type>
  </address_component>
  <geometry>
   <location>
    <lat>40.2029155</lat>
    <lng>29.1293223</lng>
   </location>
   <location_type>GEOMETRIC_CENTER</location_type>
   <viewport>
    <southwest>
     <lat>40.2016262</lat>
     <lng>29.1279573</lng>
    </southwest>
    <northeast>
     <lat>40.2043242</lat>
     <lng>29.1306552</lng>
    </northeast>
   </viewport>
   <bounds>
    <southwest>
     <lat>40.2027543</lat>
     <lng>29.1292620</lng>
    </southwest>
    <northeast>
     <lat>40.2031961</lat>
     <lng>29.1293505</lng>
    </northeast>
   </bounds>
  </geometry>
  <partial_match>true</partial_match>
  <place_id>ChIJI9nxPdc-yhQRcXuvjbVQgjM</place_id>
 </result>
</GeocodeResponse>
