<?xml version="1.0" encoding="UTF-8"?>
<GeocodeResponse>
 <status>OK</status>
 <result>
  <type>locality</type>
  <type>political</type>
  <formatted_address>Milan, Italy</formatted_address>
  <address_component>
   <long_name>Milan</long_name>
   <short_name>Milan</short_name>
   <type>locality</type>
   <type>political</type>
  </address_component>
  <address_component>
   <long_name>Milan</long_name>
   <short_name>Milan</short_name>
   <type>administrative_area_level_3</type>
   <type>political</type>
  </address_component>
  <address_component>
   <long_name>Metropolitan City of Milan</long_name>
   <short_name>MI</short_name>
   <type>administrative_area_level_2</type>
   <type>political</type>
  </address_component>
  <address_component>
   <long_name>Lombardy</long_name>
   <short_name>Lombardy</short_name>
   <type>administrative_area_level_1</type>
   <type>political</type>
  </address_component>
  <address_component>
   <long_name>Italy</long_name>
   <short_name>IT</short_name>
   <type>country</type>
   <type>political</type>
  </address_component>
  <geometry>
   <location>
    <lat>45.4654219</lat>
    <lng>9.1859243</lng>
   </location>
   <location_type>APPROXIMATE</location_type>
   <viewport>
    <southwest>
     <lat>45.3897787</lat>
     <lng>9.0651182</lng>
    </southwest>
    <northeast>
     <lat>45.5356890</lat>
     <lng>9.2903463</lng>
    </northeast>
   </viewport>
   <bounds>
    <southwest>
     <lat>45.3897787</lat>
     <lng>9.0651182</lng>
    </southwest>
    <northeast>
     <lat>45.5356890</lat>
     <lng>9.2903463</lng>
    </northeast>
   </bounds>
  </geometry>
  <place_id>ChIJ53USP0nBhkcRjQ50xhPN_zw</place_id>
 </result>
 <result>
  <type>locality</type>
  <type>political</type>
  <formatted_address>24040 Milano, Italy</formatted_address>
  <address_component>
   <long_name>Milano</long_name>
   <short_name>Milano</short_name>
   <type>locality</type>
   <type>political</type>
  </address_component>
  <address_component>
   <long_name>Boltiere</long_name>
   <short_name>Boltiere</short_name>
   <type>administrative_area_level_3</type>
   <type>political</type>
  </address_component>
  <address_component>
   <long_name>Provincia di Bergamo</long_name>
   <short_name>BG</short_name>
   <type>administrative_area_level_2</type>
   <type>political</type>
  </address_component>
  <address_component>
   <long_name>Lombardia</long_name>
   <short_name>Lombardia</short_name>
   <type>administrative_area_level_1</type>
   <type>political</type>
  </address_component>
  <address_component>
   <long_name>Italy</long_name>
   <short_name>IT</short_name>
   <type>country</type>
   <type>political</type>
  </address_component>
  <address_component>
   <long_name>24040</long_name>
   <short_name>24040</short_name>
   <type>postal_code</type>
  </address_component>
  <geometry>
   <location>
    <lat>45.5919384</lat>
    <lng>9.5724801</lng>
   </location>
   <location_type>APPROXIMATE</location_type>
   <viewport>
    <southwest>
     <lat>45.5907428</lat>
     <lng>9.5711629</lng>
    </southwest>
    <northeast>
     <lat>45.5934407</lat>
     <lng>9.5757898</lng>
    </northeast>
   </viewport>
   <bounds>
    <southwest>
     <lat>45.5907891</lat>
     <lng>9.5711629</lng>
    </southwest>
    <northeast>
     <lat>45.5933944</lat>
     <lng>9.5757898</lng>
    </northeast>
   </bounds>
  </geometry>
  <place_id>ChIJ121EbmxMgUcR4wC0denczqk</place_id>
 </result>
 <result>
  <type>locality</type>
  <type>political</type>
  <formatted_address>24030 Milan, Italy</formatted_address>
  <address_component>
   <long_name>Milan</long_name>
   <short_name>Milan</short_name>
   <type>locality</type>
   <type>political</type>
  </address_component>
  <address_component>
   <long_name>Berbenno</long_name>
   <short_name>Berbenno</short_name>
   <type>administrative_area_level_3</type>
   <type>political</type>
  </address_component>
  <address_component>
   <long_name>Province of Bergamo</long_name>
   <short_name>BG</short_name>
   <type>administrative_area_level_2</type>
   <type>political</type>
  </address_component>
  <address_component>
   <long_name>Lombardy</long_name>
   <short_name>Lombardy</short_name>
   <type>administrative_area_level_1</type>
   <type>political</type>
  </address_component>
  <address_component>
   <long_name>Italy</long_name>
   <short_name>IT</short_name>
   <type>country</type>
   <type>political</type>
  </address_component>
  <address_component>
   <long_name>24030</long_name>
   <short_name>24030</short_name>
   <type>postal_code</type>
  </address_component>
  <geometry>
   <location>
    <lat>45.8082694</lat>
    <lng>9.5760489</lng>
   </location>
   <location_type>APPROXIMATE</location_type>
   <viewport>
    <southwest>
     <lat>45.8069805</lat>
     <lng>9.5741419</lng>
    </southwest>
    <northeast>
     <lat>45.8096785</lat>
     <lng>9.5788256</lng>
    </northeast>
   </viewport>
   <bounds>
    <southwest>
     <lat>45.8069895</lat>
     <lng>9.5741419</lng>
    </southwest>
    <northeast>
     <lat>45.8096695</lat>
     <lng>9.5788256</lng>
    </northeast>
   </bounds>
  </geometry>
  <place_id>ChIJCaK_NAAAhEcRrLiZ-eSNILc</place_id>
 </result>
</GeocodeResponse>
