<?xml version="1.0" encoding="UTF-8"?>
<GeocodeResponse>
 <status>OK</status>
 <result>
  <type>route</type>
  <formatted_address>Northumberland Way, Washington, Tyne and Wear NE38, UK</formatted_address>
  <address_component>
   <long_name>Northumberland Way</long_name>
   <short_name>Northumberland Way</short_name>
   <type>route</type>
  </address_component>
  <address_component>
   <long_name>Washington</long_name>
   <short_name>Washington</short_name>
   <type>postal_town</type>
  </address_component>
  <address_component>
   <long_name>Tyne and Wear</long_name>
   <short_name>Tyne and Wear</short_name>
   <type>administrative_area_level_2</type>
   <type>political</type>
  </address_component>
  <address_component>
   <long_name>United Kingdom</long_name>
   <short_name>GB</short_name>
   <type>country</type>
   <type>political</type>
  </address_component>
  <address_component>
   <long_name>NE38</long_name>
   <short_name>NE38</short_name>
   <type>postal_code_prefix</type>
   <type>postal_code</type>
  </address_component>
  <geometry>
   <location>
    <lat>54.9116410</lat>
    <lng>-1.5130114</lng>
   </location>
   <location_type>GEOMETRIC_CENTER</location_type>
   <viewport>
    <southwest>
     <lat>54.8882652</lat>
     <lng>-1.5298978</lng>
    </southwest>
    <northeast>
     <lat>54.9335934</lat>
     <lng>-1.5070539</lng>
    </northeast>
   </viewport>
   <bounds>
    <southwest>
     <lat>54.8882652</lat>
     <lng>-1.5298978</lng>
    </southwest>
    <northeast>
     <lat>54.9335934</lat>
     <lng>-1.5070539</lng>
    </northeast>
   </bounds>
  </geometry>
  <partial_match>true</partial_match>
  <place_id>ChIJeecGD9d6fkgR_s3QKK3L2nM</place_id>
 </result>
 <result>
  <type>premise</type>
  <formatted_address>Northumberland House, Station Rd, Backworth, Newcastle upon Tyne, Tyne and Wear NE27 0RU, UK</formatted_address>
  <address_component>
   <long_name>Northumberland House</long_name>
   <short_name>Northumberland House</short_name>
   <type>premise</type>
  </address_component>
  <address_component>
   <long_name>Station Road</long_name>
   <short_name>Station Rd</short_name>
   <type>route</type>
  </address_component>
  <address_component>
   <long_name>Backworth</long_name>
   <short_name>Backworth</short_name>
   <type>locality</type>
   <type>political</type>
  </address_component>
  <address_component>
   <long_name>Newcastle upon Tyne</long_name>
   <short_name>Newcastle upon Tyne</short_name>
   <type>postal_town</type>
  </address_component>
  <address_component>
   <long_name>Tyne and Wear</long_name>
   <short_name>Tyne and Wear</short_name>
   <type>administrative_area_level_2</type>
   <type>political</type>
  </address_component>
  <address_component>
   <long_name>United Kingdom</long_name>
   <short_name>GB</short_name>
   <type>country</type>
   <type>political</type>
  </address_component>
  <address_component>
   <long_name>NE27 0RU</long_name>
   <short_name>NE27 0RU</short_name>
   <type>postal_code</type>
  </address_component>
  <geometry>
   <location>
    <lat>55.0347743</lat>
    <lng>-1.5189392</lng>
   </location>
   <location_type>ROOFTOP</location_type>
   <viewport>
    <southwest>
     <lat>55.0334253</lat>
     <lng>-1.5202882</lng>
    </southwest>
    <northeast>
     <lat>55.0361233</lat>
     <lng>-1.5175902</lng>
    </northeast>
   </viewport>
  </geometry>
  <partial_match>true</partial_match>
  <place_id>ChIJxWNEmf5xfkgRraGywnw3gPg</place_id>
 </result>
 <result>
  <type>route</type>
  <formatted_address>Northumberland Rd, Newcastle upon Tyne, Tyne and Wear NE15 8SD, UK</formatted_address>
  <address_component>
   <long_name>Northumberland Road</long_name>
   <short_name>Northumberland Rd</short_name>
   <type>route</type>
  </address_component>
  <address_component>
   <long_name>Lemington</long_name>
   <short_name>Lemington</short_name>
   <type>sublocality_level_1</type>
   <type>sublocality</type>
   <type>political</type>
  </address_component>
  <address_component>
   <long_name>Newcastle upon Tyne</long_name>
   <short_name>Newcastle upon Tyne</short_name>
   <type>locality</type>
   <type>political</type>
  </address_component>
  <address_component>
   <long_name>Newcastle upon Tyne</long_name>
   <short_name>Newcastle upon Tyne</short_name>
   <type>postal_town</type>
  </address_component>
  <address_component>
   <long_name>Tyne and Wear</long_name>
   <short_name>Tyne and Wear</short_name>
   <type>administrative_area_level_2</type>
   <type>political</type>
  </address_component>
  <address_component>
   <long_name>United Kingdom</long_name>
   <short_name>GB</short_name>
   <type>country</type>
   <type>political</type>
  </address_component>
  <address_component>
   <long_name>NE15 8SD</long_name>
   <short_name>NE15 8SD</short_name>
   <type>postal_code</type>
  </address_component>
  <geometry>
   <location>
    <lat>54.9763302</lat>
    <lng>-1.7156849</lng>
   </location>
   <location_type>GEOMETRIC_CENTER</location_type>
   <viewport>
    <southwest>
     <lat>54.9751472</lat>
     <lng>-1.7175757</lng>
    </southwest>
    <northeast>
     <lat>54.9778451</lat>
     <lng>-1.7148596</lng>
    </northeast>
   </viewport>
   <bounds>
    <southwest>
     <lat>54.9760751</lat>
     <lng>-1.7175757</lng>
    </southwest>
    <northeast>
     <lat>54.9769172</lat>
     <lng>-1.7148596</lng>
    </northeast>
   </bounds>
  </geometry>
  <partial_match>true</partial_match>
  <place_id>ChIJU-wEVcN3fkgR4i3v4y5HUF8</place_id>
 </result>
 <result>
  <type>route</type>
  <formatted_address>Northumberland Square, North Shields, Tyne and Wear NE30 1PW, UK</formatted_address>
  <address_component>
   <long_name>Northumberland Square</long_name>
   <short_name>Northumberland Square</short_name>
   <type>route</type>
  </address_component>
  <address_component>
   <long_name>North Shields</long_name>
   <short_name>North Shields</short_name>
   <type>locality</type>
   <type>political</type>
  </address_component>
  <address_component>
   <long_name>North Shields</long_name>
   <short_name>North Shields</short_name>
   <type>postal_town</type>
  </address_component>
  <address_component>
   <long_name>Tyne and Wear</long_name>
   <short_name>Tyne and Wear</short_name>
   <type>administrative_area_level_2</type>
   <type>political</type>
  </address_component>
  <address_component>
   <long_name>United Kingdom</long_name>
   <short_name>GB</short_name>
   <type>country</type>
   <type>political</type>
  </address_component>
  <address_component>
   <long_name>NE30 1PW</long_name>
   <short_name>NE30 1PW</short_name>
   <type>postal_code</type>
  </address_component>
  <geometry>
   <location>
    <lat>55.0102507</lat>
    <lng>-1.4466742</lng>
   </location>
   <location_type>GEOMETRIC_CENTER</location_type>
   <viewport>
    <southwest>
     <lat>55.0089969</lat>
     <lng>-1.4475558</lng>
    </southwest>
    <northeast>
     <lat>55.0116948</lat>
     <lng>-1.4447660</lng>
    </northeast>
   </viewport>
   <bounds>
    <southwest>
     <lat>55.0097886</lat>
     <lng>-1.4475558</lng>
    </southwest>
    <northeast>
     <lat>55.0109031</lat>
     <lng>-1.4447660</lng>
    </northeast>
   </bounds>
  </geometry>
  <partial_match>true</partial_match>
  <place_id>ChIJCbfINPBufkgREwcT0QxFEro</place_id>
 </result>
 <result>
  <type>route</type>
  <formatted_address>Northumberland Gardens, Newcastle upon Tyne, Tyne and Wear NE2 1HA, UK</formatted_address>
  <address_component>
   <long_name>Northumberland Gardens</long_name>
   <short_name>Northumberland Gardens</short_name>
   <type>route</type>
  </address_component>
  <address_component>
   <long_name>Newcastle upon Tyne</long_name>
   <short_name>Newcastle upon Tyne</short_name>
   <type>locality</type>
   <type>political</type>
  </address_component>
  <address_component>
   <long_name>Newcastle upon Tyne</long_name>
   <short_name>Newcastle upon Tyne</short_name>
   <type>postal_town</type>
  </address_component>
  <address_component>
   <long_name>Tyne and Wear</long_name>
   <short_name>Tyne and Wear</short_name>
   <type>administrative_area_level_2</type>
   <type>political</type>
  </address_component>
  <address_component>
   <long_name>United Kingdom</long_name>
   <short_name>GB</short_name>
   <type>country</type>
   <type>political</type>
  </address_component>
  <address_component>
   <long_name>NE2 1HA</long_name>
   <short_name>NE2 1HA</short_name>
   <type>postal_code</type>
  </address_component>
  <geometry>
   <location>
    <lat>54.9855419</lat>
    <lng>-1.5916499</lng>
   </location>
   <location_type>GEOMETRIC_CENTER</location_type>
   <viewport>
    <southwest>
     <lat>54.9843688</lat>
     <lng>-1.5930771</lng>
    </southwest>
    <northeast>
     <lat>54.9870668</lat>
     <lng>-1.5903792</lng>
    </northeast>
   </viewport>
   <bounds>
    <southwest>
     <lat>54.9849434</lat>
     <lng>-1.5925149</lng>
    </southwest>
    <northeast>
     <lat>54.9864922</lat>
     <lng>-1.5909414</lng>
    </northeast>
   </bounds>
  </geometry>
  <partial_match>true</partial_match>
  <place_id>ChIJ8T6cvedwfkgRg456syzYiEY</place_id>
 </result>
 <result>
  <type>route</type>
  <formatted_address>Northumberland St, Wallsend, Tyne and Wear NE28 7PX, UK</formatted_address>
  <address_component>
   <long_name>Northumberland Street</long_name>
   <short_name>Northumberland St</short_name>
   <type>route</type>
  </address_component>
  <address_component>
   <long_name>Wallsend</long_name>
   <short_name>Wallsend</short_name>
   <type>locality</type>
   <type>political</type>
  </address_component>
  <address_component>
   <long_name>Wallsend</long_name>
   <short_name>Wallsend</short_name>
   <type>postal_town</type>
  </address_component>
  <address_component>
   <long_name>Tyne and Wear</long_name>
   <short_name>Tyne and Wear</short_name>
   <type>administrative_area_level_2</type>
   <type>political</type>
  </address_component>
  <address_component>
   <long_name>United Kingdom</long_name>
   <short_name>GB</short_name>
   <type>country</type>
   <type>political</type>
  </address_component>
  <address_component>
   <long_name>NE28 7PX</long_name>
   <short_name>NE28 7PX</short_name>
   <type>postal_code</type>
  </address_component>
  <geometry>
   <location>
    <lat>54.9930823</lat>
    <lng>-1.5279277</lng>
   </location>
   <location_type>GEOMETRIC_CENTER</location_type>
   <viewport>
    <southwest>
     <lat>54.9918713</lat>
     <lng>-1.5293762</lng>
    </southwest>
    <northeast>
     <lat>54.9945693</lat>
     <lng>-1.5266783</lng>
    </northeast>
   </viewport>
   <bounds>
    <southwest>
     <lat>54.9920642</lat>
     <lng>-1.5289508</lng>
    </southwest>
    <northeast>
     <lat>54.9943764</lat>
     <lng>-1.5271037</lng>
    </northeast>
   </bounds>
  </geometry>
  <partial_match>true</partial_match>
  <place_id>ChIJ56Ba9zJwfkgRB7owAK3NCik</place_id>
 </result>
 <result>
  <type>route</type>
  <formatted_address>Northumberland Rd, Ryton, Tyne and Wear NE40 3PT, UK</formatted_address>
  <address_component>
   <long_name>Northumberland Road</long_name>
   <short_name>Northumberland Rd</short_name>
   <type>route</type>
  </address_component>
  <address_component>
   <long_name>Ryton</long_name>
   <short_name>Ryton</short_name>
   <type>locality</type>
   <type>political</type>
  </address_component>
  <address_component>
   <long_name>Ryton</long_name>
   <short_name>Ryton</short_name>
   <type>postal_town</type>
  </address_component>
  <address_component>
   <long_name>Tyne and Wear</long_name>
   <short_name>Tyne and Wear</short_name>
   <type>administrative_area_level_2</type>
   <type>political</type>
  </address_component>
  <address_component>
   <long_name>United Kingdom</long_name>
   <short_name>GB</short_name>
   <type>country</type>
   <type>political</type>
  </address_component>
  <address_component>
   <long_name>NE40 3PT</long_name>
   <short_name>NE40 3PT</short_name>
   <type>postal_code</type>
  </address_component>
  <geometry>
   <location>
    <lat>54.9754464</lat>
    <lng>-1.7625422</lng>
   </location>
   <location_type>GEOMETRIC_CENTER</location_type>
   <viewport>
    <southwest>
     <lat>54.9741558</lat>
     <lng>-1.7638987</lng>
    </southwest>
    <northeast>
     <lat>54.9768537</lat>
     <lng>-1.7612007</lng>
    </northeast>
   </viewport>
   <bounds>
    <southwest>
     <lat>54.9744182</lat>
     <lng>-1.7628603</lng>
    </southwest>
    <northeast>
     <lat>54.9765913</lat>
     <lng>-1.7622391</lng>
    </northeast>
   </bounds>
  </geometry>
  <partial_match>true</partial_match>
  <place_id>ChIJeRsOZ0HYfUgRsftOm8RQZoc</place_id>
 </result>
 <result>
  <type>route</type>
  <formatted_address>Northumberland Pl, Birtley, Chester le Street, Tyne and Wear DH3 2AP, UK</formatted_address>
  <address_component>
   <long_name>Northumberland Place</long_name>
   <short_name>Northumberland Pl</short_name>
   <type>route</type>
  </address_component>
  <address_component>
   <long_name>Birtley</long_name>
   <short_name>Birtley</short_name>
   <type>locality</type>
   <type>political</type>
  </address_component>
  <address_component>
   <long_name>Chester le Street</long_name>
   <short_name>Chester le Street</short_name>
   <type>postal_town</type>
  </address_component>
  <address_component>
   <long_name>Tyne and Wear</long_name>
   <short_name>Tyne and Wear</short_name>
   <type>administrative_area_level_2</type>
   <type>political</type>
  </address_component>
  <address_component>
   <long_name>United Kingdom</long_name>
   <short_name>GB</short_name>
   <type>country</type>
   <type>political</type>
  </address_component>
  <address_component>
   <long_name>DH3 2AP</long_name>
   <short_name>DH3 2AP</short_name>
   <type>postal_code</type>
  </address_component>
  <geometry>
   <location>
    <lat>54.8817883</lat>
    <lng>-1.5697895</lng>
   </location>
   <location_type>GEOMETRIC_CENTER</location_type>
   <viewport>
    <southwest>
     <lat>54.8801601</lat>
     <lng>-1.5711860</lng>
    </southwest>
    <northeast>
     <lat>54.8828580</lat>
     <lng>-1.5684881</lng>
    </northeast>
   </viewport>
   <bounds>
    <southwest>
     <lat>54.8811515</lat>
     <lng>-1.5711139</lng>
    </southwest>
    <northeast>
     <lat>54.8818666</lat>
     <lng>-1.5685602</lng>
    </northeast>
   </bounds>
  </geometry>
  <partial_match>true</partial_match>
  <place_id>ChIJAwFlCJl7fkgRYspHlOxNFVA</place_id>
 </result>
 <result>
  <type>route</type>
  <formatted_address>Northumberland Gardens, Newcastle upon Tyne, Tyne and Wear NE5 1PT, UK</formatted_address>
  <address_component>
   <long_name>Northumberland Gardens</long_name>
   <short_name>Northumberland Gardens</short_name>
   <type>route</type>
  </address_component>
  <address_component>
   <long_name>Newcastle upon Tyne</long_name>
   <short_name>Newcastle upon Tyne</short_name>
   <type>postal_town</type>
  </address_component>
  <address_component>
   <long_name>Tyne and Wear</long_name>
   <short_name>Tyne and Wear</short_name>
   <type>administrative_area_level_2</type>
   <type>political</type>
  </address_component>
  <address_component>
   <long_name>United Kingdom</long_name>
   <short_name>GB</short_name>
   <type>country</type>
   <type>political</type>
  </address_component>
  <address_component>
   <long_name>NE5 1PT</long_name>
   <short_name>NE5 1PT</short_name>
   <type>postal_code</type>
  </address_component>
  <geometry>
   <location>
    <lat>54.9997814</lat>
    <lng>-1.7252834</lng>
   </location>
   <location_type>GEOMETRIC_CENTER</location_type>
   <viewport>
    <southwest>
     <lat>54.9985145</lat>
     <lng>-1.7285541</lng>
    </southwest>
    <northeast>
     <lat>55.0012124</lat>
     <lng>-1.7248150</lng>
    </northeast>
   </viewport>
   <bounds>
    <southwest>
     <lat>54.9989030</lat>
     <lng>-1.7285541</lng>
    </southwest>
    <northeast>
     <lat>55.0008239</lat>
     <lng>-1.7248150</lng>
    </northeast>
   </bounds>
  </geometry>
  <partial_match>true</partial_match>
  <place_id>ChIJw3vNFCl2fkgRrIGrpQwgAqs</place_id>
 </result>
 <result>
  <type>route</type>
  <formatted_address>Northumberland Ave, Newcastle upon Tyne, Tyne and Wear NE3 4XE, UK</formatted_address>
  <address_component>
   <long_name>Northumberland Avenue</long_name>
   <short_name>Northumberland Ave</short_name>
   <type>route</type>
  </address_component>
  <address_component>
   <long_name>Gosforth</long_name>
   <short_name>Gosforth</short_name>
   <type>sublocality_level_1</type>
   <type>sublocality</type>
   <type>political</type>
  </address_component>
  <address_component>
   <long_name>Newcastle upon Tyne</long_name>
   <short_name>Newcastle upon Tyne</short_name>
   <type>locality</type>
   <type>political</type>
  </address_component>
  <address_component>
   <long_name>Newcastle upon Tyne</long_name>
   <short_name>Newcastle upon Tyne</short_name>
   <type>postal_town</type>
  </address_component>
  <address_component>
   <long_name>Tyne and Wear</long_name>
   <short_name>Tyne and Wear</short_name>
   <type>administrative_area_level_2</type>
   <type>political</type>
  </address_component>
  <address_component>
   <long_name>United Kingdom</long_name>
   <short_name>GB</short_name>
   <type>country</type>
   <type>political</type>
  </address_component>
  <address_component>
   <long_name>NE3 4XE</long_name>
   <short_name>NE3 4XE</short_name>
   <type>postal_code</type>
  </address_component>
  <geometry>
   <location>
    <lat>55.0011664</lat>
    <lng>-1.6364932</lng>
   </location>
   <location_type>GEOMETRIC_CENTER</location_type>
   <viewport>
    <southwest>
     <lat>55.0002421</lat>
     <lng>-1.6380563</lng>
    </southwest>
    <northeast>
     <lat>55.0029400</lat>
     <lng>-1.6335986</lng>
    </northeast>
   </viewport>
   <bounds>
    <southwest>
     <lat>55.0006918</lat>
     <lng>-1.6380563</lng>
    </southwest>
    <northeast>
     <lat>55.0024903</lat>
     <lng>-1.6335986</lng>
    </northeast>
   </bounds>
  </geometry>
  <partial_match>true</partial_match>
  <place_id>ChIJyQtYdtp2fkgRJUgBpY2gftc</place_id>
 </result>
</GeocodeResponse>
