<?xml version="1.0" encoding="UTF-8"?>
<GeocodeResponse>
 <status>OK</status>
 <result>
  <type>premise</type>
  <formatted_address>Southern Building, 257-273 King's Rd, North Point, Hong Kong</formatted_address>
  <address_component>
   <long_name>Southern Building</long_name>
   <short_name>Southern Building</short_name>
   <type>premise</type>
  </address_component>
  <address_component>
   <long_name>257-273</long_name>
   <short_name>257-273</short_name>
   <type>street_number</type>
  </address_component>
  <address_component>
   <long_name>King's Road</long_name>
   <short_name>King's Rd</short_name>
   <type>route</type>
  </address_component>
  <address_component>
   <long_name>North Point</long_name>
   <short_name>North Point</short_name>
   <type>neighborhood</type>
   <type>political</type>
  </address_component>
  <address_component>
   <long_name>Hong Kong Island</long_name>
   <short_name>Hong Kong Island</short_name>
   <type>administrative_area_level_1</type>
   <type>political</type>
  </address_component>
  <address_component>
   <long_name>Hong Kong</long_name>
   <short_name>HK</short_name>
   <type>country</type>
   <type>political</type>
  </address_component>
  <geometry>
   <location>
    <lat>22.2900016</lat>
    <lng>114.1946910</lng>
   </location>
   <location_type>ROOFTOP</location_type>
   <viewport>
    <southwest>
     <lat>22.2886526</lat>
     <lng>114.1933420</lng>
    </southwest>
    <northeast>
     <lat>22.2913506</lat>
     <lng>114.1960400</lng>
    </northeast>
   </viewport>
   <bounds>
    <southwest>
     <lat>22.2898541</lat>
     <lng>114.1945280</lng>
    </southwest>
    <northeast>
     <lat>22.2901491</lat>
     <lng>114.1948540</lng>
    </northeast>
   </bounds>
  </geometry>
  <partial_match>true</partial_match>
  <place_id>ChIJqVp6tAMBBDQRqATQI5JrWeQ</place_id>
 </result>
</GeocodeResponse>
