<?xml version="1.0" encoding="UTF-8"?>
<GeocodeResponse>
 <status>OK</status>
 <result>
  <type>route</type>
  <formatted_address>Antalya Isparta Yolu, Turkey</formatted_address>
  <address_component>
   <long_name>Antalya Isparta Yolu</long_name>
   <short_name>Antalya Isparta Yolu</short_name>
   <type>route</type>
  </address_component>
  <address_component>
   <long_name>Turkey</long_name>
   <short_name>TR</short_name>
   <type>country</type>
   <type>political</type>
  </address_component>
  <geometry>
   <location>
    <lat>37.5070755</lat>
    <lng>30.7533452</lng>
   </location>
   <location_type>GEOMETRIC_CENTER</location_type>
   <viewport>
    <southwest>
     <lat>37.2811768</lat>
     <lng>30.6502400</lng>
    </southwest>
    <northeast>
     <lat>37.7168518</lat>
     <lng>30.8148892</lng>
    </northeast>
   </viewport>
   <bounds>
    <southwest>
     <lat>37.2811768</lat>
     <lng>30.6502400</lng>
    </southwest>
    <northeast>
     <lat>37.7168518</lat>
     <lng>30.8148892</lng>
    </northeast>
   </bounds>
  </geometry>
  <partial_match>true</partial_match>
  <place_id>ChIJRUe7SaJaxBQRyZwgmPi0rIQ</place_id>
 </result>
 <result>
  <type>route</type>
  <formatted_address>Atatürk Cd., Isparta Merkez/Isparta, Turkey</formatted_address>
  <address_component>
   <long_name>Atatürk Caddesi</long_name>
   <short_name>Atatürk Cd.</short_name>
   <type>route</type>
  </address_component>
  <address_component>
   <long_name>Isparta Merkez</long_name>
   <short_name>Isparta Merkez</short_name>
   <type>administrative_area_level_2</type>
   <type>political</type>
  </address_component>
  <address_component>
   <long_name>Isparta</long_name>
   <short_name>Isparta</short_name>
   <type>administrative_area_level_1</type>
   <type>political</type>
  </address_component>
  <address_component>
   <long_name>Turkey</long_name>
   <short_name>TR</short_name>
   <type>country</type>
   <type>political</type>
  </address_component>
  <geometry>
   <location>
    <lat>37.7412018</lat>
    <lng>30.6338781</lng>
   </location>
   <location_type>GEOMETRIC_CENTER</location_type>
   <viewport>
    <southwest>
     <lat>37.7168518</lat>
     <lng>30.6194230</lng>
    </southwest>
    <northeast>
     <lat>37.7662034</lat>
     <lng>30.6502400</lng>
    </northeast>
   </viewport>
   <bounds>
    <southwest>
     <lat>37.7168518</lat>
     <lng>30.6194230</lng>
    </southwest>
    <northeast>
     <lat>37.7662034</lat>
     <lng>30.6502400</lng>
    </northeast>
   </bounds>
  </geometry>
  <partial_match>true</partial_match>
  <place_id>ChIJqQ-YfJazxRQR4Ey4ENmMVxw</place_id>
 </result>
 <result>
  <type>route</type>
  <formatted_address>Gökbel, Kazak-1 Tüneli, 15800 Çamlıdere/Ağlasun/Burdur, Turkey</formatted_address>
  <address_component>
   <long_name>Kazak-1 Tüneli</long_name>
   <short_name>Kazak-1 Tüneli</short_name>
   <type>route</type>
  </address_component>
  <address_component>
   <long_name>Gökbel Mahallesi</long_name>
   <short_name>Gökbel</short_name>
   <type>administrative_area_level_4</type>
   <type>political</type>
  </address_component>
  <address_component>
   <long_name>Çamlıdere Köyü</long_name>
   <short_name>Çamlıdere</short_name>
   <type>administrative_area_level_3</type>
   <type>political</type>
  </address_component>
  <address_component>
   <long_name>Ağlasun</long_name>
   <short_name>Ağlasun</short_name>
   <type>administrative_area_level_2</type>
   <type>political</type>
  </address_component>
  <address_component>
   <long_name>Burdur</long_name>
   <short_name>Burdur</short_name>
   <type>administrative_area_level_1</type>
   <type>political</type>
  </address_component>
  <address_component>
   <long_name>Turkey</long_name>
   <short_name>TR</short_name>
   <type>country</type>
   <type>political</type>
  </address_component>
  <address_component>
   <long_name>15800</long_name>
   <short_name>15800</short_name>
   <type>postal_code</type>
  </address_component>
  <geometry>
   <location>
    <lat>37.6401142</lat>
    <lng>30.7272252</lng>
   </location>
   <location_type>GEOMETRIC_CENTER</location_type>
   <viewport>
    <southwest>
     <lat>37.6389898</lat>
     <lng>30.7257929</lng>
    </southwest>
    <northeast>
     <lat>37.6416877</lat>
     <lng>30.7284909</lng>
    </northeast>
   </viewport>
   <bounds>
    <southwest>
     <lat>37.6394125</lat>
     <lng>30.7266660</lng>
    </southwest>
    <northeast>
     <lat>37.6412650</lat>
     <lng>30.7276178</lng>
    </northeast>
   </bounds>
  </geometry>
  <partial_match>true</partial_match>
  <place_id>ChIJ9VSWWpZSxBQReqdyOGR_teQ</place_id>
 </result>
 <result>
  <type>route</type>
  <formatted_address>Gökbel, Kazak-2 Tüneli, 15800 Çamlıdere/Ağlasun/Burdur, Turkey</formatted_address>
  <address_component>
   <long_name>Kazak-2 Tüneli</long_name>
   <short_name>Kazak-2 Tüneli</short_name>
   <type>route</type>
  </address_component>
  <address_component>
   <long_name>Gökbel Mahallesi</long_name>
   <short_name>Gökbel</short_name>
   <type>administrative_area_level_4</type>
   <type>political</type>
  </address_component>
  <address_component>
   <long_name>Çamlıdere Köyü</long_name>
   <short_name>Çamlıdere</short_name>
   <type>administrative_area_level_3</type>
   <type>political</type>
  </address_component>
  <address_component>
   <long_name>Ağlasun</long_name>
   <short_name>Ağlasun</short_name>
   <type>administrative_area_level_2</type>
   <type>political</type>
  </address_component>
  <address_component>
   <long_name>Burdur</long_name>
   <short_name>Burdur</short_name>
   <type>administrative_area_level_1</type>
   <type>political</type>
  </address_component>
  <address_component>
   <long_name>Turkey</long_name>
   <short_name>TR</short_name>
   <type>country</type>
   <type>political</type>
  </address_component>
  <address_component>
   <long_name>15800</long_name>
   <short_name>15800</short_name>
   <type>postal_code</type>
  </address_component>
  <geometry>
   <location>
    <lat>37.6359530</lat>
    <lng>30.7290710</lng>
   </location>
   <location_type>GEOMETRIC_CENTER</location_type>
   <viewport>
    <southwest>
     <lat>37.6339271</lat>
     <lng>30.7280938</lng>
    </southwest>
    <northeast>
     <lat>37.6366250</lat>
     <lng>30.7307918</lng>
    </northeast>
   </viewport>
   <bounds>
    <southwest>
     <lat>37.6345991</lat>
     <lng>30.7290710</lng>
    </southwest>
    <northeast>
     <lat>37.6359530</lat>
     <lng>30.7298146</lng>
    </northeast>
   </bounds>
  </geometry>
  <partial_match>true</partial_match>
  <place_id>ChIJB7_X3pNSxBQRJA_O0FJIm7A</place_id>
 </result>
 <result>
  <type>route</type>
  <formatted_address>Hamidiye, Isparta Cd., 34925 Sultanbeyli/İstanbul, Turkey</formatted_address>
  <address_component>
   <long_name>Isparta Caddesi</long_name>
   <short_name>Isparta Cd.</short_name>
   <type>route</type>
  </address_component>
  <address_component>
   <long_name>Hamidiye Mahallesi</long_name>
   <short_name>Hamidiye</short_name>
   <type>administrative_area_level_4</type>
   <type>political</type>
  </address_component>
  <address_component>
   <long_name>Sultanbeyli</long_name>
   <short_name>Sultanbeyli</short_name>
   <type>administrative_area_level_2</type>
   <type>political</type>
  </address_component>
  <address_component>
   <long_name>İstanbul</long_name>
   <short_name>İstanbul</short_name>
   <type>administrative_area_level_1</type>
   <type>political</type>
  </address_component>
  <address_component>
   <long_name>Turkey</long_name>
   <short_name>TR</short_name>
   <type>country</type>
   <type>political</type>
  </address_component>
  <address_component>
   <long_name>34925</long_name>
   <short_name>34925</short_name>
   <type>postal_code</type>
  </address_component>
  <geometry>
   <location>
    <lat>40.9529006</lat>
    <lng>29.2836063</lng>
   </location>
   <location_type>GEOMETRIC_CENTER</location_type>
   <viewport>
    <southwest>
     <lat>40.9515353</lat>
     <lng>29.2823546</lng>
    </southwest>
    <northeast>
     <lat>40.9542333</lat>
     <lng>29.2850525</lng>
    </northeast>
   </viewport>
   <bounds>
    <southwest>
     <lat>40.9518933</lat>
     <lng>29.2828447</lng>
    </southwest>
    <northeast>
     <lat>40.9538753</lat>
     <lng>29.2845624</lng>
    </northeast>
   </bounds>
  </geometry>
  <partial_match>true</partial_match>
  <place_id>ChIJX3fboobQyhQRXp5NuMWO38U</place_id>
 </result>
 <result>
  <type>route</type>
  <formatted_address>Hastane, Isparta Sk., 55040 İlkadım/Samsun, Turkey</formatted_address>
  <address_component>
   <long_name>Isparta Sokak</long_name>
   <short_name>Isparta Sk.</short_name>
   <type>route</type>
  </address_component>
  <address_component>
   <long_name>Hastane Mahallesi</long_name>
   <short_name>Hastane</short_name>
   <type>administrative_area_level_4</type>
   <type>political</type>
  </address_component>
  <address_component>
   <long_name>İlkadım</long_name>
   <short_name>İlkadım</short_name>
   <type>administrative_area_level_2</type>
   <type>political</type>
  </address_component>
  <address_component>
   <long_name>Samsun</long_name>
   <short_name>Samsun</short_name>
   <type>administrative_area_level_1</type>
   <type>political</type>
  </address_component>
  <address_component>
   <long_name>Turkey</long_name>
   <short_name>TR</short_name>
   <type>country</type>
   <type>political</type>
  </address_component>
  <address_component>
   <long_name>55040</long_name>
   <short_name>55040</short_name>
   <type>postal_code</type>
  </address_component>
  <geometry>
   <location>
    <lat>41.2934467</lat>
    <lng>36.3186013</lng>
   </location>
   <location_type>GEOMETRIC_CENTER</location_type>
   <viewport>
    <southwest>
     <lat>41.2920543</lat>
     <lng>36.3172085</lng>
    </southwest>
    <northeast>
     <lat>41.2947522</lat>
     <lng>36.3199065</lng>
    </northeast>
   </viewport>
   <bounds>
    <southwest>
     <lat>41.2923824</lat>
     <lng>36.3183034</lng>
    </southwest>
    <northeast>
     <lat>41.2944241</lat>
     <lng>36.3188116</lng>
    </northeast>
   </bounds>
  </geometry>
  <partial_match>true</partial_match>
  <place_id>ChIJj1SJRut3iEARBDTiFss-Eno</place_id>
 </result>
</GeocodeResponse>
