<?xml version="1.0" encoding="UTF-8"?>
<GeocodeResponse>
 <status>OK</status>
 <result>
  <type>route</type>
  <formatted_address>Lüneburger Weg, 28790 Schwanewede, Germany</formatted_address>
  <address_component>
   <long_name>Lüneburger Weg</long_name>
   <short_name>Lüneburger Weg</short_name>
   <type>route</type>
  </address_component>
  <address_component>
   <long_name>Schwanewede</long_name>
   <short_name>Schwanewede</short_name>
   <type>locality</type>
   <type>political</type>
  </address_component>
  <address_component>
   <long_name>Niedersachsen</long_name>
   <short_name>NDS</short_name>
   <type>administrative_area_level_1</type>
   <type>political</type>
  </address_component>
  <address_component>
   <long_name>Germany</long_name>
   <short_name>DE</short_name>
   <type>country</type>
   <type>political</type>
  </address_component>
  <address_component>
   <long_name>28790</long_name>
   <short_name>28790</short_name>
   <type>postal_code</type>
  </address_component>
  <geometry>
   <location>
    <lat>53.2249934</lat>
    <lng>8.5819715</lng>
   </location>
   <location_type>GEOMETRIC_CENTER</location_type>
   <viewport>
    <southwest>
     <lat>53.2236227</lat>
     <lng>8.5805779</lng>
    </southwest>
    <northeast>
     <lat>53.2263206</lat>
     <lng>8.5832759</lng>
    </northeast>
   </viewport>
   <bounds>
    <southwest>
     <lat>53.2245262</lat>
     <lng>8.5811049</lng>
    </southwest>
    <northeast>
     <lat>53.2254171</lat>
     <lng>8.5827489</lng>
    </northeast>
   </bounds>
  </geometry>
  <partial_match>true</partial_match>
  <place_id>ChIJSQ18iljStkcR9QGKE5cPoxQ</place_id>
 </result>
</GeocodeResponse>
