<?xml version="1.0" encoding="UTF-8"?>
<GeocodeResponse>
 <status>OK</status>
 <result>
  <type>route</type>
  <formatted_address>Calle Noreste, 46313 Las Cuevas, Valencia, Spain</formatted_address>
  <address_component>
   <long_name>Calle Noreste</long_name>
   <short_name>Calle Noreste</short_name>
   <type>route</type>
  </address_component>
  <address_component>
   <long_name>Las Cuevas</long_name>
   <short_name>Las Cuevas</short_name>
   <type>locality</type>
   <type>political</type>
  </address_component>
  <address_component>
   <long_name>Utiel</long_name>
   <short_name>Utiel</short_name>
   <type>administrative_area_level_4</type>
   <type>political</type>
  </address_component>
  <address_component>
   <long_name>Valencia</long_name>
   <short_name>V</short_name>
   <type>administrative_area_level_2</type>
   <type>political</type>
  </address_component>
  <address_component>
   <long_name>Comunidad Valenciana</long_name>
   <short_name>Comunidad Valenciana</short_name>
   <type>administrative_area_level_1</type>
   <type>political</type>
  </address_component>
  <address_component>
   <long_name>Spain</long_name>
   <short_name>ES</short_name>
   <type>country</type>
   <type>political</type>
  </address_component>
  <address_component>
   <long_name>46313</long_name>
   <short_name>46313</short_name>
   <type>postal_code</type>
  </address_component>
  <geometry>
   <location>
    <lat>39.6224665</lat>
    <lng>-1.2818373</lng>
   </location>
   <location_type>GEOMETRIC_CENTER</location_type>
   <viewport>
    <southwest>
     <lat>39.6211090</lat>
     <lng>-1.2831861</lng>
    </southwest>
    <northeast>
     <lat>39.6238069</lat>
     <lng>-1.2804882</lng>
    </northeast>
   </viewport>
   <bounds>
    <southwest>
     <lat>39.6220016</lat>
     <lng>-1.2823964</lng>
    </southwest>
    <northeast>
     <lat>39.6229143</lat>
     <lng>-1.2812779</lng>
    </northeast>
   </bounds>
  </geometry>
  <partial_match>true</partial_match>
  <place_id>ChIJmZTrCd01Zw0RSCwEgpAd7rQ</place_id>
 </result>
 <result>
  <type>route</type>
  <formatted_address>Calle Noreste, 45211 Recas, Toledo, Spain</formatted_address>
  <address_component>
   <long_name>Calle Noreste</long_name>
   <short_name>Calle Noreste</short_name>
   <type>route</type>
  </address_component>
  <address_component>
   <long_name>Recas</long_name>
   <short_name>Recas</short_name>
   <type>locality</type>
   <type>political</type>
  </address_component>
  <address_component>
   <long_name>Toledo</long_name>
   <short_name>TO</short_name>
   <type>administrative_area_level_2</type>
   <type>political</type>
  </address_component>
  <address_component>
   <long_name>Castilla-La Mancha</long_name>
   <short_name>CM</short_name>
   <type>administrative_area_level_1</type>
   <type>political</type>
  </address_component>
  <address_component>
   <long_name>Spain</long_name>
   <short_name>ES</short_name>
   <type>country</type>
   <type>political</type>
  </address_component>
  <address_component>
   <long_name>45211</long_name>
   <short_name>45211</short_name>
   <type>postal_code</type>
  </address_component>
  <geometry>
   <location>
    <lat>40.0488277</lat>
    <lng>-3.9878407</lng>
   </location>
   <location_type>GEOMETRIC_CENTER</location_type>
   <viewport>
    <southwest>
     <lat>40.0472670</lat>
     <lng>-3.9895026</lng>
    </southwest>
    <northeast>
     <lat>40.0499649</lat>
     <lng>-3.9868046</lng>
    </northeast>
   </viewport>
   <bounds>
    <southwest>
     <lat>40.0484042</lat>
     <lng>-3.9884665</lng>
    </southwest>
    <northeast>
     <lat>40.0488277</lat>
     <lng>-3.9878407</lng>
    </northeast>
   </bounds>
  </geometry>
  <partial_match>true</partial_match>
  <place_id>ChIJE0pe03fmQQ0RtPB8yKJNxIo</place_id>
 </result>
 <result>
  <type>route</type>
  <formatted_address>Calle Cinturón Noreste, 46250 L'Alcúdia, Valencia, Spain</formatted_address>
  <address_component>
   <long_name>Calle Cinturón Noreste</long_name>
   <short_name>Calle Cinturón Noreste</short_name>
   <type>route</type>
  </address_component>
  <address_component>
   <long_name>L'Alcúdia</long_name>
   <short_name>L'Alcúdia</short_name>
   <type>locality</type>
   <type>political</type>
  </address_component>
  <address_component>
   <long_name>Valencia</long_name>
   <short_name>V</short_name>
   <type>administrative_area_level_2</type>
   <type>political</type>
  </address_component>
  <address_component>
   <long_name>Comunidad Valenciana</long_name>
   <short_name>Comunidad Valenciana</short_name>
   <type>administrative_area_level_1</type>
   <type>political</type>
  </address_component>
  <address_component>
   <long_name>Spain</long_name>
   <short_name>ES</short_name>
   <type>country</type>
   <type>political</type>
  </address_component>
  <address_component>
   <long_name>46250</long_name>
   <short_name>46250</short_name>
   <type>postal_code</type>
  </address_component>
  <geometry>
   <location>
    <lat>39.2063775</lat>
    <lng>-0.5025288</lng>
   </location>
   <location_type>GEOMETRIC_CENTER</location_type>
   <viewport>
    <southwest>
     <lat>39.2047522</lat>
     <lng>-0.5030593</lng>
    </southwest>
    <northeast>
     <lat>39.2074502</lat>
     <lng>-0.5003613</lng>
    </northeast>
   </viewport>
   <bounds>
    <southwest>
     <lat>39.2058249</lat>
     <lng>-0.5025288</lng>
    </southwest>
    <northeast>
     <lat>39.2063775</lat>
     <lng>-0.5008918</lng>
    </northeast>
   </bounds>
  </geometry>
  <partial_match>true</partial_match>
  <place_id>ChIJy5xVTu-uYQ0RFo5KOKn297A</place_id>
 </result>
 <result>
  <type>route</type>
  <formatted_address>Autovía del Nordeste, Spain</formatted_address>
  <address_component>
   <long_name>Autovía del Nordeste</long_name>
   <short_name>Autovía del Nordeste</short_name>
   <type>route</type>
  </address_component>
  <address_component>
   <long_name>Spain</long_name>
   <short_name>ES</short_name>
   <type>country</type>
   <type>political</type>
  </address_component>
  <geometry>
   <location>
    <lat>41.2048191</lat>
    <lng>-2.2953601</lng>
   </location>
   <location_type>GEOMETRIC_CENTER</location_type>
   <viewport>
    <southwest>
     <lat>40.4395427</lat>
     <lng>-3.6712110</lng>
    </southwest>
    <northeast>
     <lat>41.6818838</lat>
     <lng>-0.6973679</lng>
    </northeast>
   </viewport>
   <bounds>
    <southwest>
     <lat>40.4395427</lat>
     <lng>-3.6712110</lng>
    </southwest>
    <northeast>
     <lat>41.6818838</lat>
     <lng>-0.6973679</lng>
    </northeast>
   </bounds>
  </geometry>
  <partial_match>true</partial_match>
  <place_id>ChIJQdUwL88oQg0Rn_jXeUpPuMI</place_id>
 </result>
 <result>
  <type>route</type>
  <formatted_address>Autopista del Nordeste, Spain</formatted_address>
  <address_component>
   <long_name>Autopista del Nordeste</long_name>
   <short_name>Autopista del Nordeste</short_name>
   <type>route</type>
  </address_component>
  <address_component>
   <long_name>Spain</long_name>
   <short_name>ES</short_name>
   <type>country</type>
   <type>political</type>
  </address_component>
  <geometry>
   <location>
    <lat>41.4965029</lat>
    <lng>0.3941463</lng>
   </location>
   <location_type>GEOMETRIC_CENTER</location_type>
   <viewport>
    <southwest>
     <lat>41.2686837</lat>
     <lng>-0.6992188</lng>
    </southwest>
    <northeast>
     <lat>41.6148528</lat>
     <lng>1.5362192</lng>
    </northeast>
   </viewport>
   <bounds>
    <southwest>
     <lat>41.2686837</lat>
     <lng>-0.6992188</lng>
    </southwest>
    <northeast>
     <lat>41.6148528</lat>
     <lng>1.5362192</lng>
    </northeast>
   </bounds>
  </geometry>
  <partial_match>true</partial_match>
  <place_id>ChIJ-baaMJQYWQ0RrpLLdkb5WrA</place_id>
 </result>
 <result>
  <type>route</type>
  <formatted_address>Autovia del Nord-Est, Spain</formatted_address>
  <address_component>
   <long_name>Autovia del Nord-Est</long_name>
   <short_name>Autovia del Nord-Est</short_name>
   <type>route</type>
  </address_component>
  <address_component>
   <long_name>Spain</long_name>
   <short_name>ES</short_name>
   <type>country</type>
   <type>political</type>
  </address_component>
  <geometry>
   <location>
    <lat>41.6569201</lat>
    <lng>1.1662523</lng>
   </location>
   <location_type>GEOMETRIC_CENTER</location_type>
   <viewport>
    <southwest>
     <lat>41.3450011</lat>
     <lng>0.3016148</lng>
    </southwest>
    <northeast>
     <lat>41.6874437</lat>
     <lng>2.0842158</lng>
    </northeast>
   </viewport>
   <bounds>
    <southwest>
     <lat>41.3450011</lat>
     <lng>0.3016148</lng>
    </southwest>
    <northeast>
     <lat>41.6874437</lat>
     <lng>2.0842158</lng>
    </northeast>
   </bounds>
  </geometry>
  <partial_match>true</partial_match>
  <place_id>ChIJwzODCXI8pxIRE26JQyJbJi0</place_id>
 </result>
 <result>
  <type>route</type>
  <formatted_address>Av. España Norte, La Quiaca, Jujuy, Argentina</formatted_address>
  <address_component>
   <long_name>Avenida España Norte</long_name>
   <short_name>Av. España Norte</short_name>
   <type>route</type>
  </address_component>
  <address_component>
   <long_name>La Quiaca</long_name>
   <short_name>La Quiaca</short_name>
   <type>locality</type>
   <type>political</type>
  </address_component>
  <address_component>
   <long_name>Yavi</long_name>
   <short_name>Yavi</short_name>
   <type>administrative_area_level_2</type>
   <type>political</type>
  </address_component>
  <address_component>
   <long_name>Jujuy</long_name>
   <short_name>Jujuy</short_name>
   <type>administrative_area_level_1</type>
   <type>political</type>
  </address_component>
  <address_component>
   <long_name>Argentina</long_name>
   <short_name>AR</short_name>
   <type>country</type>
   <type>political</type>
  </address_component>
  <geometry>
   <location>
    <lat>-22.1026568</lat>
    <lng>-65.6000788</lng>
   </location>
   <location_type>GEOMETRIC_CENTER</location_type>
   <viewport>
    <southwest>
     <lat>-22.1080371</lat>
     <lng>-65.6014619</lng>
    </southwest>
    <northeast>
     <lat>-22.0973846</lat>
     <lng>-65.5987639</lng>
    </northeast>
   </viewport>
   <bounds>
    <southwest>
     <lat>-22.1080371</lat>
     <lng>-65.6008654</lng>
    </southwest>
    <northeast>
     <lat>-22.0973846</lat>
     <lng>-65.5993604</lng>
    </northeast>
   </bounds>
  </geometry>
  <partial_match>true</partial_match>
  <place_id>ChIJ7S8sgTykBpQRG173CWiUszM</place_id>
 </result>
 <result>
  <type>route</type>
  <formatted_address>Av. España Sur, La Quiaca, Jujuy, Argentina</formatted_address>
  <address_component>
   <long_name>Avenida España Sur</long_name>
   <short_name>Av. España Sur</short_name>
   <type>route</type>
  </address_component>
  <address_component>
   <long_name>La Quiaca</long_name>
   <short_name>La Quiaca</short_name>
   <type>locality</type>
   <type>political</type>
  </address_component>
  <address_component>
   <long_name>Yavi</long_name>
   <short_name>Yavi</short_name>
   <type>administrative_area_level_2</type>
   <type>political</type>
  </address_component>
  <address_component>
   <long_name>Jujuy</long_name>
   <short_name>Jujuy</short_name>
   <type>administrative_area_level_1</type>
   <type>political</type>
  </address_component>
  <address_component>
   <long_name>Argentina</long_name>
   <short_name>AR</short_name>
   <type>country</type>
   <type>political</type>
  </address_component>
  <geometry>
   <location>
    <lat>-22.1125938</lat>
    <lng>-65.5988993</lng>
   </location>
   <location_type>GEOMETRIC_CENTER</location_type>
   <viewport>
    <southwest>
     <lat>-22.1177361</lat>
     <lng>-65.6001497</lng>
    </southwest>
    <northeast>
     <lat>-22.1078734</lat>
     <lng>-65.5974518</lng>
    </northeast>
   </viewport>
   <bounds>
    <southwest>
     <lat>-22.1177361</lat>
     <lng>-65.5995332</lng>
    </southwest>
    <northeast>
     <lat>-22.1078734</lat>
     <lng>-65.5980683</lng>
    </northeast>
   </bounds>
  </geometry>
  <partial_match>true</partial_match>
  <place_id>ChIJ_SyiFyGkBpQRK2a7rGNheqQ</place_id>
 </result>
</GeocodeResponse>
