<?xml version="1.0" encoding="UTF-8"?>
<GeocodeResponse>
 <status>OK</status>
 <result>
  <type>route</type>
  <formatted_address>Batı Karadeniz Cd., 54500 Karasu/Sakarya, Turkey</formatted_address>
  <address_component>
   <long_name>Batı Karadeniz Caddesi</long_name>
   <short_name>Batı Karadeniz Cd.</short_name>
   <type>route</type>
  </address_component>
  <address_component>
   <long_name>Karasu</long_name>
   <short_name>Karasu</short_name>
   <type>administrative_area_level_2</type>
   <type>political</type>
  </address_component>
  <address_component>
   <long_name>Sakarya</long_name>
   <short_name>Sakarya</short_name>
   <type>administrative_area_level_1</type>
   <type>political</type>
  </address_component>
  <address_component>
   <long_name>Turkey</long_name>
   <short_name>TR</short_name>
   <type>country</type>
   <type>political</type>
  </address_component>
  <address_component>
   <long_name>54500</long_name>
   <short_name>54500</short_name>
   <type>postal_code</type>
  </address_component>
  <geometry>
   <location>
    <lat>41.1178525</lat>
    <lng>30.6718303</lng>
   </location>
   <location_type>GEOMETRIC_CENTER</location_type>
   <viewport>
    <southwest>
     <lat>41.1100703</lat>
     <lng>30.6502666</lng>
    </southwest>
    <northeast>
     <lat>41.1269600</lat>
     <lng>30.6927787</lng>
    </northeast>
   </viewport>
   <bounds>
    <southwest>
     <lat>41.1100703</lat>
     <lng>30.6502666</lng>
    </southwest>
    <northeast>
     <lat>41.1269600</lat>
     <lng>30.6927787</lng>
    </northeast>
   </bounds>
  </geometry>
  <partial_match>true</partial_match>
  <place_id>ChIJcYEP6u_anUAR7AEIL7Hg4mk</place_id>
 </result>
 <result>
  <type>route</type>
  <formatted_address>Kaynarca, Karadeniz Cd., 34890 Pendik/İstanbul, Turkey</formatted_address>
  <address_component>
   <long_name>Karadeniz Caddesi</long_name>
   <short_name>Karadeniz Cd.</short_name>
   <type>route</type>
  </address_component>
  <address_component>
   <long_name>Kaynarca Mahallesi</long_name>
   <short_name>Kaynarca</short_name>
   <type>administrative_area_level_4</type>
   <type>political</type>
  </address_component>
  <address_component>
   <long_name>Pendik</long_name>
   <short_name>Pendik</short_name>
   <type>administrative_area_level_2</type>
   <type>political</type>
  </address_component>
  <address_component>
   <long_name>İstanbul</long_name>
   <short_name>İstanbul</short_name>
   <type>administrative_area_level_1</type>
   <type>political</type>
  </address_component>
  <address_component>
   <long_name>Turkey</long_name>
   <short_name>TR</short_name>
   <type>country</type>
   <type>political</type>
  </address_component>
  <address_component>
   <long_name>34890</long_name>
   <short_name>34890</short_name>
   <type>postal_code</type>
  </address_component>
  <geometry>
   <location>
    <lat>40.8778210</lat>
    <lng>29.2563511</lng>
   </location>
   <location_type>GEOMETRIC_CENTER</location_type>
   <viewport>
    <southwest>
     <lat>40.8756990</lat>
     <lng>29.2548589</lng>
    </southwest>
    <northeast>
     <lat>40.8797851</lat>
     <lng>29.2575569</lng>
    </northeast>
   </viewport>
   <bounds>
    <southwest>
     <lat>40.8756990</lat>
     <lng>29.2555800</lng>
    </southwest>
    <northeast>
     <lat>40.8797851</lat>
     <lng>29.2568358</lng>
    </northeast>
   </bounds>
  </geometry>
  <partial_match>true</partial_match>
  <place_id>ChIJDxjLb5_cyhQR9n9S5DHxxn4</place_id>
 </result>
 <result>
  <type>route</type>
  <formatted_address>Fevzi Çakmak, Karadeniz Sk., 34899 Pendik/İstanbul, Turkey</formatted_address>
  <address_component>
   <long_name>Karadeniz Sokak</long_name>
   <short_name>Karadeniz Sk.</short_name>
   <type>route</type>
  </address_component>
  <address_component>
   <long_name>Fevzi Çakmak Mahallesi</long_name>
   <short_name>Fevzi Çakmak</short_name>
   <type>administrative_area_level_4</type>
   <type>political</type>
  </address_component>
  <address_component>
   <long_name>Pendik</long_name>
   <short_name>Pendik</short_name>
   <type>administrative_area_level_2</type>
   <type>political</type>
  </address_component>
  <address_component>
   <long_name>İstanbul</long_name>
   <short_name>İstanbul</short_name>
   <type>administrative_area_level_1</type>
   <type>political</type>
  </address_component>
  <address_component>
   <long_name>Turkey</long_name>
   <short_name>TR</short_name>
   <type>country</type>
   <type>political</type>
  </address_component>
  <address_component>
   <long_name>34899</long_name>
   <short_name>34899</short_name>
   <type>postal_code</type>
  </address_component>
  <geometry>
   <location>
    <lat>40.8810580</lat>
    <lng>29.2685820</lng>
   </location>
   <location_type>GEOMETRIC_CENTER</location_type>
   <viewport>
    <southwest>
     <lat>40.8789732</lat>
     <lng>29.2664134</lng>
    </southwest>
    <northeast>
     <lat>40.8816712</lat>
     <lng>29.2691113</lng>
    </northeast>
   </viewport>
   <bounds>
    <southwest>
     <lat>40.8790104</lat>
     <lng>29.2667077</lng>
    </southwest>
    <northeast>
     <lat>40.8816340</lat>
     <lng>29.2688170</lng>
    </northeast>
   </bounds>
  </geometry>
  <partial_match>true</partial_match>
  <place_id>ChIJh-Ww2nzbyhQR5h7OwVyW-Ys</place_id>
 </result>
 <result>
  <type>route</type>
  <formatted_address>Karadeniz Sk., Pendik/İstanbul, Turkey</formatted_address>
  <address_component>
   <long_name>Karadeniz Sokak</long_name>
   <short_name>Karadeniz Sk.</short_name>
   <type>route</type>
  </address_component>
  <address_component>
   <long_name>Pendik</long_name>
   <short_name>Pendik</short_name>
   <type>administrative_area_level_2</type>
   <type>political</type>
  </address_component>
  <address_component>
   <long_name>İstanbul</long_name>
   <short_name>İstanbul</short_name>
   <type>administrative_area_level_1</type>
   <type>political</type>
  </address_component>
  <address_component>
   <long_name>Turkey</long_name>
   <short_name>TR</short_name>
   <type>country</type>
   <type>political</type>
  </address_component>
  <geometry>
   <location>
    <lat>40.8909418</lat>
    <lng>29.2757241</lng>
   </location>
   <location_type>GEOMETRIC_CENTER</location_type>
   <viewport>
    <southwest>
     <lat>40.8895793</lat>
     <lng>29.2743820</lng>
    </southwest>
    <northeast>
     <lat>40.8922773</lat>
     <lng>29.2770799</lng>
    </northeast>
   </viewport>
   <bounds>
    <southwest>
     <lat>40.8896210</lat>
     <lng>29.2754789</lng>
    </southwest>
    <northeast>
     <lat>40.8922356</lat>
     <lng>29.2759830</lng>
    </northeast>
   </bounds>
  </geometry>
  <partial_match>true</partial_match>
  <place_id>ChIJxaBErXXbyhQRjwYizvZN1G4</place_id>
 </result>
 <result>
  <type>route</type>
  <formatted_address>100. Yıl, Batı Sk., 59100 Tekirdağ Merkez/Tekirdağ, Turkey</formatted_address>
  <address_component>
   <long_name>Batı Sokak</long_name>
   <short_name>Batı Sk.</short_name>
   <type>route</type>
  </address_component>
  <address_component>
   <long_name>100. Yıl Mahallesi</long_name>
   <short_name>100. Yıl</short_name>
   <type>administrative_area_level_4</type>
   <type>political</type>
  </address_component>
  <address_component>
   <long_name>Tekirdağ Merkez</long_name>
   <short_name>Tekirdağ Merkez</short_name>
   <type>administrative_area_level_2</type>
   <type>political</type>
  </address_component>
  <address_component>
   <long_name>Tekirdağ</long_name>
   <short_name>Tekirdağ</short_name>
   <type>administrative_area_level_1</type>
   <type>political</type>
  </address_component>
  <address_component>
   <long_name>Turkey</long_name>
   <short_name>TR</short_name>
   <type>country</type>
   <type>political</type>
  </address_component>
  <address_component>
   <long_name>59100</long_name>
   <short_name>59100</short_name>
   <type>postal_code</type>
  </address_component>
  <geometry>
   <location>
    <lat>40.9632105</lat>
    <lng>27.4921955</lng>
   </location>
   <location_type>GEOMETRIC_CENTER</location_type>
   <viewport>
    <southwest>
     <lat>40.9613639</lat>
     <lng>27.4907806</lng>
    </southwest>
    <northeast>
     <lat>40.9640619</lat>
     <lng>27.4934785</lng>
    </northeast>
   </viewport>
   <bounds>
    <southwest>
     <lat>40.9619841</lat>
     <lng>27.4910650</lng>
    </southwest>
    <northeast>
     <lat>40.9634417</lat>
     <lng>27.4931941</lng>
    </northeast>
   </bounds>
  </geometry>
  <partial_match>true</partial_match>
  <place_id>ChIJ5bzBaMhhtBQRnD83u6lXV-4</place_id>
 </result>
 <result>
  <type>route</type>
  <formatted_address>Çınardere, Karadeniz Sk., 34896 Pendik/İstanbul, Turkey</formatted_address>
  <address_component>
   <long_name>Karadeniz Sokak</long_name>
   <short_name>Karadeniz Sk.</short_name>
   <type>route</type>
  </address_component>
  <address_component>
   <long_name>Çınardere Mahallesi</long_name>
   <short_name>Çınardere</short_name>
   <type>administrative_area_level_4</type>
   <type>political</type>
  </address_component>
  <address_component>
   <long_name>Pendik</long_name>
   <short_name>Pendik</short_name>
   <type>administrative_area_level_2</type>
   <type>political</type>
  </address_component>
  <address_component>
   <long_name>İstanbul</long_name>
   <short_name>İstanbul</short_name>
   <type>administrative_area_level_1</type>
   <type>political</type>
  </address_component>
  <address_component>
   <long_name>Turkey</long_name>
   <short_name>TR</short_name>
   <type>country</type>
   <type>political</type>
  </address_component>
  <address_component>
   <long_name>34896</long_name>
   <short_name>34896</short_name>
   <type>postal_code</type>
  </address_component>
  <geometry>
   <location>
    <lat>40.8922330</lat>
    <lng>29.2348836</lng>
   </location>
   <location_type>GEOMETRIC_CENTER</location_type>
   <viewport>
    <southwest>
     <lat>40.8909292</lat>
     <lng>29.2335553</lng>
    </southwest>
    <northeast>
     <lat>40.8936271</lat>
     <lng>29.2362532</lng>
    </northeast>
   </viewport>
   <bounds>
    <southwest>
     <lat>40.8917580</lat>
     <lng>29.2341578</lng>
    </southwest>
    <northeast>
     <lat>40.8927983</lat>
     <lng>29.2356507</lng>
    </northeast>
   </bounds>
  </geometry>
  <partial_match>true</partial_match>
  <place_id>ChIJvXoTdVPbyhQRGIe4Tc6R6Xo</place_id>
 </result>
 <result>
  <type>route</type>
  <formatted_address>Karlıktepe, Tercih Sk., 34870 Kartal/İstanbul, Turkey</formatted_address>
  <address_component>
   <long_name>Tercih Sokak</long_name>
   <short_name>Tercih Sk.</short_name>
   <type>route</type>
  </address_component>
  <address_component>
   <long_name>Karlıktepe Mahallesi</long_name>
   <short_name>Karlıktepe</short_name>
   <type>administrative_area_level_4</type>
   <type>political</type>
  </address_component>
  <address_component>
   <long_name>Kartal</long_name>
   <short_name>Kartal</short_name>
   <type>administrative_area_level_2</type>
   <type>political</type>
  </address_component>
  <address_component>
   <long_name>İstanbul</long_name>
   <short_name>İstanbul</short_name>
   <type>administrative_area_level_1</type>
   <type>political</type>
  </address_component>
  <address_component>
   <long_name>Turkey</long_name>
   <short_name>TR</short_name>
   <type>country</type>
   <type>political</type>
  </address_component>
  <address_component>
   <long_name>34870</long_name>
   <short_name>34870</short_name>
   <type>postal_code</type>
  </address_component>
  <geometry>
   <location>
    <lat>40.8963183</lat>
    <lng>29.1873096</lng>
   </location>
   <location_type>GEOMETRIC_CENTER</location_type>
   <viewport>
    <southwest>
     <lat>40.8950899</lat>
     <lng>29.1854714</lng>
    </southwest>
    <northeast>
     <lat>40.8977878</lat>
     <lng>29.1881694</lng>
    </northeast>
   </viewport>
   <bounds>
    <southwest>
     <lat>40.8961147</lat>
     <lng>29.1860797</lng>
    </southwest>
    <northeast>
     <lat>40.8967630</lat>
     <lng>29.1875611</lng>
    </northeast>
   </bounds>
  </geometry>
  <partial_match>true</partial_match>
  <place_id>ChIJazwsQH_DyhQRsOQk06Aw03o</place_id>
 </result>
 <result>
  <type>route</type>
  <formatted_address>Paşa, Batı Cd., 34379 Şişli/İstanbul, Turkey</formatted_address>
  <address_component>
   <long_name>Batı Caddesi</long_name>
   <short_name>Batı Cd.</short_name>
   <type>route</type>
  </address_component>
  <address_component>
   <long_name>Paşa Mahallesi</long_name>
   <short_name>Paşa</short_name>
   <type>administrative_area_level_4</type>
   <type>political</type>
  </address_component>
  <address_component>
   <long_name>Şişli</long_name>
   <short_name>Şişli</short_name>
   <type>administrative_area_level_2</type>
   <type>political</type>
  </address_component>
  <address_component>
   <long_name>İstanbul</long_name>
   <short_name>İstanbul</short_name>
   <type>administrative_area_level_1</type>
   <type>political</type>
  </address_component>
  <address_component>
   <long_name>Turkey</long_name>
   <short_name>TR</short_name>
   <type>country</type>
   <type>political</type>
  </address_component>
  <address_component>
   <long_name>34379</long_name>
   <short_name>34379</short_name>
   <type>postal_code</type>
  </address_component>
  <geometry>
   <location>
    <lat>41.0529416</lat>
    <lng>28.9751464</lng>
   </location>
   <location_type>GEOMETRIC_CENTER</location_type>
   <viewport>
    <southwest>
     <lat>41.0513942</lat>
     <lng>28.9738505</lng>
    </southwest>
    <northeast>
     <lat>41.0544960</lat>
     <lng>28.9765485</lng>
    </northeast>
   </viewport>
   <bounds>
    <southwest>
     <lat>41.0513942</lat>
     <lng>28.9747080</lng>
    </southwest>
    <northeast>
     <lat>41.0544960</lat>
     <lng>28.9756910</lng>
    </northeast>
   </bounds>
  </geometry>
  <partial_match>true</partial_match>
  <place_id>ChIJRxGuzT-3yhQR_0UiYGtf1PU</place_id>
 </result>
 <result>
  <type>premise</type>
  <formatted_address>Doğu, Karadeniz Sitesi, 34890 Pendik/İstanbul, Turkey</formatted_address>
  <address_component>
   <long_name>Karadeniz Sitesi</long_name>
   <short_name>Karadeniz Sitesi</short_name>
   <type>premise</type>
  </address_component>
  <address_component>
   <long_name>Doğu Mahallesi</long_name>
   <short_name>Doğu</short_name>
   <type>administrative_area_level_4</type>
   <type>political</type>
  </address_component>
  <address_component>
   <long_name>Pendik</long_name>
   <short_name>Pendik</short_name>
   <type>administrative_area_level_2</type>
   <type>political</type>
  </address_component>
  <address_component>
   <long_name>İstanbul</long_name>
   <short_name>İstanbul</short_name>
   <type>administrative_area_level_1</type>
   <type>political</type>
  </address_component>
  <address_component>
   <long_name>Turkey</long_name>
   <short_name>TR</short_name>
   <type>country</type>
   <type>political</type>
  </address_component>
  <address_component>
   <long_name>34890</long_name>
   <short_name>34890</short_name>
   <type>postal_code</type>
  </address_component>
  <geometry>
   <location>
    <lat>40.8794103</lat>
    <lng>29.2348934</lng>
   </location>
   <location_type>ROOFTOP</location_type>
   <viewport>
    <southwest>
     <lat>40.8780344</lat>
     <lng>29.2335291</lng>
    </southwest>
    <northeast>
     <lat>40.8807324</lat>
     <lng>29.2362270</lng>
    </northeast>
   </viewport>
   <bounds>
    <southwest>
     <lat>40.8790459</lat>
     <lng>29.2345620</lng>
    </southwest>
    <northeast>
     <lat>40.8797209</lat>
     <lng>29.2351941</lng>
    </northeast>
   </bounds>
  </geometry>
  <partial_match>true</partial_match>
  <place_id>ChIJ20bGAK3cyhQRnDKObsPDRTQ</place_id>
 </result>
</GeocodeResponse>
