<?xml version="1.0" encoding="UTF-8"?>
<GeocodeResponse>
 <status>OK</status>
 <result>
  <type>route</type>
  <formatted_address>Mannertie, 97280 Rovaniemi, Finland</formatted_address>
  <address_component>
   <long_name>Mannertie</long_name>
   <short_name>Mannertie</short_name>
   <type>route</type>
  </address_component>
  <address_component>
   <long_name>Rovaniemi</long_name>
   <short_name>Rovaniemi</short_name>
   <type>locality</type>
   <type>political</type>
  </address_component>
  <address_component>
   <long_name>Rovaniemi</long_name>
   <short_name>Rovaniemi</short_name>
   <type>administrative_area_level_3</type>
   <type>political</type>
  </address_component>
  <address_component>
   <long_name>Finland</long_name>
   <short_name>FI</short_name>
   <type>country</type>
   <type>political</type>
  </address_component>
  <address_component>
   <long_name>97280</long_name>
   <short_name>97280</short_name>
   <type>postal_code</type>
  </address_component>
  <geometry>
   <location>
    <lat>66.7004132</lat>
    <lng>25.4408500</lng>
   </location>
   <location_type>GEOMETRIC_CENTER</location_type>
   <viewport>
    <southwest>
     <lat>66.6990699</lat>
     <lng>25.4397243</lng>
    </southwest>
    <northeast>
     <lat>66.7017678</lat>
     <lng>25.4424222</lng>
    </northeast>
   </viewport>
   <bounds>
    <southwest>
     <lat>66.6996513</lat>
     <lng>25.4400315</lng>
    </southwest>
    <northeast>
     <lat>66.7011864</lat>
     <lng>25.4421150</lng>
    </northeast>
   </bounds>
  </geometry>
  <partial_match>true</partial_match>
  <place_id>ChIJNdEEWrKv1EURP-ocYi13sgY</place_id>
 </result>
 <result>
  <type>route</type>
  <formatted_address>Mannerkuja, 45720 Kouvola, Finland</formatted_address>
  <address_component>
   <long_name>Mannerkuja</long_name>
   <short_name>Mannerkuja</short_name>
   <type>route</type>
  </address_component>
  <address_component>
   <long_name>Kouvola</long_name>
   <short_name>Kouvola</short_name>
   <type>locality</type>
   <type>political</type>
  </address_component>
  <address_component>
   <long_name>Kouvola</long_name>
   <short_name>Kouvola</short_name>
   <type>administrative_area_level_3</type>
   <type>political</type>
  </address_component>
  <address_component>
   <long_name>Finland</long_name>
   <short_name>FI</short_name>
   <type>country</type>
   <type>political</type>
  </address_component>
  <address_component>
   <long_name>45720</long_name>
   <short_name>45720</short_name>
   <type>postal_code</type>
  </address_component>
  <geometry>
   <location>
    <lat>60.8873412</lat>
    <lng>26.6553380</lng>
   </location>
   <location_type>GEOMETRIC_CENTER</location_type>
   <viewport>
    <southwest>
     <lat>60.8860193</lat>
     <lng>26.6542589</lng>
    </southwest>
    <northeast>
     <lat>60.8887173</lat>
     <lng>26.6569568</lng>
    </northeast>
   </viewport>
   <bounds>
    <southwest>
     <lat>60.8872532</lat>
     <lng>26.6551024</lng>
    </southwest>
    <northeast>
     <lat>60.8874834</lat>
     <lng>26.6561133</lng>
    </northeast>
   </bounds>
  </geometry>
  <partial_match>true</partial_match>
  <place_id>ChIJaXTLmHOzkUYR8Fym8pb4JZA</place_id>
 </result>
 <result>
  <type>natural_feature</type>
  <type>establishment</type>
  <formatted_address>Manner-Myhkyri, 71280 Tuusniemi, Finland</formatted_address>
  <address_component>
   <long_name>Manner-Myhkyri</long_name>
   <short_name>Manner-Myhkyri</short_name>
   <type>natural_feature</type>
   <type>establishment</type>
  </address_component>
  <address_component>
   <long_name>Tuusniemi</long_name>
   <short_name>Tuusniemi</short_name>
   <type>administrative_area_level_3</type>
   <type>political</type>
  </address_component>
  <address_component>
   <long_name>Finland</long_name>
   <short_name>FI</short_name>
   <type>country</type>
   <type>political</type>
  </address_component>
  <address_component>
   <long_name>71280</long_name>
   <short_name>71280</short_name>
   <type>postal_code</type>
  </address_component>
  <geometry>
   <location>
    <lat>62.7168548</lat>
    <lng>28.6075810</lng>
   </location>
   <location_type>APPROXIMATE</location_type>
   <viewport>
    <southwest>
     <lat>62.7155175</lat>
     <lng>28.6065256</lng>
    </southwest>
    <northeast>
     <lat>62.7182155</lat>
     <lng>28.6092236</lng>
    </northeast>
   </viewport>
   <bounds>
    <southwest>
     <lat>62.7165203</lat>
     <lng>28.6066657</lng>
    </southwest>
    <northeast>
     <lat>62.7172127</lat>
     <lng>28.6090835</lng>
    </northeast>
   </bounds>
  </geometry>
  <partial_match>true</partial_match>
  <place_id>ChIJpfTDHeFCm0YRgMWoZiMxIaQ</place_id>
 </result>
 <result>
  <type>natural_feature</type>
  <type>establishment</type>
  <formatted_address>Manner-Haavainen, 23930 Uusikaupunki, Finland</formatted_address>
  <address_component>
   <long_name>Manner-Haavainen</long_name>
   <short_name>Manner-Haavainen</short_name>
   <type>natural_feature</type>
   <type>establishment</type>
  </address_component>
  <address_component>
   <long_name>Uusikaupunki</long_name>
   <short_name>Uusikaupunki</short_name>
   <type>administrative_area_level_3</type>
   <type>political</type>
  </address_component>
  <address_component>
   <long_name>Finland</long_name>
   <short_name>FI</short_name>
   <type>country</type>
   <type>political</type>
  </address_component>
  <address_component>
   <long_name>23930</long_name>
   <short_name>23930</short_name>
   <type>postal_code</type>
  </address_component>
  <geometry>
   <location>
    <lat>60.8465242</lat>
    <lng>21.2139286</lng>
   </location>
   <location_type>APPROXIMATE</location_type>
   <viewport>
    <southwest>
     <lat>60.8451752</lat>
     <lng>21.2125796</lng>
    </southwest>
    <northeast>
     <lat>60.8478732</lat>
     <lng>21.2152776</lng>
    </northeast>
   </viewport>
  </geometry>
  <partial_match>true</partial_match>
  <place_id>ChIJgWdEMevLi0YR2cva_tp04ig</place_id>
 </result>
 <result>
  <type>natural_feature</type>
  <type>establishment</type>
  <formatted_address>Åland Islands, Åland Islands</formatted_address>
  <address_component>
   <long_name>Åland Islands</long_name>
   <short_name>Åland Islands</short_name>
   <type>natural_feature</type>
   <type>establishment</type>
  </address_component>
  <address_component>
   <long_name>Åland Islands</long_name>
   <short_name>AX</short_name>
   <type>country</type>
   <type>political</type>
  </address_component>
  <geometry>
   <location>
    <lat>60.2929495</lat>
    <lng>20.1004159</lng>
   </location>
   <location_type>APPROXIMATE</location_type>
   <viewport>
    <southwest>
     <lat>59.9686670</lat>
     <lng>19.4614389</lng>
    </southwest>
    <northeast>
     <lat>60.4642762</lat>
     <lng>20.3024023</lng>
    </northeast>
   </viewport>
   <bounds>
    <southwest>
     <lat>59.9686438</lat>
     <lng>19.4613939</lng>
    </southwest>
    <northeast>
     <lat>60.6547739</lat>
     <lng>21.1111317</lng>
    </northeast>
   </bounds>
  </geometry>
  <partial_match>true</partial_match>
  <place_id>ChIJZbklJ9ndikYRfNJ6G9BMYnc</place_id>
 </result>
</GeocodeResponse>
