<?xml version="1.0" encoding="UTF-8"?>
<GeocodeResponse>
 <status>OK</status>
 <result>
  <type>locality</type>
  <type>political</type>
  <formatted_address>Palencia, Palencia, Spain</formatted_address>
  <address_component>
   <long_name>Palencia</long_name>
   <short_name>Palencia</short_name>
   <type>locality</type>
   <type>political</type>
  </address_component>
  <address_component>
   <long_name>Palencia</long_name>
   <short_name>Palencia</short_name>
   <type>administrative_area_level_4</type>
   <type>political</type>
  </address_component>
  <address_component>
   <long_name>Tierra de Campos</long_name>
   <short_name>Tierra de Campos</short_name>
   <type>administrative_area_level_3</type>
   <type>political</type>
  </address_component>
  <address_component>
   <long_name>Palencia</long_name>
   <short_name>Palencia</short_name>
   <type>administrative_area_level_2</type>
   <type>political</type>
  </address_component>
  <address_component>
   <long_name>Castile and Le칩n</long_name>
   <short_name>CL</short_name>
   <type>administrative_area_level_1</type>
   <type>political</type>
  </address_component>
  <address_component>
   <long_name>Spain</long_name>
   <short_name>ES</short_name>
   <type>country</type>
   <type>political</type>
  </address_component>
  <geometry>
   <location>
    <lat>42.0096857</lat>
    <lng>-4.5288016</lng>
   </location>
   <location_type>APPROXIMATE</location_type>
   <viewport>
    <southwest>
     <lat>41.9887128</lat>
     <lng>-4.5481221</lng>
    </southwest>
    <northeast>
     <lat>42.0289194</lat>
     <lng>-4.5057856</lng>
    </northeast>
   </viewport>
   <bounds>
    <southwest>
     <lat>41.9887128</lat>
     <lng>-4.5481221</lng>
    </southwest>
    <northeast>
     <lat>42.0289194</lat>
     <lng>-4.5057856</lng>
    </northeast>
   </bounds>
  </geometry>
  <place_id>ChIJERqRBcmxRw0R3aB5I3SIuZk</place_id>
 </result>
 <result>
  <type>locality</type>
  <type>political</type>
  <formatted_address>37799 Palencia de Negrilla, Salamanca, Spain</formatted_address>
  <address_component>
   <long_name>Palencia de Negrilla</long_name>
   <short_name>Palencia de Negrilla</short_name>
   <type>locality</type>
   <type>political</type>
  </address_component>
  <address_component>
   <long_name>Palencia de Negrilla</long_name>
   <short_name>Palencia de Negrilla</short_name>
   <type>administrative_area_level_4</type>
   <type>political</type>
  </address_component>
  <address_component>
   <long_name>La Armu침a</long_name>
   <short_name>La Armu침a</short_name>
   <type>administrative_area_level_3</type>
   <type>political</type>
  </address_component>
  <address_component>
   <long_name>Salamanca</long_name>
   <short_name>SA</short_name>
   <type>administrative_area_level_2</type>
   <type>political</type>
  </address_component>
  <address_component>
   <long_name>Castilla y Le칩n</long_name>
   <short_name>CL</short_name>
   <type>administrative_area_level_1</type>
   <type>political</type>
  </address_component>
  <address_component>
   <long_name>Spain</long_name>
   <short_name>ES</short_name>
   <type>country</type>
   <type>political</type>
  </address_component>
  <address_component>
   <long_name>37799</long_name>
   <short_name>37799</short_name>
   <type>postal_code</type>
  </address_component>
  <geometry>
   <location>
    <lat>41.0941655</lat>
    <lng>-5.6004627</lng>
   </location>
   <location_type>APPROXIMATE</location_type>
   <viewport>
    <southwest>
     <lat>41.0920745</lat>
     <lng>-5.6043006</lng>
    </southwest>
    <northeast>
     <lat>41.0969505</lat>
     <lng>-5.5962563</lng>
    </northeast>
   </viewport>
   <bounds>
    <southwest>
     <lat>41.0920745</lat>
     <lng>-5.6043006</lng>
    </southwest>
    <northeast>
     <lat>41.0969505</lat>
     <lng>-5.5962563</lng>
    </northeast>
   </bounds>
  </geometry>
  <place_id>ChIJbbXWdrItPw0R7qxHzke5avg</place_id>
 </result>
</GeocodeResponse>
