<?xml version="1.0" encoding="UTF-8"?>
<GeocodeResponse>
 <status>OK</status>
 <result>
  <type>administrative_area_level_2</type>
  <type>political</type>
  <formatted_address>Bielsko County, Poland</formatted_address>
  <address_component>
   <long_name>Bielsko County</long_name>
   <short_name>Bielsko County</short_name>
   <type>administrative_area_level_2</type>
   <type>political</type>
  </address_component>
  <address_component>
   <long_name>Silesian Voivodeship</long_name>
   <short_name>Silesian Voivodeship</short_name>
   <type>administrative_area_level_1</type>
   <type>political</type>
  </address_component>
  <address_component>
   <long_name>Poland</long_name>
   <short_name>PL</short_name>
   <type>country</type>
   <type>political</type>
  </address_component>
  <geometry>
   <location>
    <lat>49.9080843</lat>
    <lng>19.0762110</lng>
   </location>
   <location_type>APPROXIMATE</location_type>
   <viewport>
    <southwest>
     <lat>49.6528334</lat>
     <lng>18.8255121</lng>
    </southwest>
    <northeast>
     <lat>49.9588976</lat>
     <lng>19.3166423</lng>
    </northeast>
   </viewport>
   <bounds>
    <southwest>
     <lat>49.6528334</lat>
     <lng>18.8255121</lng>
    </southwest>
    <northeast>
     <lat>49.9588976</lat>
     <lng>19.3166423</lng>
    </northeast>
   </bounds>
  </geometry>
  <place_id>ChIJO9FATQqfFkcRwNDkxa18AQM</place_id>
 </result>
 <result>
  <type>natural_feature</type>
  <type>establishment</type>
  <formatted_address>Bielski, Poland</formatted_address>
  <address_component>
   <long_name>Bielski</long_name>
   <short_name>Bielski</short_name>
   <type>natural_feature</type>
   <type>establishment</type>
  </address_component>
  <address_component>
   <long_name>częstochowski</long_name>
   <short_name>częstochowski</short_name>
   <type>administrative_area_level_2</type>
   <type>political</type>
  </address_component>
  <address_component>
   <long_name>śląskie</long_name>
   <short_name>śląskie</short_name>
   <type>administrative_area_level_1</type>
   <type>political</type>
  </address_component>
  <address_component>
   <long_name>Poland</long_name>
   <short_name>PL</short_name>
   <type>country</type>
   <type>political</type>
  </address_component>
  <geometry>
   <location>
    <lat>50.7103835</lat>
    <lng>19.6672939</lng>
   </location>
   <location_type>APPROXIMATE</location_type>
   <viewport>
    <southwest>
     <lat>50.7075672</lat>
     <lng>19.6648271</lng>
    </southwest>
    <northeast>
     <lat>50.7145905</lat>
     <lng>19.6738032</lng>
    </northeast>
   </viewport>
   <bounds>
    <southwest>
     <lat>50.7075672</lat>
     <lng>19.6648271</lng>
    </southwest>
    <northeast>
     <lat>50.7145905</lat>
     <lng>19.6738032</lng>
    </northeast>
   </bounds>
  </geometry>
  <place_id>ChIJrSOq1SRAF0cRvsxv1fnsRyU</place_id>
 </result>
 <result>
  <type>natural_feature</type>
  <type>establishment</type>
  <formatted_address>Bielski, Poland</formatted_address>
  <address_component>
   <long_name>Bielski</long_name>
   <short_name>Bielski</short_name>
   <type>natural_feature</type>
   <type>establishment</type>
  </address_component>
  <address_component>
   <long_name>częstochowski</long_name>
   <short_name>częstochowski</short_name>
   <type>administrative_area_level_2</type>
   <type>political</type>
  </address_component>
  <address_component>
   <long_name>śląskie</long_name>
   <short_name>śląskie</short_name>
   <type>administrative_area_level_1</type>
   <type>political</type>
  </address_component>
  <address_component>
   <long_name>Poland</long_name>
   <short_name>PL</short_name>
   <type>country</type>
   <type>political</type>
  </address_component>
  <geometry>
   <location>
    <lat>50.7122151</lat>
    <lng>19.6645404</lng>
   </location>
   <location_type>APPROXIMATE</location_type>
   <viewport>
    <southwest>
     <lat>50.7077987</lat>
     <lng>19.6582923</lng>
    </southwest>
    <northeast>
     <lat>50.7139024</lat>
     <lng>19.6671113</lng>
    </northeast>
   </viewport>
   <bounds>
    <southwest>
     <lat>50.7077987</lat>
     <lng>19.6582923</lng>
    </southwest>
    <northeast>
     <lat>50.7139024</lat>
     <lng>19.6671113</lng>
    </northeast>
   </bounds>
  </geometry>
  <place_id>ChIJ_U_Rpj5AF0cR2A0gw_EbJQ0</place_id>
 </result>
</GeocodeResponse>
