<?xml version="1.0" encoding="UTF-8"?>
<GeocodeResponse>
 <status>OK</status>
 <result>
  <type>premise</type>
  <formatted_address>Cumbria House, Gilwilly Rd, Penrith, Cumbria CA11 9FF, UK</formatted_address>
  <address_component>
   <long_name>Cumbria House</long_name>
   <short_name>Cumbria House</short_name>
   <type>premise</type>
  </address_component>
  <address_component>
   <long_name>Gilwilly Road</long_name>
   <short_name>Gilwilly Rd</short_name>
   <type>route</type>
  </address_component>
  <address_component>
   <long_name>Gilwilly Industrial Estate</long_name>
   <short_name>Gilwilly Industrial Estate</short_name>
   <type>sublocality_level_1</type>
   <type>sublocality</type>
   <type>political</type>
  </address_component>
  <address_component>
   <long_name>Penrith</long_name>
   <short_name>Penrith</short_name>
   <type>locality</type>
   <type>political</type>
  </address_component>
  <address_component>
   <long_name>Penrith</long_name>
   <short_name>Penrith</short_name>
   <type>postal_town</type>
  </address_component>
  <address_component>
   <long_name>Cumbria</long_name>
   <short_name>Cumbria</short_name>
   <type>administrative_area_level_2</type>
   <type>political</type>
  </address_component>
  <address_component>
   <long_name>United Kingdom</long_name>
   <short_name>GB</short_name>
   <type>country</type>
   <type>political</type>
  </address_component>
  <address_component>
   <long_name>CA11 9FF</long_name>
   <short_name>CA11 9FF</short_name>
   <type>postal_code</type>
  </address_component>
  <geometry>
   <location>
    <lat>54.6650719</lat>
    <lng>-2.7662903</lng>
   </location>
   <location_type>ROOFTOP</location_type>
   <viewport>
    <southwest>
     <lat>54.6637229</lat>
     <lng>-2.7676393</lng>
    </southwest>
    <northeast>
     <lat>54.6664209</lat>
     <lng>-2.7649413</lng>
    </northeast>
   </viewport>
   <bounds>
    <southwest>
     <lat>54.6649128</lat>
     <lng>-2.7665469</lng>
    </southwest>
    <northeast>
     <lat>54.6652310</lat>
     <lng>-2.7660337</lng>
    </northeast>
   </bounds>
  </geometry>
  <partial_match>true</partial_match>
  <place_id>ChIJ_2fapGL7fEgRtCTOgakdf4k</place_id>
 </result>
 <result>
  <type>premise</type>
  <formatted_address>Cumbria House, 16A Murray Rd, Workington, Cumbria CA14, UK</formatted_address>
  <address_component>
   <long_name>Cumbria House</long_name>
   <short_name>Cumbria House</short_name>
   <type>premise</type>
  </address_component>
  <address_component>
   <long_name>16A</long_name>
   <short_name>16A</short_name>
   <type>street_number</type>
  </address_component>
  <address_component>
   <long_name>Murray Road</long_name>
   <short_name>Murray Rd</short_name>
   <type>route</type>
  </address_component>
  <address_component>
   <long_name>Workington</long_name>
   <short_name>Workington</short_name>
   <type>locality</type>
   <type>political</type>
  </address_component>
  <address_component>
   <long_name>Workington</long_name>
   <short_name>Workington</short_name>
   <type>postal_town</type>
  </address_component>
  <address_component>
   <long_name>Cumbria</long_name>
   <short_name>Cumbria</short_name>
   <type>administrative_area_level_2</type>
   <type>political</type>
  </address_component>
  <address_component>
   <long_name>United Kingdom</long_name>
   <short_name>GB</short_name>
   <type>country</type>
   <type>political</type>
  </address_component>
  <address_component>
   <long_name>CA14</long_name>
   <short_name>CA14</short_name>
   <type>postal_code_prefix</type>
   <type>postal_code</type>
  </address_component>
  <geometry>
   <location>
    <lat>54.6438082</lat>
    <lng>-3.5477732</lng>
   </location>
   <location_type>ROOFTOP</location_type>
   <viewport>
    <southwest>
     <lat>54.6424592</lat>
     <lng>-3.5491222</lng>
    </southwest>
    <northeast>
     <lat>54.6451572</lat>
     <lng>-3.5464243</lng>
    </northeast>
   </viewport>
   <bounds>
    <southwest>
     <lat>54.6437309</lat>
     <lng>-3.5478771</lng>
    </southwest>
    <northeast>
     <lat>54.6438855</lat>
     <lng>-3.5476694</lng>
    </northeast>
   </bounds>
  </geometry>
  <partial_match>true</partial_match>
  <place_id>ChIJ59labHYsY0gRgtb21hEEsOg</place_id>
 </result>
 <result>
  <type>route</type>
  <formatted_address>Cumbria Way, Keswick, Cumbria CA12 4SG, UK</formatted_address>
  <address_component>
   <long_name>Cumbria Way</long_name>
   <short_name>Cumbria Way</short_name>
   <type>route</type>
  </address_component>
  <address_component>
   <long_name>Keswick</long_name>
   <short_name>Keswick</short_name>
   <type>postal_town</type>
  </address_component>
  <address_component>
   <long_name>Cumbria</long_name>
   <short_name>Cumbria</short_name>
   <type>administrative_area_level_2</type>
   <type>political</type>
  </address_component>
  <address_component>
   <long_name>United Kingdom</long_name>
   <short_name>GB</short_name>
   <type>country</type>
   <type>political</type>
  </address_component>
  <address_component>
   <long_name>CA12 4SG</long_name>
   <short_name>CA12 4SG</short_name>
   <type>postal_code</type>
  </address_component>
  <geometry>
   <location>
    <lat>54.6639348</lat>
    <lng>-3.0896258</lng>
   </location>
   <location_type>GEOMETRIC_CENTER</location_type>
   <viewport>
    <southwest>
     <lat>54.6522141</lat>
     <lng>-3.1065136</lng>
    </southwest>
    <northeast>
     <lat>54.6731058</lat>
     <lng>-3.0654842</lng>
    </northeast>
   </viewport>
   <bounds>
    <southwest>
     <lat>54.6522141</lat>
     <lng>-3.1065136</lng>
    </southwest>
    <northeast>
     <lat>54.6731058</lat>
     <lng>-3.0654842</lng>
    </northeast>
   </bounds>
  </geometry>
  <partial_match>true</partial_match>
  <place_id>ChIJf6ExxIDefEgReQqTryCzaUk</place_id>
 </result>
 <result>
  <type>premise</type>
  <formatted_address>Cumbria House, Workington, Workington, Cumbria CA14, UK</formatted_address>
  <address_component>
   <long_name>Cumbria House</long_name>
   <short_name>Cumbria House</short_name>
   <type>premise</type>
  </address_component>
  <address_component>
   <long_name>Workington</long_name>
   <short_name>Workington</short_name>
   <type>locality</type>
   <type>political</type>
  </address_component>
  <address_component>
   <long_name>Workington</long_name>
   <short_name>Workington</short_name>
   <type>postal_town</type>
  </address_component>
  <address_component>
   <long_name>Cumbria</long_name>
   <short_name>Cumbria</short_name>
   <type>administrative_area_level_2</type>
   <type>political</type>
  </address_component>
  <address_component>
   <long_name>United Kingdom</long_name>
   <short_name>GB</short_name>
   <type>country</type>
   <type>political</type>
  </address_component>
  <address_component>
   <long_name>CA14</long_name>
   <short_name>CA14</short_name>
   <type>postal_code_prefix</type>
   <type>postal_code</type>
  </address_component>
  <geometry>
   <location>
    <lat>54.6430644</lat>
    <lng>-3.5485016</lng>
   </location>
   <location_type>ROOFTOP</location_type>
   <viewport>
    <southwest>
     <lat>54.6417279</lat>
     <lng>-3.5498431</lng>
    </southwest>
    <northeast>
     <lat>54.6444259</lat>
     <lng>-3.5471452</lng>
    </northeast>
   </viewport>
   <bounds>
    <southwest>
     <lat>54.6430151</lat>
     <lng>-3.5485703</lng>
    </southwest>
    <northeast>
     <lat>54.6431387</lat>
     <lng>-3.5484180</lng>
    </northeast>
   </bounds>
  </geometry>
  <partial_match>true</partial_match>
  <place_id>ChIJ-e5WeXYsY0gRvV1rKUgra9E</place_id>
 </result>
 <result>
  <type>route</type>
  <formatted_address>Cumbria Way, Keswick, Cumbria CA12 5RA, UK</formatted_address>
  <address_component>
   <long_name>Cumbria Way</long_name>
   <short_name>Cumbria Way</short_name>
   <type>route</type>
  </address_component>
  <address_component>
   <long_name>Keswick</long_name>
   <short_name>Keswick</short_name>
   <type>postal_town</type>
  </address_component>
  <address_component>
   <long_name>Cumbria</long_name>
   <short_name>Cumbria</short_name>
   <type>administrative_area_level_2</type>
   <type>political</type>
  </address_component>
  <address_component>
   <long_name>United Kingdom</long_name>
   <short_name>GB</short_name>
   <type>country</type>
   <type>political</type>
  </address_component>
  <address_component>
   <long_name>CA12 5RA</long_name>
   <short_name>CA12 5RA</short_name>
   <type>postal_code</type>
  </address_component>
  <geometry>
   <location>
    <lat>54.6042313</lat>
    <lng>-3.1481085</lng>
   </location>
   <location_type>GEOMETRIC_CENTER</location_type>
   <viewport>
    <southwest>
     <lat>54.6026764</lat>
     <lng>-3.1553360</lng>
    </southwest>
    <northeast>
     <lat>54.6053744</lat>
     <lng>-3.1434571</lng>
    </northeast>
   </viewport>
   <bounds>
    <southwest>
     <lat>54.6032048</lat>
     <lng>-3.1553360</lng>
    </southwest>
    <northeast>
     <lat>54.6048460</lat>
     <lng>-3.1434571</lng>
    </northeast>
   </bounds>
  </geometry>
  <partial_match>true</partial_match>
  <place_id>ChIJZ0brVnDbfEgRgQwAFgRL7V0</place_id>
 </result>
 <result>
  <type>premise</type>
  <formatted_address>Cumbria Lodge, Cumbria Place, Bishop Auckland, County Durham DL14 6TJ, UK</formatted_address>
  <address_component>
   <long_name>Cumbria Lodge</long_name>
   <short_name>Cumbria Lodge</short_name>
   <type>premise</type>
  </address_component>
  <address_component>
   <long_name>Cumbria Place</long_name>
   <short_name>Cumbria Place</short_name>
   <type>locality</type>
   <type>political</type>
  </address_component>
  <address_component>
   <long_name>Bishop Auckland</long_name>
   <short_name>Bishop Auckland</short_name>
   <type>postal_town</type>
  </address_component>
  <address_component>
   <long_name>County Durham</long_name>
   <short_name>County Durham</short_name>
   <type>administrative_area_level_2</type>
   <type>political</type>
  </address_component>
  <address_component>
   <long_name>United Kingdom</long_name>
   <short_name>GB</short_name>
   <type>country</type>
   <type>political</type>
  </address_component>
  <address_component>
   <long_name>DL14 6TJ</long_name>
   <short_name>DL14 6TJ</short_name>
   <type>postal_code</type>
  </address_component>
  <geometry>
   <location>
    <lat>54.6494251</lat>
    <lng>-1.6752342</lng>
   </location>
   <location_type>ROOFTOP</location_type>
   <viewport>
    <southwest>
     <lat>54.6480931</lat>
     <lng>-1.6765925</lng>
    </southwest>
    <northeast>
     <lat>54.6507911</lat>
     <lng>-1.6738945</lng>
    </northeast>
   </viewport>
   <bounds>
    <southwest>
     <lat>54.6493689</lat>
     <lng>-1.6753395</lng>
    </southwest>
    <northeast>
     <lat>54.6495153</lat>
     <lng>-1.6751475</lng>
    </northeast>
   </bounds>
  </geometry>
  <partial_match>true</partial_match>
  <place_id>ChIJ8YSVh1uCfkgRKilhhmej2WY</place_id>
 </result>
</GeocodeResponse>
