<?xml version="1.0" encoding="UTF-8"?>
<GeocodeResponse>
 <status>OK</status>
 <result>
  <type>locality</type>
  <type>political</type>
  <formatted_address>85052 Santino Sud PZ, Italy</formatted_address>
  <address_component>
   <long_name>Santino Sud</long_name>
   <short_name>Santino Sud</short_name>
   <type>locality</type>
   <type>political</type>
  </address_component>
  <address_component>
   <long_name>Marsico Nuovo</long_name>
   <short_name>Marsico Nuovo</short_name>
   <type>administrative_area_level_3</type>
   <type>political</type>
  </address_component>
  <address_component>
   <long_name>Provincia di Potenza</long_name>
   <short_name>PZ</short_name>
   <type>administrative_area_level_2</type>
   <type>political</type>
  </address_component>
  <address_component>
   <long_name>Basilicata</long_name>
   <short_name>Basilicata</short_name>
   <type>administrative_area_level_1</type>
   <type>political</type>
  </address_component>
  <address_component>
   <long_name>Italy</long_name>
   <short_name>IT</short_name>
   <type>country</type>
   <type>political</type>
  </address_component>
  <address_component>
   <long_name>85052</long_name>
   <short_name>85052</short_name>
   <type>postal_code</type>
  </address_component>
  <geometry>
   <location>
    <lat>40.3964754</lat>
    <lng>15.7279655</lng>
   </location>
   <location_type>APPROXIMATE</location_type>
   <viewport>
    <southwest>
     <lat>40.3952770</lat>
     <lng>15.7267071</lng>
    </southwest>
    <northeast>
     <lat>40.3979750</lat>
     <lng>15.7301478</lng>
    </northeast>
   </viewport>
   <bounds>
    <southwest>
     <lat>40.3953594</lat>
     <lng>15.7267071</lng>
    </southwest>
    <northeast>
     <lat>40.3978926</lat>
     <lng>15.7301478</lng>
    </northeast>
   </bounds>
  </geometry>
  <partial_match>true</partial_match>
  <place_id>ChIJ-QtxiVYmORMRCN03h7nnuBE</place_id>
 </result>
 <result>
  <type>route</type>
  <formatted_address>Via Basilicata, 30034 Mira VE, Italy</formatted_address>
  <address_component>
   <long_name>Via Basilicata</long_name>
   <short_name>Via Basilicata</short_name>
   <type>route</type>
  </address_component>
  <address_component>
   <long_name>Mira</long_name>
   <short_name>Mira</short_name>
   <type>locality</type>
   <type>political</type>
  </address_component>
  <address_component>
   <long_name>Mira</long_name>
   <short_name>Mira</short_name>
   <type>administrative_area_level_3</type>
   <type>political</type>
  </address_component>
  <address_component>
   <long_name>Città Metropolitana di Venezia</long_name>
   <short_name>VE</short_name>
   <type>administrative_area_level_2</type>
   <type>political</type>
  </address_component>
  <address_component>
   <long_name>Veneto</long_name>
   <short_name>Veneto</short_name>
   <type>administrative_area_level_1</type>
   <type>political</type>
  </address_component>
  <address_component>
   <long_name>Italy</long_name>
   <short_name>IT</short_name>
   <type>country</type>
   <type>political</type>
  </address_component>
  <address_component>
   <long_name>30034</long_name>
   <short_name>30034</short_name>
   <type>postal_code</type>
  </address_component>
  <geometry>
   <location>
    <lat>45.4591064</lat>
    <lng>12.1738798</lng>
   </location>
   <location_type>GEOMETRIC_CENTER</location_type>
   <viewport>
    <southwest>
     <lat>45.4579654</lat>
     <lng>12.1723545</lng>
    </southwest>
    <northeast>
     <lat>45.4606634</lat>
     <lng>12.1750525</lng>
    </northeast>
   </viewport>
   <bounds>
    <southwest>
     <lat>45.4589281</lat>
     <lng>12.1728100</lng>
    </southwest>
    <northeast>
     <lat>45.4597007</lat>
     <lng>12.1745970</lng>
    </northeast>
   </bounds>
  </geometry>
  <partial_match>true</partial_match>
  <place_id>ChIJFcNxKDy2fkcR7_XLNtsZlhA</place_id>
 </result>
 <result>
  <type>route</type>
  <formatted_address>Via Basilicata, 03020 Madonna del Piano FR, Italy</formatted_address>
  <address_component>
   <long_name>Via Basilicata</long_name>
   <short_name>Via Basilicata</short_name>
   <type>route</type>
  </address_component>
  <address_component>
   <long_name>Madonna del Piano</long_name>
   <short_name>Madonna del Piano</short_name>
   <type>locality</type>
   <type>political</type>
  </address_component>
  <address_component>
   <long_name>Castro dei Volsci</long_name>
   <short_name>Castro dei Volsci</short_name>
   <type>administrative_area_level_3</type>
   <type>political</type>
  </address_component>
  <address_component>
   <long_name>Provincia di Frosinone</long_name>
   <short_name>FR</short_name>
   <type>administrative_area_level_2</type>
   <type>political</type>
  </address_component>
  <address_component>
   <long_name>Lazio</long_name>
   <short_name>Lazio</short_name>
   <type>administrative_area_level_1</type>
   <type>political</type>
  </address_component>
  <address_component>
   <long_name>Italy</long_name>
   <short_name>IT</short_name>
   <type>country</type>
   <type>political</type>
  </address_component>
  <address_component>
   <long_name>03020</long_name>
   <short_name>03020</short_name>
   <type>postal_code</type>
  </address_component>
  <geometry>
   <location>
    <lat>41.5209869</lat>
    <lng>13.4089936</lng>
   </location>
   <location_type>GEOMETRIC_CENTER</location_type>
   <viewport>
    <southwest>
     <lat>41.5197901</lat>
     <lng>13.4075160</lng>
    </southwest>
    <northeast>
     <lat>41.5224881</lat>
     <lng>13.4104500</lng>
    </northeast>
   </viewport>
   <bounds>
    <southwest>
     <lat>41.5207461</lat>
     <lng>13.4075160</lng>
    </southwest>
    <northeast>
     <lat>41.5215321</lat>
     <lng>13.4104500</lng>
    </northeast>
   </bounds>
  </geometry>
  <partial_match>true</partial_match>
  <place_id>ChIJ8claqylJJRMR2cjdh_CEjQ8</place_id>
 </result>
 <result>
  <type>route</type>
  <formatted_address>Via Basilicata, 27029 Vigevano PV, Italy</formatted_address>
  <address_component>
   <long_name>Via Basilicata</long_name>
   <short_name>Via Basilicata</short_name>
   <type>route</type>
  </address_component>
  <address_component>
   <long_name>Vigevano</long_name>
   <short_name>Vigevano</short_name>
   <type>locality</type>
   <type>political</type>
  </address_component>
  <address_component>
   <long_name>Vigevano</long_name>
   <short_name>Vigevano</short_name>
   <type>administrative_area_level_3</type>
   <type>political</type>
  </address_component>
  <address_component>
   <long_name>Provincia di Pavia</long_name>
   <short_name>PV</short_name>
   <type>administrative_area_level_2</type>
   <type>political</type>
  </address_component>
  <address_component>
   <long_name>Lombardia</long_name>
   <short_name>Lombardia</short_name>
   <type>administrative_area_level_1</type>
   <type>political</type>
  </address_component>
  <address_component>
   <long_name>Italy</long_name>
   <short_name>IT</short_name>
   <type>country</type>
   <type>political</type>
  </address_component>
  <address_component>
   <long_name>27029</long_name>
   <short_name>27029</short_name>
   <type>postal_code</type>
  </address_component>
  <geometry>
   <location>
    <lat>45.3230607</lat>
    <lng>8.8807942</lng>
   </location>
   <location_type>GEOMETRIC_CENTER</location_type>
   <viewport>
    <southwest>
     <lat>45.3220358</lat>
     <lng>8.8793196</lng>
    </southwest>
    <northeast>
     <lat>45.3247338</lat>
     <lng>8.8820176</lng>
    </northeast>
   </viewport>
   <bounds>
    <southwest>
     <lat>45.3228500</lat>
     <lng>8.8803673</lng>
    </southwest>
    <northeast>
     <lat>45.3239196</lat>
     <lng>8.8809699</lng>
    </northeast>
   </bounds>
  </geometry>
  <partial_match>true</partial_match>
  <place_id>ChIJ2eW8-1zjhkcRMirhqAw0Pgk</place_id>
 </result>
 <result>
  <type>route</type>
  <formatted_address>Piazza Basilicata, 10137 Torino, Italy</formatted_address>
  <address_component>
   <long_name>Piazza Basilicata</long_name>
   <short_name>Piazza Basilicata</short_name>
   <type>route</type>
  </address_component>
  <address_component>
   <long_name>Torino</long_name>
   <short_name>Torino</short_name>
   <type>locality</type>
   <type>political</type>
  </address_component>
  <address_component>
   <long_name>Turin</long_name>
   <short_name>Turin</short_name>
   <type>administrative_area_level_3</type>
   <type>political</type>
  </address_component>
  <address_component>
   <long_name>Città Metropolitana di Torino</long_name>
   <short_name>TO</short_name>
   <type>administrative_area_level_2</type>
   <type>political</type>
  </address_component>
  <address_component>
   <long_name>Piemonte</long_name>
   <short_name>Piemonte</short_name>
   <type>administrative_area_level_1</type>
   <type>political</type>
  </address_component>
  <address_component>
   <long_name>Italy</long_name>
   <short_name>IT</short_name>
   <type>country</type>
   <type>political</type>
  </address_component>
  <address_component>
   <long_name>10137</long_name>
   <short_name>10137</short_name>
   <type>postal_code</type>
  </address_component>
  <geometry>
   <location>
    <lat>45.0462401</lat>
    <lng>7.6311174</lng>
   </location>
   <location_type>GEOMETRIC_CENTER</location_type>
   <viewport>
    <southwest>
     <lat>45.0452322</lat>
     <lng>7.6297580</lng>
    </southwest>
    <northeast>
     <lat>45.0479301</lat>
     <lng>7.6324559</lng>
    </northeast>
   </viewport>
   <bounds>
    <southwest>
     <lat>45.0462401</lat>
     <lng>7.6310402</lng>
    </southwest>
    <northeast>
     <lat>45.0469222</lat>
     <lng>7.6311737</lng>
    </northeast>
   </bounds>
  </geometry>
  <partial_match>true</partial_match>
  <place_id>ChIJj6AdhMxsiEcRmSbLP0UO7NU</place_id>
 </result>
</GeocodeResponse>
