<?xml version="1.0" encoding="UTF-8"?>
<GeocodeResponse>
 <status>OK</status>
 <result>
  <type>locality</type>
  <type>political</type>
  <formatted_address>Dendermonde, Belgium</formatted_address>
  <address_component>
   <long_name>Dendermonde</long_name>
   <short_name>Dendermonde</short_name>
   <type>locality</type>
   <type>political</type>
  </address_component>
  <address_component>
   <long_name>East Flanders</long_name>
   <short_name>OV</short_name>
   <type>administrative_area_level_2</type>
   <type>political</type>
  </address_component>
  <address_component>
   <long_name>Flanders</long_name>
   <short_name>Flanders</short_name>
   <type>administrative_area_level_1</type>
   <type>political</type>
  </address_component>
  <address_component>
   <long_name>Belgium</long_name>
   <short_name>BE</short_name>
   <type>country</type>
   <type>political</type>
  </address_component>
  <geometry>
   <location>
    <lat>51.0254770</lat>
    <lng>4.1019516</lng>
   </location>
   <location_type>APPROXIMATE</location_type>
   <viewport>
    <southwest>
     <lat>50.9851400</lat>
     <lng>3.9965500</lng>
    </southwest>
    <northeast>
     <lat>51.0724000</lat>
     <lng>4.1938900</lng>
    </northeast>
   </viewport>
   <bounds>
    <southwest>
     <lat>50.9851400</lat>
     <lng>3.9965500</lng>
    </southwest>
    <northeast>
     <lat>51.0724000</lat>
     <lng>4.1938900</lng>
    </northeast>
   </bounds>
  </geometry>
  <partial_match>true</partial_match>
  <place_id>ChIJX2LQFTCRw0cRDShcjZdlqwY</place_id>
 </result>
 <result>
  <type>sublocality_level_1</type>
  <type>sublocality</type>
  <type>political</type>
  <formatted_address>Dendermonde, 9200 Dendermonde, Belgium</formatted_address>
  <address_component>
   <long_name>Dendermonde</long_name>
   <short_name>Dendermonde</short_name>
   <type>sublocality_level_1</type>
   <type>sublocality</type>
   <type>political</type>
  </address_component>
  <address_component>
   <long_name>Dendermonde</long_name>
   <short_name>Dendermonde</short_name>
   <type>locality</type>
   <type>political</type>
  </address_component>
  <address_component>
   <long_name>Oost-Vlaanderen</long_name>
   <short_name>OV</short_name>
   <type>administrative_area_level_2</type>
   <type>political</type>
  </address_component>
  <address_component>
   <long_name>Vlaanderen</long_name>
   <short_name>Vlaanderen</short_name>
   <type>administrative_area_level_1</type>
   <type>political</type>
  </address_component>
  <address_component>
   <long_name>Belgium</long_name>
   <short_name>BE</short_name>
   <type>country</type>
   <type>political</type>
  </address_component>
  <address_component>
   <long_name>9200</long_name>
   <short_name>9200</short_name>
   <type>postal_code</type>
  </address_component>
  <geometry>
   <location>
    <lat>51.0254867</lat>
    <lng>4.1019931</lng>
   </location>
   <location_type>APPROXIMATE</location_type>
   <viewport>
    <southwest>
     <lat>51.0241377</lat>
     <lng>4.1006441</lng>
    </southwest>
    <northeast>
     <lat>51.0268357</lat>
     <lng>4.1033421</lng>
    </northeast>
   </viewport>
  </geometry>
  <partial_match>true</partial_match>
  <place_id>ChIJTc8BvdeQw0cR6Lj8NnfaOac</place_id>
 </result>
</GeocodeResponse>
