<?xml version="1.0" encoding="UTF-8"?>
<GeocodeResponse>
 <status>OK</status>
 <result>
  <type>locality</type>
  <type>political</type>
  <formatted_address>Belfast, Belfast, Belfast, UK</formatted_address>
  <address_component>
   <long_name>Belfast</long_name>
   <short_name>Belfast</short_name>
   <type>locality</type>
   <type>political</type>
  </address_component>
  <address_component>
   <long_name>Belfast</long_name>
   <short_name>Belfast</short_name>
   <type>postal_town</type>
  </address_component>
  <address_component>
   <long_name>Belfast</long_name>
   <short_name>Belfast</short_name>
   <type>administrative_area_level_2</type>
   <type>political</type>
  </address_component>
  <address_component>
   <long_name>Northern Ireland</long_name>
   <short_name>Northern Ireland</short_name>
   <type>administrative_area_level_1</type>
   <type>political</type>
  </address_component>
  <address_component>
   <long_name>United Kingdom</long_name>
   <short_name>GB</short_name>
   <type>country</type>
   <type>political</type>
  </address_component>
  <geometry>
   <location>
    <lat>54.5972850</lat>
    <lng>-5.9301200</lng>
   </location>
   <location_type>APPROXIMATE</location_type>
   <viewport>
    <southwest>
     <lat>54.5305500</lat>
     <lng>-6.0452601</lng>
    </southwest>
    <northeast>
     <lat>54.6592100</lat>
     <lng>-5.8080046</lng>
    </northeast>
   </viewport>
   <bounds>
    <southwest>
     <lat>54.5305500</lat>
     <lng>-6.0452601</lng>
    </southwest>
    <northeast>
     <lat>54.6592100</lat>
     <lng>-5.8080046</lng>
    </northeast>
   </bounds>
  </geometry>
  <place_id>ChIJO4rQ1_3_YEgRMcXH7ywWVy4</place_id>
 </result>
 <result>
  <type>locality</type>
  <type>political</type>
  <formatted_address>Belfast, ME 04915, USA</formatted_address>
  <address_component>
   <long_name>Belfast</long_name>
   <short_name>Belfast</short_name>
   <type>locality</type>
   <type>political</type>
  </address_component>
  <address_component>
   <long_name>Waldo County</long_name>
   <short_name>Waldo County</short_name>
   <type>administrative_area_level_2</type>
   <type>political</type>
  </address_component>
  <address_component>
   <long_name>Maine</long_name>
   <short_name>ME</short_name>
   <type>administrative_area_level_1</type>
   <type>political</type>
  </address_component>
  <address_component>
   <long_name>United States</long_name>
   <short_name>US</short_name>
   <type>country</type>
   <type>political</type>
  </address_component>
  <address_component>
   <long_name>04915</long_name>
   <short_name>04915</short_name>
   <type>postal_code</type>
  </address_component>
  <geometry>
   <location>
    <lat>44.4259092</lat>
    <lng>-69.0064234</lng>
   </location>
   <location_type>APPROXIMATE</location_type>
   <viewport>
    <southwest>
     <lat>44.3673490</lat>
     <lng>-69.1181911</lng>
    </southwest>
    <northeast>
     <lat>44.4920211</lat>
     <lng>-68.9552639</lng>
    </northeast>
   </viewport>
   <bounds>
    <southwest>
     <lat>44.3673490</lat>
     <lng>-69.1181911</lng>
    </southwest>
    <northeast>
     <lat>44.4920211</lat>
     <lng>-68.9552639</lng>
    </northeast>
   </bounds>
  </geometry>
  <place_id>ChIJ3dbGM0NurkwR05HCJe8-o58</place_id>
 </result>
</GeocodeResponse>
