<?xml version="1.0" encoding="UTF-8"?>
<GeocodeResponse>
 <status>OK</status>
 <result>
  <type>route</type>
  <formatted_address>Anadolu Uygarlıkları Park İç Yolu, 58070 İmaret/Sivas Merkez/Sivas, Turkey</formatted_address>
  <address_component>
   <long_name>Anadolu Uygarlıkları Park İç Yolu</long_name>
   <short_name>Anadolu Uygarlıkları Park İç Yolu</short_name>
   <type>route</type>
  </address_component>
  <address_component>
   <long_name>İmaret Köyü</long_name>
   <short_name>İmaret</short_name>
   <type>administrative_area_level_3</type>
   <type>political</type>
  </address_component>
  <address_component>
   <long_name>Sivas Merkez</long_name>
   <short_name>Sivas Merkez</short_name>
   <type>administrative_area_level_2</type>
   <type>political</type>
  </address_component>
  <address_component>
   <long_name>Sivas</long_name>
   <short_name>Sivas</short_name>
   <type>administrative_area_level_1</type>
   <type>political</type>
  </address_component>
  <address_component>
   <long_name>Turkey</long_name>
   <short_name>TR</short_name>
   <type>country</type>
   <type>political</type>
  </address_component>
  <address_component>
   <long_name>58070</long_name>
   <short_name>58070</short_name>
   <type>postal_code</type>
  </address_component>
  <geometry>
   <location>
    <lat>39.7071903</lat>
    <lng>37.0321292</lng>
   </location>
   <location_type>GEOMETRIC_CENTER</location_type>
   <viewport>
    <southwest>
     <lat>39.7059564</lat>
     <lng>37.0308101</lng>
    </southwest>
    <northeast>
     <lat>39.7086544</lat>
     <lng>37.0335080</lng>
    </northeast>
   </viewport>
   <bounds>
    <southwest>
     <lat>39.7065456</lat>
     <lng>37.0315200</lng>
    </southwest>
    <northeast>
     <lat>39.7080652</lat>
     <lng>37.0327981</lng>
    </northeast>
   </bounds>
  </geometry>
  <partial_match>true</partial_match>
  <place_id>ChIJNQnJUnxTeUARbyWjBaaWrx0</place_id>
 </result>
 <result>
  <type>route</type>
  <formatted_address>Evliya Çelebi, Piri Reis Denizcilik Anadolu Meslek Lisesi İç Yolu, 34944 Tuzla/İstanbul, Turkey</formatted_address>
  <address_component>
   <long_name>Piri Reis Denizcilik Anadolu Meslek Lisesi İç Yolu</long_name>
   <short_name>Piri Reis Denizcilik Anadolu Meslek Lisesi İç Yolu</short_name>
   <type>route</type>
  </address_component>
  <address_component>
   <long_name>Evliya Çelebi Mahallesi</long_name>
   <short_name>Evliya Çelebi</short_name>
   <type>administrative_area_level_4</type>
   <type>political</type>
  </address_component>
  <address_component>
   <long_name>Tuzla</long_name>
   <short_name>Tuzla</short_name>
   <type>administrative_area_level_2</type>
   <type>political</type>
  </address_component>
  <address_component>
   <long_name>İstanbul</long_name>
   <short_name>İstanbul</short_name>
   <type>administrative_area_level_1</type>
   <type>political</type>
  </address_component>
  <address_component>
   <long_name>Turkey</long_name>
   <short_name>TR</short_name>
   <type>country</type>
   <type>political</type>
  </address_component>
  <address_component>
   <long_name>34944</long_name>
   <short_name>34944</short_name>
   <type>postal_code</type>
  </address_component>
  <geometry>
   <location>
    <lat>40.8387678</lat>
    <lng>29.2960148</lng>
   </location>
   <location_type>GEOMETRIC_CENTER</location_type>
   <viewport>
    <southwest>
     <lat>40.8374890</lat>
     <lng>29.2948541</lng>
    </southwest>
    <northeast>
     <lat>40.8401870</lat>
     <lng>29.2975520</lng>
    </northeast>
   </viewport>
   <bounds>
    <southwest>
     <lat>40.8386965</lat>
     <lng>29.2957264</lng>
    </southwest>
    <northeast>
     <lat>40.8389795</lat>
     <lng>29.2966797</lng>
    </northeast>
   </bounds>
  </geometry>
  <partial_match>true</partial_match>
  <place_id>ChIJhZHpLUncyhQR7vFR4zfWYGg</place_id>
 </result>
</GeocodeResponse>
