<?xml version="1.0" encoding="UTF-8"?>
<GeocodeResponse>
 <status>OK</status>
 <result>
  <type>route</type>
  <formatted_address>Kayseri Cd., Sivas Merkez/Sivas, Turkey</formatted_address>
  <address_component>
   <long_name>Kayseri Caddesi</long_name>
   <short_name>Kayseri Cd.</short_name>
   <type>route</type>
  </address_component>
  <address_component>
   <long_name>Sivas Merkez</long_name>
   <short_name>Sivas Merkez</short_name>
   <type>administrative_area_level_2</type>
   <type>political</type>
  </address_component>
  <address_component>
   <long_name>Sivas</long_name>
   <short_name>Sivas</short_name>
   <type>administrative_area_level_1</type>
   <type>political</type>
  </address_component>
  <address_component>
   <long_name>Turkey</long_name>
   <short_name>TR</short_name>
   <type>country</type>
   <type>political</type>
  </address_component>
  <geometry>
   <location>
    <lat>39.7361298</lat>
    <lng>37.0156332</lng>
   </location>
   <location_type>GEOMETRIC_CENTER</location_type>
   <viewport>
    <southwest>
     <lat>39.7332061</lat>
     <lng>37.0142712</lng>
    </southwest>
    <northeast>
     <lat>39.7392460</lat>
     <lng>37.0169692</lng>
    </northeast>
   </viewport>
   <bounds>
    <southwest>
     <lat>39.7332061</lat>
     <lng>37.0149685</lng>
    </southwest>
    <northeast>
     <lat>39.7392460</lat>
     <lng>37.0162719</lng>
    </northeast>
   </bounds>
  </geometry>
  <partial_match>true</partial_match>
  <place_id>ChIJn4fWDjWrfkARkESsOZA13TU</place_id>
 </result>
 <result>
  <type>route</type>
  <formatted_address>Sivas Yolu, Kayseri, Turkey</formatted_address>
  <address_component>
   <long_name>Sivas Yolu</long_name>
   <short_name>Sivas Yolu</short_name>
   <type>route</type>
  </address_component>
  <address_component>
   <long_name>Kayseri</long_name>
   <short_name>Kayseri</short_name>
   <type>administrative_area_level_1</type>
   <type>political</type>
  </address_component>
  <address_component>
   <long_name>Turkey</long_name>
   <short_name>TR</short_name>
   <type>country</type>
   <type>political</type>
  </address_component>
  <geometry>
   <location>
    <lat>38.7901950</lat>
    <lng>35.5855590</lng>
   </location>
   <location_type>GEOMETRIC_CENTER</location_type>
   <viewport>
    <southwest>
     <lat>38.7841679</lat>
     <lng>35.5792553</lng>
    </southwest>
    <northeast>
     <lat>38.7960798</lat>
     <lng>35.5918488</lng>
    </northeast>
   </viewport>
   <bounds>
    <southwest>
     <lat>38.7841679</lat>
     <lng>35.5792553</lng>
    </southwest>
    <northeast>
     <lat>38.7960798</lat>
     <lng>35.5918488</lng>
    </northeast>
   </bounds>
  </geometry>
  <partial_match>true</partial_match>
  <place_id>ChIJ1zT0vtxBKxURFVr99di7Wjc</place_id>
 </result>
 <result>
  <type>route</type>
  <formatted_address>Sivas Cd., 38820 Sarıoğlan/Kayseri, Turkey</formatted_address>
  <address_component>
   <long_name>Sivas Caddesi</long_name>
   <short_name>Sivas Cd.</short_name>
   <type>route</type>
  </address_component>
  <address_component>
   <long_name>Sarıoğlan</long_name>
   <short_name>Sarıoğlan</short_name>
   <type>administrative_area_level_2</type>
   <type>political</type>
  </address_component>
  <address_component>
   <long_name>Kayseri</long_name>
   <short_name>Kayseri</short_name>
   <type>administrative_area_level_1</type>
   <type>political</type>
  </address_component>
  <address_component>
   <long_name>Turkey</long_name>
   <short_name>TR</short_name>
   <type>country</type>
   <type>political</type>
  </address_component>
  <address_component>
   <long_name>38820</long_name>
   <short_name>38820</short_name>
   <type>postal_code</type>
  </address_component>
  <geometry>
   <location>
    <lat>39.0699137</lat>
    <lng>35.9892475</lng>
   </location>
   <location_type>GEOMETRIC_CENTER</location_type>
   <viewport>
    <southwest>
     <lat>39.0656342</lat>
     <lng>35.9693274</lng>
    </southwest>
    <northeast>
     <lat>39.0762119</lat>
     <lng>36.0081093</lng>
    </northeast>
   </viewport>
   <bounds>
    <southwest>
     <lat>39.0656342</lat>
     <lng>35.9693274</lng>
    </southwest>
    <northeast>
     <lat>39.0762119</lat>
     <lng>36.0081093</lng>
    </northeast>
   </bounds>
  </geometry>
  <partial_match>true</partial_match>
  <place_id>ChIJl8o4ET9Tf0ARCHaVrK77Pjw</place_id>
 </result>
 <result>
  <type>route</type>
  <formatted_address>Kayseri Cd., 58840 Gemerek/Sivas, Turkey</formatted_address>
  <address_component>
   <long_name>Kayseri Caddesi</long_name>
   <short_name>Kayseri Cd.</short_name>
   <type>route</type>
  </address_component>
  <address_component>
   <long_name>Gemerek</long_name>
   <short_name>Gemerek</short_name>
   <type>administrative_area_level_2</type>
   <type>political</type>
  </address_component>
  <address_component>
   <long_name>Sivas</long_name>
   <short_name>Sivas</short_name>
   <type>administrative_area_level_1</type>
   <type>political</type>
  </address_component>
  <address_component>
   <long_name>Turkey</long_name>
   <short_name>TR</short_name>
   <type>country</type>
   <type>political</type>
  </address_component>
  <address_component>
   <long_name>58840</long_name>
   <short_name>58840</short_name>
   <type>postal_code</type>
  </address_component>
  <geometry>
   <location>
    <lat>39.1769346</lat>
    <lng>36.0754099</lng>
   </location>
   <location_type>GEOMETRIC_CENTER</location_type>
   <viewport>
    <southwest>
     <lat>39.1706763</lat>
     <lng>36.0672082</lng>
    </southwest>
    <northeast>
     <lat>39.1833181</lat>
     <lng>36.0835721</lng>
    </northeast>
   </viewport>
   <bounds>
    <southwest>
     <lat>39.1706763</lat>
     <lng>36.0672082</lng>
    </southwest>
    <northeast>
     <lat>39.1833181</lat>
     <lng>36.0835721</lng>
    </northeast>
   </bounds>
  </geometry>
  <partial_match>true</partial_match>
  <place_id>ChIJn0QC3JJLf0ARyscm6OkBpdM</place_id>
 </result>
 <result>
  <type>route</type>
  <formatted_address>Karşıyaka, Kayseri Cd., 58840 Eğerci/Gemerek/Sivas, Turkey</formatted_address>
  <address_component>
   <long_name>Kayseri Caddesi</long_name>
   <short_name>Kayseri Cd.</short_name>
   <type>route</type>
  </address_component>
  <address_component>
   <long_name>Karşıyaka Mahallesi</long_name>
   <short_name>Karşıyaka</short_name>
   <type>administrative_area_level_4</type>
   <type>political</type>
  </address_component>
  <address_component>
   <long_name>Eğerci Belediyesi</long_name>
   <short_name>Eğerci</short_name>
   <type>administrative_area_level_3</type>
   <type>political</type>
  </address_component>
  <address_component>
   <long_name>Gemerek</long_name>
   <short_name>Gemerek</short_name>
   <type>administrative_area_level_2</type>
   <type>political</type>
  </address_component>
  <address_component>
   <long_name>Sivas</long_name>
   <short_name>Sivas</short_name>
   <type>administrative_area_level_1</type>
   <type>political</type>
  </address_component>
  <address_component>
   <long_name>Turkey</long_name>
   <short_name>TR</short_name>
   <type>country</type>
   <type>political</type>
  </address_component>
  <address_component>
   <long_name>58840</long_name>
   <short_name>58840</short_name>
   <type>postal_code</type>
  </address_component>
  <geometry>
   <location>
    <lat>39.2341611</lat>
    <lng>35.9677802</lng>
   </location>
   <location_type>GEOMETRIC_CENTER</location_type>
   <viewport>
    <southwest>
     <lat>39.2318864</lat>
     <lng>35.9658334</lng>
    </southwest>
    <northeast>
     <lat>39.2364789</lat>
     <lng>35.9691813</lng>
    </northeast>
   </viewport>
   <bounds>
    <southwest>
     <lat>39.2318864</lat>
     <lng>35.9658334</lng>
    </southwest>
    <northeast>
     <lat>39.2364789</lat>
     <lng>35.9691813</lng>
    </northeast>
   </bounds>
  </geometry>
  <partial_match>true</partial_match>
  <place_id>ChIJ5V_W5jBGf0ARBtHJ5NwXO7I</place_id>
 </result>
 <result>
  <type>route</type>
  <formatted_address>Sivas Blv., Kayseri, Turkey</formatted_address>
  <address_component>
   <long_name>Sivas Bulvarı</long_name>
   <short_name>Sivas Blv.</short_name>
   <type>route</type>
  </address_component>
  <address_component>
   <long_name>Kayseri</long_name>
   <short_name>Kayseri</short_name>
   <type>administrative_area_level_1</type>
   <type>political</type>
  </address_component>
  <address_component>
   <long_name>Turkey</long_name>
   <short_name>TR</short_name>
   <type>country</type>
   <type>political</type>
  </address_component>
  <geometry>
   <location>
    <lat>38.7450346</lat>
    <lng>35.5446070</lng>
   </location>
   <location_type>GEOMETRIC_CENTER</location_type>
   <viewport>
    <southwest>
     <lat>38.7218840</lat>
     <lng>35.4891904</lng>
    </southwest>
    <northeast>
     <lat>38.7841682</lat>
     <lng>35.5795184</lng>
    </northeast>
   </viewport>
   <bounds>
    <southwest>
     <lat>38.7218840</lat>
     <lng>35.4891904</lng>
    </southwest>
    <northeast>
     <lat>38.7841682</lat>
     <lng>35.5795184</lng>
    </northeast>
   </bounds>
  </geometry>
  <partial_match>true</partial_match>
  <place_id>ChIJR7J2S20TKxURyQmFTGz_7tc</place_id>
 </result>
 <result>
  <type>route</type>
  <formatted_address>Kayseri Sivas Yolu, Turkey</formatted_address>
  <address_component>
   <long_name>Kayseri Sivas Yolu</long_name>
   <short_name>Kayseri Sivas Yolu</short_name>
   <type>route</type>
  </address_component>
  <address_component>
   <long_name>Turkey</long_name>
   <short_name>TR</short_name>
   <type>country</type>
   <type>political</type>
  </address_component>
  <geometry>
   <location>
    <lat>39.3437736</lat>
    <lng>36.3875063</lng>
   </location>
   <location_type>GEOMETRIC_CENTER</location_type>
   <viewport>
    <southwest>
     <lat>38.8567682</lat>
     <lng>35.6746601</lng>
    </southwest>
    <northeast>
     <lat>39.7102418</lat>
     <lng>37.2018352</lng>
    </northeast>
   </viewport>
   <bounds>
    <southwest>
     <lat>38.8567682</lat>
     <lng>35.6746601</lng>
    </southwest>
    <northeast>
     <lat>39.7102418</lat>
     <lng>37.2018352</lng>
    </northeast>
   </bounds>
  </geometry>
  <partial_match>true</partial_match>
  <place_id>ChIJL1Y7n0XOeEARVLh6yYn8XBU</place_id>
 </result>
</GeocodeResponse>
