<?xml version="1.0" encoding="UTF-8"?>
<GeocodeResponse>
 <status>OK</status>
 <result>
  <type>route</type>
  <formatted_address>Lansgatan, 212 28 Malmö, Sweden</formatted_address>
  <address_component>
   <long_name>Lansgatan</long_name>
   <short_name>Lansgatan</short_name>
   <type>route</type>
  </address_component>
  <address_component>
   <long_name>Kirseberg</long_name>
   <short_name>Kirseberg</short_name>
   <type>sublocality_level_1</type>
   <type>sublocality</type>
   <type>political</type>
  </address_component>
  <address_component>
   <long_name>Malmö</long_name>
   <short_name>Malmö</short_name>
   <type>locality</type>
   <type>political</type>
  </address_component>
  <address_component>
   <long_name>Malmö</long_name>
   <short_name>Malmö</short_name>
   <type>postal_town</type>
  </address_component>
  <address_component>
   <long_name>Skåne län</long_name>
   <short_name>Skåne län</short_name>
   <type>administrative_area_level_1</type>
   <type>political</type>
  </address_component>
  <address_component>
   <long_name>Sweden</long_name>
   <short_name>SE</short_name>
   <type>country</type>
   <type>political</type>
  </address_component>
  <address_component>
   <long_name>212 28</long_name>
   <short_name>212 28</short_name>
   <type>postal_code</type>
  </address_component>
  <geometry>
   <location>
    <lat>55.5972675</lat>
    <lng>13.0383669</lng>
   </location>
   <location_type>GEOMETRIC_CENTER</location_type>
   <viewport>
    <southwest>
     <lat>55.5958633</lat>
     <lng>13.0370249</lng>
    </southwest>
    <northeast>
     <lat>55.5985612</lat>
     <lng>13.0397229</lng>
    </northeast>
   </viewport>
   <bounds>
    <southwest>
     <lat>55.5963810</lat>
     <lng>13.0377234</lng>
    </southwest>
    <northeast>
     <lat>55.5980435</lat>
     <lng>13.0390244</lng>
    </northeast>
   </bounds>
  </geometry>
  <partial_match>true</partial_match>
  <place_id>ChIJaatPP32hU0YRtHVM0TvtWW0</place_id>
 </result>
 <result>
  <type>sublocality_level_1</type>
  <type>sublocality</type>
  <type>political</type>
  <formatted_address>Södra Eslöv, Eslöv, Sweden</formatted_address>
  <address_component>
   <long_name>Södra Eslöv</long_name>
   <short_name>Södra Eslöv</short_name>
   <type>sublocality_level_1</type>
   <type>sublocality</type>
   <type>political</type>
  </address_component>
  <address_component>
   <long_name>Eslöv</long_name>
   <short_name>Eslöv</short_name>
   <type>locality</type>
   <type>political</type>
  </address_component>
  <address_component>
   <long_name>Eslöv</long_name>
   <short_name>Eslöv</short_name>
   <type>administrative_area_level_2</type>
   <type>political</type>
  </address_component>
  <address_component>
   <long_name>Skåne County</long_name>
   <short_name>Skåne County</short_name>
   <type>administrative_area_level_1</type>
   <type>political</type>
  </address_component>
  <address_component>
   <long_name>Sweden</long_name>
   <short_name>SE</short_name>
   <type>country</type>
   <type>political</type>
  </address_component>
  <geometry>
   <location>
    <lat>55.8326626</lat>
    <lng>13.3039830</lng>
   </location>
   <location_type>APPROXIMATE</location_type>
   <viewport>
    <southwest>
     <lat>55.8206820</lat>
     <lng>13.2682741</lng>
    </southwest>
    <northeast>
     <lat>55.8493861</lat>
     <lng>13.3347121</lng>
    </northeast>
   </viewport>
   <bounds>
    <southwest>
     <lat>55.8206820</lat>
     <lng>13.2682741</lng>
    </southwest>
    <northeast>
     <lat>55.8493861</lat>
     <lng>13.3347121</lng>
    </northeast>
   </bounds>
  </geometry>
  <partial_match>true</partial_match>
  <place_id>ChIJV28ETimVU0YRmm5Y7-QLB1k</place_id>
 </result>
 <result>
  <type>sublocality_level_1</type>
  <type>sublocality</type>
  <type>political</type>
  <formatted_address>Södra Höganäs, Höganäs, Sweden</formatted_address>
  <address_component>
   <long_name>Södra Höganäs</long_name>
   <short_name>Södra Höganäs</short_name>
   <type>sublocality_level_1</type>
   <type>sublocality</type>
   <type>political</type>
  </address_component>
  <address_component>
   <long_name>Höganäs</long_name>
   <short_name>Höganäs</short_name>
   <type>locality</type>
   <type>political</type>
  </address_component>
  <address_component>
   <long_name>Höganäs</long_name>
   <short_name>Höganäs</short_name>
   <type>administrative_area_level_2</type>
   <type>political</type>
  </address_component>
  <address_component>
   <long_name>Skåne län</long_name>
   <short_name>Skåne län</short_name>
   <type>administrative_area_level_1</type>
   <type>political</type>
  </address_component>
  <address_component>
   <long_name>Sweden</long_name>
   <short_name>SE</short_name>
   <type>country</type>
   <type>political</type>
  </address_component>
  <geometry>
   <location>
    <lat>56.1967791</lat>
    <lng>12.5734497</lng>
   </location>
   <location_type>APPROXIMATE</location_type>
   <viewport>
    <southwest>
     <lat>56.1797020</lat>
     <lng>12.5375688</lng>
    </southwest>
    <northeast>
     <lat>56.2070609</lat>
     <lng>12.5996919</lng>
    </northeast>
   </viewport>
   <bounds>
    <southwest>
     <lat>56.1797020</lat>
     <lng>12.5375688</lng>
    </southwest>
    <northeast>
     <lat>56.2070609</lat>
     <lng>12.5996919</lng>
    </northeast>
   </bounds>
  </geometry>
  <partial_match>true</partial_match>
  <place_id>ChIJ1zuqRAomUkYRI8YqpdcMwtA</place_id>
 </result>
 <result>
  <type>locality</type>
  <type>political</type>
  <formatted_address>Södra Sandby, Sweden</formatted_address>
  <address_component>
   <long_name>Södra Sandby</long_name>
   <short_name>Södra Sandby</short_name>
   <type>locality</type>
   <type>political</type>
  </address_component>
  <address_component>
   <long_name>Lund</long_name>
   <short_name>Lund</short_name>
   <type>administrative_area_level_2</type>
   <type>political</type>
  </address_component>
  <address_component>
   <long_name>Skåne County</long_name>
   <short_name>Skåne County</short_name>
   <type>administrative_area_level_1</type>
   <type>political</type>
  </address_component>
  <address_component>
   <long_name>Sweden</long_name>
   <short_name>SE</short_name>
   <type>country</type>
   <type>political</type>
  </address_component>
  <geometry>
   <location>
    <lat>55.7168577</lat>
    <lng>13.3472310</lng>
   </location>
   <location_type>APPROXIMATE</location_type>
   <viewport>
    <southwest>
     <lat>55.7018072</lat>
     <lng>13.3141421</lng>
    </southwest>
    <northeast>
     <lat>55.7327583</lat>
     <lng>13.3723107</lng>
    </northeast>
   </viewport>
   <bounds>
    <southwest>
     <lat>55.7018072</lat>
     <lng>13.3141421</lng>
    </southwest>
    <northeast>
     <lat>55.7327583</lat>
     <lng>13.3723107</lng>
    </northeast>
   </bounds>
  </geometry>
  <partial_match>true</partial_match>
  <place_id>ChIJMWMzQAGOU0YRUXh-LxnDQzQ</place_id>
 </result>
 <result>
  <type>sublocality_level_1</type>
  <type>sublocality</type>
  <type>political</type>
  <formatted_address>Södra Sofielund, Malmö, Sweden</formatted_address>
  <address_component>
   <long_name>Södra Sofielund</long_name>
   <short_name>Södra Sofielund</short_name>
   <type>sublocality_level_1</type>
   <type>sublocality</type>
   <type>political</type>
  </address_component>
  <address_component>
   <long_name>Malmö</long_name>
   <short_name>Malmö</short_name>
   <type>locality</type>
   <type>political</type>
  </address_component>
  <address_component>
   <long_name>Malmö</long_name>
   <short_name>Malmö</short_name>
   <type>administrative_area_level_2</type>
   <type>political</type>
  </address_component>
  <address_component>
   <long_name>Skåne County</long_name>
   <short_name>Skåne County</short_name>
   <type>administrative_area_level_1</type>
   <type>political</type>
  </address_component>
  <address_component>
   <long_name>Sweden</long_name>
   <short_name>SE</short_name>
   <type>country</type>
   <type>political</type>
  </address_component>
  <geometry>
   <location>
    <lat>55.5836330</lat>
    <lng>13.0141961</lng>
   </location>
   <location_type>APPROXIMATE</location_type>
   <viewport>
    <southwest>
     <lat>55.5791790</lat>
     <lng>13.0060830</lng>
    </southwest>
    <northeast>
     <lat>55.5870730</lat>
     <lng>13.0203780</lng>
    </northeast>
   </viewport>
   <bounds>
    <southwest>
     <lat>55.5791790</lat>
     <lng>13.0060830</lng>
    </southwest>
    <northeast>
     <lat>55.5870730</lat>
     <lng>13.0203780</lng>
    </northeast>
   </bounds>
  </geometry>
  <partial_match>true</partial_match>
  <place_id>ChIJiwSADWqhU0YREQFhLnmQASY</place_id>
 </result>
 <result>
  <type>locality</type>
  <type>political</type>
  <formatted_address>231 97 Södra Åby, Sweden</formatted_address>
  <address_component>
   <long_name>Södra Åby</long_name>
   <short_name>Södra Åby</short_name>
   <type>locality</type>
   <type>political</type>
  </address_component>
  <address_component>
   <long_name>Klagstorp</long_name>
   <short_name>Klagstorp</short_name>
   <type>postal_town</type>
  </address_component>
  <address_component>
   <long_name>Trelleborg</long_name>
   <short_name>Trelleborg</short_name>
   <type>administrative_area_level_2</type>
   <type>political</type>
  </address_component>
  <address_component>
   <long_name>Skåne County</long_name>
   <short_name>Skåne County</short_name>
   <type>administrative_area_level_1</type>
   <type>political</type>
  </address_component>
  <address_component>
   <long_name>Sweden</long_name>
   <short_name>SE</short_name>
   <type>country</type>
   <type>political</type>
  </address_component>
  <address_component>
   <long_name>231 97</long_name>
   <short_name>231 97</short_name>
   <type>postal_code</type>
  </address_component>
  <geometry>
   <location>
    <lat>55.3858701</lat>
    <lng>13.3110834</lng>
   </location>
   <location_type>APPROXIMATE</location_type>
   <viewport>
    <southwest>
     <lat>55.3845211</lat>
     <lng>13.3097344</lng>
    </southwest>
    <northeast>
     <lat>55.3872191</lat>
     <lng>13.3124324</lng>
    </northeast>
   </viewport>
  </geometry>
  <partial_match>true</partial_match>
  <place_id>ChIJL9OZ3R56U0YRRZJwo6EWuUA</place_id>
 </result>
 <result>
  <type>locality</type>
  <type>political</type>
  <formatted_address>212 36 Södra Sallerup, Sweden</formatted_address>
  <address_component>
   <long_name>Södra Sallerup</long_name>
   <short_name>Södra Sallerup</short_name>
   <type>locality</type>
   <type>political</type>
  </address_component>
  <address_component>
   <long_name>Malmö</long_name>
   <short_name>Malmö</short_name>
   <type>postal_town</type>
  </address_component>
  <address_component>
   <long_name>Malmö</long_name>
   <short_name>Malmö</short_name>
   <type>administrative_area_level_2</type>
   <type>political</type>
  </address_component>
  <address_component>
   <long_name>Skåne County</long_name>
   <short_name>Skåne County</short_name>
   <type>administrative_area_level_1</type>
   <type>political</type>
  </address_component>
  <address_component>
   <long_name>Sweden</long_name>
   <short_name>SE</short_name>
   <type>country</type>
   <type>political</type>
  </address_component>
  <address_component>
   <long_name>212 36</long_name>
   <short_name>212 36</short_name>
   <type>postal_code</type>
  </address_component>
  <geometry>
   <location>
    <lat>55.5850014</lat>
    <lng>13.1188250</lng>
   </location>
   <location_type>APPROXIMATE</location_type>
   <viewport>
    <southwest>
     <lat>55.5836524</lat>
     <lng>13.1174760</lng>
    </southwest>
    <northeast>
     <lat>55.5863504</lat>
     <lng>13.1201740</lng>
    </northeast>
   </viewport>
  </geometry>
  <partial_match>true</partial_match>
  <place_id>ChIJL1JxpFafU0YRf6Z7fxW_wTE</place_id>
 </result>
 <result>
  <type>locality</type>
  <type>political</type>
  <formatted_address>277 35 Södra Mellby, Sweden</formatted_address>
  <address_component>
   <long_name>Södra Mellby</long_name>
   <short_name>Södra Mellby</short_name>
   <type>locality</type>
   <type>political</type>
  </address_component>
  <address_component>
   <long_name>Kivik</long_name>
   <short_name>Kivik</short_name>
   <type>postal_town</type>
  </address_component>
  <address_component>
   <long_name>Simrishamn</long_name>
   <short_name>Simrishamn</short_name>
   <type>administrative_area_level_2</type>
   <type>political</type>
  </address_component>
  <address_component>
   <long_name>Skåne County</long_name>
   <short_name>Skåne County</short_name>
   <type>administrative_area_level_1</type>
   <type>political</type>
  </address_component>
  <address_component>
   <long_name>Sweden</long_name>
   <short_name>SE</short_name>
   <type>country</type>
   <type>political</type>
  </address_component>
  <address_component>
   <long_name>277 35</long_name>
   <short_name>277 35</short_name>
   <type>postal_code</type>
  </address_component>
  <geometry>
   <location>
    <lat>55.6643180</lat>
    <lng>14.2184714</lng>
   </location>
   <location_type>APPROXIMATE</location_type>
   <viewport>
    <southwest>
     <lat>55.6629690</lat>
     <lng>14.2171224</lng>
    </southwest>
    <northeast>
     <lat>55.6656670</lat>
     <lng>14.2198204</lng>
    </northeast>
   </viewport>
  </geometry>
  <partial_match>true</partial_match>
  <place_id>ChIJf_1DmtBBVEYR55CbPZus5NE</place_id>
 </result>
 <result>
  <type>locality</type>
  <type>political</type>
  <formatted_address>242 94 Sodrarorum, Sweden</formatted_address>
  <address_component>
   <long_name>Sodrarorum</long_name>
   <short_name>Sodrarorum</short_name>
   <type>locality</type>
   <type>political</type>
  </address_component>
  <address_component>
   <long_name>Hörby</long_name>
   <short_name>Hörby</short_name>
   <type>postal_town</type>
  </address_component>
  <address_component>
   <long_name>Hörby</long_name>
   <short_name>Hörby</short_name>
   <type>administrative_area_level_2</type>
   <type>political</type>
  </address_component>
  <address_component>
   <long_name>Skåne County</long_name>
   <short_name>Skåne County</short_name>
   <type>administrative_area_level_1</type>
   <type>political</type>
  </address_component>
  <address_component>
   <long_name>Sweden</long_name>
   <short_name>SE</short_name>
   <type>country</type>
   <type>political</type>
  </address_component>
  <address_component>
   <long_name>242 94</long_name>
   <short_name>242 94</short_name>
   <type>postal_code</type>
  </address_component>
  <geometry>
   <location>
    <lat>55.9235677</lat>
    <lng>13.6685051</lng>
   </location>
   <location_type>APPROXIMATE</location_type>
   <viewport>
    <southwest>
     <lat>55.9222187</lat>
     <lng>13.6671561</lng>
    </southwest>
    <northeast>
     <lat>55.9249167</lat>
     <lng>13.6698541</lng>
    </northeast>
   </viewport>
  </geometry>
  <partial_match>true</partial_match>
  <place_id>ChIJa58rDh_xU0YRCoYruA-WQlQ</place_id>
 </result>
 <result>
  <type>sublocality_level_1</type>
  <type>sublocality</type>
  <type>political</type>
  <formatted_address>Villan-Södra Utmarken, Ängelholm, Sweden</formatted_address>
  <address_component>
   <long_name>Villan-Södra Utmarken</long_name>
   <short_name>Villan-Södra Utmarken</short_name>
   <type>sublocality_level_1</type>
   <type>sublocality</type>
   <type>political</type>
  </address_component>
  <address_component>
   <long_name>Ängelholm</long_name>
   <short_name>Ängelholm</short_name>
   <type>locality</type>
   <type>political</type>
  </address_component>
  <address_component>
   <long_name>Ängelholm</long_name>
   <short_name>Ängelholm</short_name>
   <type>administrative_area_level_2</type>
   <type>political</type>
  </address_component>
  <address_component>
   <long_name>Skåne län</long_name>
   <short_name>Skåne län</short_name>
   <type>administrative_area_level_1</type>
   <type>political</type>
  </address_component>
  <address_component>
   <long_name>Sweden</long_name>
   <short_name>SE</short_name>
   <type>country</type>
   <type>political</type>
  </address_component>
  <geometry>
   <location>
    <lat>56.2326434</lat>
    <lng>12.8827009</lng>
   </location>
   <location_type>APPROXIMATE</location_type>
   <viewport>
    <southwest>
     <lat>56.2203030</lat>
     <lng>12.8262980</lng>
    </southwest>
    <northeast>
     <lat>56.2477951</lat>
     <lng>12.9012140</lng>
    </northeast>
   </viewport>
   <bounds>
    <southwest>
     <lat>56.2203030</lat>
     <lng>12.8262980</lng>
    </southwest>
    <northeast>
     <lat>56.2477951</lat>
     <lng>12.9012140</lng>
    </northeast>
   </bounds>
  </geometry>
  <partial_match>true</partial_match>
  <place_id>ChIJ72uzmb4qUkYR_Jl-a22RrM0</place_id>
 </result>
</GeocodeResponse>
