<?xml version="1.0" encoding="UTF-8"?>
<GeocodeResponse>
 <status>OK</status>
 <result>
  <type>route</type>
  <formatted_address>Karlıktepe, Mihrab Sk., 34870 Kartal/İstanbul, Turkey</formatted_address>
  <address_component>
   <long_name>Mihrab Sokak</long_name>
   <short_name>Mihrab Sk.</short_name>
   <type>route</type>
  </address_component>
  <address_component>
   <long_name>Karlıktepe Mahallesi</long_name>
   <short_name>Karlıktepe</short_name>
   <type>administrative_area_level_4</type>
   <type>political</type>
  </address_component>
  <address_component>
   <long_name>Kartal</long_name>
   <short_name>Kartal</short_name>
   <type>administrative_area_level_2</type>
   <type>political</type>
  </address_component>
  <address_component>
   <long_name>İstanbul</long_name>
   <short_name>İstanbul</short_name>
   <type>administrative_area_level_1</type>
   <type>political</type>
  </address_component>
  <address_component>
   <long_name>Turkey</long_name>
   <short_name>TR</short_name>
   <type>country</type>
   <type>political</type>
  </address_component>
  <address_component>
   <long_name>34870</long_name>
   <short_name>34870</short_name>
   <type>postal_code</type>
  </address_component>
  <geometry>
   <location>
    <lat>40.8905339</lat>
    <lng>29.1877326</lng>
   </location>
   <location_type>GEOMETRIC_CENTER</location_type>
   <viewport>
    <southwest>
     <lat>40.8892431</lat>
     <lng>29.1864150</lng>
    </southwest>
    <northeast>
     <lat>40.8919410</lat>
     <lng>29.1891129</lng>
    </northeast>
   </viewport>
   <bounds>
    <southwest>
     <lat>40.8902821</lat>
     <lng>29.1869729</lng>
    </southwest>
    <northeast>
     <lat>40.8909020</lat>
     <lng>29.1885550</lng>
    </northeast>
   </bounds>
  </geometry>
  <partial_match>true</partial_match>
  <place_id>ChIJ7-bSJ3jDyhQRdbKs6QxDDog</place_id>
 </result>
 <result>
  <type>route</type>
  <formatted_address>Çarşı, Mihrace Sk., 34876 Kartal/İstanbul, Turkey</formatted_address>
  <address_component>
   <long_name>Mihrace Sokak</long_name>
   <short_name>Mihrace Sk.</short_name>
   <type>route</type>
  </address_component>
  <address_component>
   <long_name>Çarşı Mahallesi</long_name>
   <short_name>Çarşı</short_name>
   <type>administrative_area_level_4</type>
   <type>political</type>
  </address_component>
  <address_component>
   <long_name>Kartal</long_name>
   <short_name>Kartal</short_name>
   <type>administrative_area_level_2</type>
   <type>political</type>
  </address_component>
  <address_component>
   <long_name>İstanbul</long_name>
   <short_name>İstanbul</short_name>
   <type>administrative_area_level_1</type>
   <type>political</type>
  </address_component>
  <address_component>
   <long_name>Turkey</long_name>
   <short_name>TR</short_name>
   <type>country</type>
   <type>political</type>
  </address_component>
  <address_component>
   <long_name>34876</long_name>
   <short_name>34876</short_name>
   <type>postal_code</type>
  </address_component>
  <geometry>
   <location>
    <lat>40.9217328</lat>
    <lng>29.2292810</lng>
   </location>
   <location_type>GEOMETRIC_CENTER</location_type>
   <viewport>
    <southwest>
     <lat>40.9202871</lat>
     <lng>29.2279296</lng>
    </southwest>
    <northeast>
     <lat>40.9229851</lat>
     <lng>29.2306276</lng>
    </northeast>
   </viewport>
   <bounds>
    <southwest>
     <lat>40.9212828</lat>
     <lng>29.2283852</lng>
    </southwest>
    <northeast>
     <lat>40.9219894</lat>
     <lng>29.2301720</lng>
    </northeast>
   </bounds>
  </geometry>
  <partial_match>true</partial_match>
  <place_id>ChIJS-8EiNTEyhQRoliIEbY7F2o</place_id>
 </result>
</GeocodeResponse>
