<?xml version="1.0" encoding="UTF-8"?>
<GeocodeResponse>
 <status>OK</status>
 <result>
  <type>route</type>
  <formatted_address>Pohjoistie, 75530 Nurmes, Finland</formatted_address>
  <address_component>
   <long_name>Pohjoistie</long_name>
   <short_name>Pohjoistie</short_name>
   <type>route</type>
  </address_component>
  <address_component>
   <long_name>Nurmes</long_name>
   <short_name>Nurmes</short_name>
   <type>administrative_area_level_3</type>
   <type>political</type>
  </address_component>
  <address_component>
   <long_name>Finland</long_name>
   <short_name>FI</short_name>
   <type>country</type>
   <type>political</type>
  </address_component>
  <address_component>
   <long_name>75530</long_name>
   <short_name>75530</short_name>
   <type>postal_code</type>
  </address_component>
  <geometry>
   <location>
    <lat>63.5576130</lat>
    <lng>29.1171219</lng>
   </location>
   <location_type>GEOMETRIC_CENTER</location_type>
   <viewport>
    <southwest>
     <lat>63.5548019</lat>
     <lng>29.1151600</lng>
    </southwest>
    <northeast>
     <lat>63.5605221</lat>
     <lng>29.1178579</lng>
    </northeast>
   </viewport>
   <bounds>
    <southwest>
     <lat>63.5548019</lat>
     <lng>29.1152462</lng>
    </southwest>
    <northeast>
     <lat>63.5605221</lat>
     <lng>29.1177717</lng>
    </northeast>
   </bounds>
  </geometry>
  <partial_match>true</partial_match>
  <place_id>ChIJ32OEMY_TnEYR719DREtyWPo</place_id>
 </result>
 <result>
  <type>route</type>
  <formatted_address>Pohjoiskuja, 50600 Mikkeli, Finland</formatted_address>
  <address_component>
   <long_name>Pohjoiskuja</long_name>
   <short_name>Pohjoiskuja</short_name>
   <type>route</type>
  </address_component>
  <address_component>
   <long_name>Mikkeli</long_name>
   <short_name>Mikkeli</short_name>
   <type>locality</type>
   <type>political</type>
  </address_component>
  <address_component>
   <long_name>Mikkeli Province</long_name>
   <short_name>Mikkeli Province</short_name>
   <type>administrative_area_level_3</type>
   <type>political</type>
  </address_component>
  <address_component>
   <long_name>Finland</long_name>
   <short_name>FI</short_name>
   <type>country</type>
   <type>political</type>
  </address_component>
  <address_component>
   <long_name>50600</long_name>
   <short_name>50600</short_name>
   <type>postal_code</type>
  </address_component>
  <geometry>
   <location>
    <lat>61.6786449</lat>
    <lng>27.2116766</lng>
   </location>
   <location_type>GEOMETRIC_CENTER</location_type>
   <viewport>
    <southwest>
     <lat>61.6773395</lat>
     <lng>27.2098869</lng>
    </southwest>
    <northeast>
     <lat>61.6800374</lat>
     <lng>27.2125848</lng>
    </northeast>
   </viewport>
   <bounds>
    <southwest>
     <lat>61.6781562</lat>
     <lng>27.2105160</lng>
    </southwest>
    <northeast>
     <lat>61.6792207</lat>
     <lng>27.2119557</lng>
    </northeast>
   </bounds>
  </geometry>
  <partial_match>true</partial_match>
  <place_id>ChIJg-MCbyKhmkYR9VFfpL6xK6E</place_id>
 </result>
 <result>
  <type>route</type>
  <formatted_address>Pohjoiskatu, 80100 Joensuu, Finland</formatted_address>
  <address_component>
   <long_name>Pohjoiskatu</long_name>
   <short_name>Pohjoiskatu</short_name>
   <type>route</type>
  </address_component>
  <address_component>
   <long_name>Joensuu</long_name>
   <short_name>Joensuu</short_name>
   <type>locality</type>
   <type>political</type>
  </address_component>
  <address_component>
   <long_name>Joensuu</long_name>
   <short_name>Joensuu</short_name>
   <type>administrative_area_level_3</type>
   <type>political</type>
  </address_component>
  <address_component>
   <long_name>Finland</long_name>
   <short_name>FI</short_name>
   <type>country</type>
   <type>political</type>
  </address_component>
  <address_component>
   <long_name>80100</long_name>
   <short_name>80100</short_name>
   <type>postal_code</type>
  </address_component>
  <geometry>
   <location>
    <lat>62.6075999</lat>
    <lng>29.7618815</lng>
   </location>
   <location_type>GEOMETRIC_CENTER</location_type>
   <viewport>
    <southwest>
     <lat>62.6062975</lat>
     <lng>29.7546242</lng>
    </southwest>
    <northeast>
     <lat>62.6090346</lat>
     <lng>29.7682705</lng>
    </northeast>
   </viewport>
   <bounds>
    <southwest>
     <lat>62.6062975</lat>
     <lng>29.7546242</lng>
    </southwest>
    <northeast>
     <lat>62.6090346</lat>
     <lng>29.7682705</lng>
    </northeast>
   </bounds>
  </geometry>
  <partial_match>true</partial_match>
  <place_id>ChIJTVDBEoqGm0YRBsTr8rMbvyc</place_id>
 </result>
 <result>
  <type>route</type>
  <formatted_address>Pohjoistie, 72100 Kuopio, Finland</formatted_address>
  <address_component>
   <long_name>Pohjoistie</long_name>
   <short_name>Pohjoistie</short_name>
   <type>route</type>
  </address_component>
  <address_component>
   <long_name>Kuopio</long_name>
   <short_name>Kuopio</short_name>
   <type>locality</type>
   <type>political</type>
  </address_component>
  <address_component>
   <long_name>Kuopio</long_name>
   <short_name>Kuopio</short_name>
   <type>administrative_area_level_3</type>
   <type>political</type>
  </address_component>
  <address_component>
   <long_name>Finland</long_name>
   <short_name>FI</short_name>
   <type>country</type>
   <type>political</type>
  </address_component>
  <address_component>
   <long_name>72100</long_name>
   <short_name>72100</short_name>
   <type>postal_code</type>
  </address_component>
  <geometry>
   <location>
    <lat>62.8980251</lat>
    <lng>26.9813495</lng>
   </location>
   <location_type>GEOMETRIC_CENTER</location_type>
   <viewport>
    <southwest>
     <lat>62.8965558</lat>
     <lng>26.9799293</lng>
    </southwest>
    <northeast>
     <lat>62.8992537</lat>
     <lng>26.9826272</lng>
    </northeast>
   </viewport>
   <bounds>
    <southwest>
     <lat>62.8972594</lat>
     <lng>26.9804172</lng>
    </southwest>
    <northeast>
     <lat>62.8985501</lat>
     <lng>26.9821393</lng>
    </northeast>
   </bounds>
  </geometry>
  <partial_match>true</partial_match>
  <place_id>ChIJoUBNuFGThEYRMUk5-4MMuoc</place_id>
 </result>
 <result>
  <type>route</type>
  <formatted_address>Pohjois-Keiteleentie, Keitele, Finland</formatted_address>
  <address_component>
   <long_name>Pohjois-Keiteleentie</long_name>
   <short_name>Pohjois-Keiteleentie</short_name>
   <type>route</type>
  </address_component>
  <address_component>
   <long_name>Keitele</long_name>
   <short_name>Keitele</short_name>
   <type>administrative_area_level_3</type>
   <type>political</type>
  </address_component>
  <address_component>
   <long_name>Finland</long_name>
   <short_name>FI</short_name>
   <type>country</type>
   <type>political</type>
  </address_component>
  <geometry>
   <location>
    <lat>63.3533805</lat>
    <lng>26.1943738</lng>
   </location>
   <location_type>GEOMETRIC_CENTER</location_type>
   <viewport>
    <southwest>
     <lat>63.2846779</lat>
     <lng>26.1734018</lng>
    </southwest>
    <northeast>
     <lat>63.4200230</lat>
     <lng>26.2284596</lng>
    </northeast>
   </viewport>
   <bounds>
    <southwest>
     <lat>63.2846779</lat>
     <lng>26.1734018</lng>
    </southwest>
    <northeast>
     <lat>63.4200230</lat>
     <lng>26.2284596</lng>
    </northeast>
   </bounds>
  </geometry>
  <partial_match>true</partial_match>
  <place_id>ChIJGw9df4dzhEYRrEIfKevr0SE</place_id>
 </result>
 <result>
  <type>natural_feature</type>
  <type>establishment</type>
  <formatted_address>Pohjois-Niinivesi, Vesanto, Finland</formatted_address>
  <address_component>
   <long_name>Pohjois-Niinivesi</long_name>
   <short_name>Pohjois-Niinivesi</short_name>
   <type>natural_feature</type>
   <type>establishment</type>
  </address_component>
  <address_component>
   <long_name>Vesanto</long_name>
   <short_name>Vesanto</short_name>
   <type>administrative_area_level_3</type>
   <type>political</type>
  </address_component>
  <address_component>
   <long_name>Finland</long_name>
   <short_name>FI</short_name>
   <type>country</type>
   <type>political</type>
  </address_component>
  <geometry>
   <location>
    <lat>62.9365890</lat>
    <lng>26.5644979</lng>
   </location>
   <location_type>APPROXIMATE</location_type>
   <viewport>
    <southwest>
     <lat>62.9003825</lat>
     <lng>26.4755211</lng>
    </southwest>
    <northeast>
     <lat>62.9860315</lat>
     <lng>26.6115051</lng>
    </northeast>
   </viewport>
   <bounds>
    <southwest>
     <lat>62.9003825</lat>
     <lng>26.4755211</lng>
    </southwest>
    <northeast>
     <lat>62.9860315</lat>
     <lng>26.6115051</lng>
    </northeast>
   </bounds>
  </geometry>
  <partial_match>true</partial_match>
  <place_id>ChIJE4Q_hOT0hEYRBw8jQ3n909U</place_id>
 </result>
 <result>
  <type>natural_feature</type>
  <type>establishment</type>
  <formatted_address>Pohjois-Virmas, 77330 Pieksämäki, Finland</formatted_address>
  <address_component>
   <long_name>Pohjois-Virmas</long_name>
   <short_name>Pohjois-Virmas</short_name>
   <type>natural_feature</type>
   <type>establishment</type>
  </address_component>
  <address_component>
   <long_name>Pieksämäki</long_name>
   <short_name>Pieksämäki</short_name>
   <type>administrative_area_level_3</type>
   <type>political</type>
  </address_component>
  <address_component>
   <long_name>Finland</long_name>
   <short_name>FI</short_name>
   <type>country</type>
   <type>political</type>
  </address_component>
  <address_component>
   <long_name>77330</long_name>
   <short_name>77330</short_name>
   <type>postal_code</type>
  </address_component>
  <geometry>
   <location>
    <lat>62.0854491</lat>
    <lng>27.5608072</lng>
   </location>
   <location_type>APPROXIMATE</location_type>
   <viewport>
    <southwest>
     <lat>62.0426874</lat>
     <lng>27.4965897</lng>
    </southwest>
    <northeast>
     <lat>62.1339185</lat>
     <lng>27.6211035</lng>
    </northeast>
   </viewport>
   <bounds>
    <southwest>
     <lat>62.0426874</lat>
     <lng>27.4965897</lng>
    </southwest>
    <northeast>
     <lat>62.1339185</lat>
     <lng>27.6211035</lng>
    </northeast>
   </bounds>
  </geometry>
  <partial_match>true</partial_match>
  <place_id>ChIJy6tlSrLFmkYRFjef5ucZNFQ</place_id>
 </result>
 <result>
  <type>route</type>
  <formatted_address>Pohjois-Sänkimäki, Nilsiä, Finland</formatted_address>
  <address_component>
   <long_name>Pohjois-Sänkimäki</long_name>
   <short_name>Pohjois-Sänkimäki</short_name>
   <type>route</type>
  </address_component>
  <address_component>
   <long_name>Kuopio</long_name>
   <short_name>Kuopio</short_name>
   <type>locality</type>
   <type>political</type>
  </address_component>
  <address_component>
   <long_name>Nilsiä</long_name>
   <short_name>Nilsiä</short_name>
   <type>administrative_area_level_3</type>
   <type>political</type>
  </address_component>
  <address_component>
   <long_name>Finland</long_name>
   <short_name>FI</short_name>
   <type>country</type>
   <type>political</type>
  </address_component>
  <geometry>
   <location>
    <lat>63.1940361</lat>
    <lng>27.8440462</lng>
   </location>
   <location_type>GEOMETRIC_CENTER</location_type>
   <viewport>
    <southwest>
     <lat>63.1571921</lat>
     <lng>27.7970584</lng>
    </southwest>
    <northeast>
     <lat>63.2269224</lat>
     <lng>27.8787869</lng>
    </northeast>
   </viewport>
   <bounds>
    <southwest>
     <lat>63.1571921</lat>
     <lng>27.7970584</lng>
    </southwest>
    <northeast>
     <lat>63.2269224</lat>
     <lng>27.8787869</lng>
    </northeast>
   </bounds>
  </geometry>
  <partial_match>true</partial_match>
  <place_id>ChIJf6LPbjdZg0YRUJFmtY3Ob-k</place_id>
 </result>
 <result>
  <type>natural_feature</type>
  <type>establishment</type>
  <formatted_address>Itä-Pohjola, 89600 Suomussalmi, Finland</formatted_address>
  <address_component>
   <long_name>Itä-Pohjola</long_name>
   <short_name>Itä-Pohjola</short_name>
   <type>natural_feature</type>
   <type>establishment</type>
  </address_component>
  <address_component>
   <long_name>Suomussalmi</long_name>
   <short_name>Suomussalmi</short_name>
   <type>administrative_area_level_3</type>
   <type>political</type>
  </address_component>
  <address_component>
   <long_name>Finland</long_name>
   <short_name>FI</short_name>
   <type>country</type>
   <type>political</type>
  </address_component>
  <address_component>
   <long_name>89600</long_name>
   <short_name>89600</short_name>
   <type>postal_code</type>
  </address_component>
  <geometry>
   <location>
    <lat>64.9624115</lat>
    <lng>28.7035501</lng>
   </location>
   <location_type>APPROXIMATE</location_type>
   <viewport>
    <southwest>
     <lat>64.9610625</lat>
     <lng>28.7022011</lng>
    </southwest>
    <northeast>
     <lat>64.9637605</lat>
     <lng>28.7048991</lng>
    </northeast>
   </viewport>
  </geometry>
  <partial_match>true</partial_match>
  <place_id>ChIJMTlOWGfIKUQRiPI8Nb20drQ</place_id>
 </result>
 <result>
  <type>route</type>
  <formatted_address>Pohjois-Jylhäntie, 72810 Pielavesi, Finland</formatted_address>
  <address_component>
   <long_name>Pohjois-Jylhäntie</long_name>
   <short_name>Pohjois-Jylhäntie</short_name>
   <type>route</type>
  </address_component>
  <address_component>
   <long_name>Pielavesi</long_name>
   <short_name>Pielavesi</short_name>
   <type>administrative_area_level_3</type>
   <type>political</type>
  </address_component>
  <address_component>
   <long_name>Finland</long_name>
   <short_name>FI</short_name>
   <type>country</type>
   <type>political</type>
  </address_component>
  <address_component>
   <long_name>72810</long_name>
   <short_name>72810</short_name>
   <type>postal_code</type>
  </address_component>
  <geometry>
   <location>
    <lat>63.2601838</lat>
    <lng>26.4832382</lng>
   </location>
   <location_type>GEOMETRIC_CENTER</location_type>
   <viewport>
    <southwest>
     <lat>63.2474894</lat>
     <lng>26.4794954</lng>
    </southwest>
    <northeast>
     <lat>63.2770593</lat>
     <lng>26.5084030</lng>
    </northeast>
   </viewport>
   <bounds>
    <southwest>
     <lat>63.2474894</lat>
     <lng>26.4794954</lng>
    </southwest>
    <northeast>
     <lat>63.2770593</lat>
     <lng>26.5084030</lng>
    </northeast>
   </bounds>
  </geometry>
  <partial_match>true</partial_match>
  <place_id>ChIJoe0hn0x6hEYRrCaInLH8AU0</place_id>
 </result>
</GeocodeResponse>
