<?xml version="1.0" encoding="UTF-8"?>
<GeocodeResponse>
 <status>OK</status>
 <result>
  <type>route</type>
  <formatted_address>Değirmendere, Doğu Sk., 61100 Trabzon Merkez/Trabzon, Turkey</formatted_address>
  <address_component>
   <long_name>Doğu Sokak</long_name>
   <short_name>Doğu Sk.</short_name>
   <type>route</type>
  </address_component>
  <address_component>
   <long_name>Değirmendere Mahallesi</long_name>
   <short_name>Değirmendere</short_name>
   <type>administrative_area_level_4</type>
   <type>political</type>
  </address_component>
  <address_component>
   <long_name>Trabzon Merkez</long_name>
   <short_name>Trabzon Merkez</short_name>
   <type>administrative_area_level_2</type>
   <type>political</type>
  </address_component>
  <address_component>
   <long_name>Trabzon</long_name>
   <short_name>Trabzon</short_name>
   <type>administrative_area_level_1</type>
   <type>political</type>
  </address_component>
  <address_component>
   <long_name>Turkey</long_name>
   <short_name>TR</short_name>
   <type>country</type>
   <type>political</type>
  </address_component>
  <address_component>
   <long_name>61100</long_name>
   <short_name>61100</short_name>
   <type>postal_code</type>
  </address_component>
  <geometry>
   <location>
    <lat>40.9983411</lat>
    <lng>39.7413946</lng>
   </location>
   <location_type>GEOMETRIC_CENTER</location_type>
   <viewport>
    <southwest>
     <lat>40.9968925</lat>
     <lng>39.7400126</lng>
    </southwest>
    <northeast>
     <lat>40.9995904</lat>
     <lng>39.7427105</lng>
    </northeast>
   </viewport>
   <bounds>
    <southwest>
     <lat>40.9977570</lat>
     <lng>39.7409760</lng>
    </southwest>
    <northeast>
     <lat>40.9987259</lat>
     <lng>39.7417471</lng>
    </northeast>
   </bounds>
  </geometry>
  <partial_match>true</partial_match>
  <place_id>ChIJq_-9Hmw8ZEARLWtLwJHwomI</place_id>
 </result>
</GeocodeResponse>
