<?xml version="1.0" encoding="UTF-8"?>
<GeocodeResponse>
 <status>OK</status>
 <result>
  <type>route</type>
  <formatted_address>Midland Ave, Louisville, KY 40220, USA</formatted_address>
  <address_component>
   <long_name>Midland Avenue</long_name>
   <short_name>Midland Ave</short_name>
   <type>route</type>
  </address_component>
  <address_component>
   <long_name>Avondale Melbourne Heights</long_name>
   <short_name>Avondale Melbourne Heights</short_name>
   <type>neighborhood</type>
   <type>political</type>
  </address_component>
  <address_component>
   <long_name>Louisville</long_name>
   <short_name>Louisville</short_name>
   <type>locality</type>
   <type>political</type>
  </address_component>
  <address_component>
   <long_name>Jefferson County</long_name>
   <short_name>Jefferson County</short_name>
   <type>administrative_area_level_2</type>
   <type>political</type>
  </address_component>
  <address_component>
   <long_name>Kentucky</long_name>
   <short_name>KY</short_name>
   <type>administrative_area_level_1</type>
   <type>political</type>
  </address_component>
  <address_component>
   <long_name>United States</long_name>
   <short_name>US</short_name>
   <type>country</type>
   <type>political</type>
  </address_component>
  <address_component>
   <long_name>40220</long_name>
   <short_name>40220</short_name>
   <type>postal_code</type>
  </address_component>
  <geometry>
   <location>
    <lat>38.2178393</lat>
    <lng>-85.6317250</lng>
   </location>
   <location_type>GEOMETRIC_CENTER</location_type>
   <viewport>
    <southwest>
     <lat>38.2166445</lat>
     <lng>-85.6327690</lng>
    </southwest>
    <northeast>
     <lat>38.2193424</lat>
     <lng>-85.6296670</lng>
    </northeast>
   </viewport>
   <bounds>
    <southwest>
     <lat>38.2169770</lat>
     <lng>-85.6327690</lng>
    </southwest>
    <northeast>
     <lat>38.2190099</lat>
     <lng>-85.6296670</lng>
    </northeast>
   </bounds>
  </geometry>
  <partial_match>true</partial_match>
  <place_id>ChIJARTsDcMKaYgRTHojN-VtDWM</place_id>
 </result>
 <result>
  <type>route</type>
  <formatted_address>N Lincoln St, Midland, TX 79701, USA</formatted_address>
  <address_component>
   <long_name>North Lincoln Street</long_name>
   <short_name>N Lincoln St</short_name>
   <type>route</type>
  </address_component>
  <address_component>
   <long_name>East Midland</long_name>
   <short_name>East Midland</short_name>
   <type>neighborhood</type>
   <type>political</type>
  </address_component>
  <address_component>
   <long_name>Midland</long_name>
   <short_name>Midland</short_name>
   <type>locality</type>
   <type>political</type>
  </address_component>
  <address_component>
   <long_name>Midland County</long_name>
   <short_name>Midland County</short_name>
   <type>administrative_area_level_2</type>
   <type>political</type>
  </address_component>
  <address_component>
   <long_name>Texas</long_name>
   <short_name>TX</short_name>
   <type>administrative_area_level_1</type>
   <type>political</type>
  </address_component>
  <address_component>
   <long_name>United States</long_name>
   <short_name>US</short_name>
   <type>country</type>
   <type>political</type>
  </address_component>
  <address_component>
   <long_name>79701</long_name>
   <short_name>79701</short_name>
   <type>postal_code</type>
  </address_component>
  <geometry>
   <location>
    <lat>32.0097186</lat>
    <lng>-102.0593311</lng>
   </location>
   <location_type>GEOMETRIC_CENTER</location_type>
   <viewport>
    <southwest>
     <lat>32.0081665</lat>
     <lng>-102.0605845</lng>
    </southwest>
    <northeast>
     <lat>32.0112315</lat>
     <lng>-102.0578866</lng>
    </northeast>
   </viewport>
   <bounds>
    <southwest>
     <lat>32.0081665</lat>
     <lng>-102.0598000</lng>
    </southwest>
    <northeast>
     <lat>32.0112315</lat>
     <lng>-102.0586711</lng>
    </northeast>
   </bounds>
  </geometry>
  <partial_match>true</partial_match>
  <place_id>ChIJNbvkgmJi-YYRlqU_2eK3axs</place_id>
 </result>
 <result>
  <type>route</type>
  <formatted_address>Lincoln, Gweru, Zimbabwe</formatted_address>
  <address_component>
   <long_name>Lincoln</long_name>
   <short_name>Lincoln</short_name>
   <type>route</type>
  </address_component>
  <address_component>
   <long_name>Gweru</long_name>
   <short_name>Gweru</short_name>
   <type>locality</type>
   <type>political</type>
  </address_component>
  <address_component>
   <long_name>Gweru</long_name>
   <short_name>Gweru</short_name>
   <type>administrative_area_level_2</type>
   <type>political</type>
  </address_component>
  <address_component>
   <long_name>Midlands</long_name>
   <short_name>Midlands</short_name>
   <type>administrative_area_level_1</type>
   <type>political</type>
  </address_component>
  <address_component>
   <long_name>Zimbabwe</long_name>
   <short_name>ZW</short_name>
   <type>country</type>
   <type>political</type>
  </address_component>
  <geometry>
   <location>
    <lat>-19.4444933</lat>
    <lng>29.8105431</lng>
   </location>
   <location_type>GEOMETRIC_CENTER</location_type>
   <viewport>
    <southwest>
     <lat>-19.4472873</lat>
     <lng>29.8095863</lng>
    </southwest>
    <northeast>
     <lat>-19.4432961</lat>
     <lng>29.8122843</lng>
    </northeast>
   </viewport>
   <bounds>
    <southwest>
     <lat>-19.4472873</lat>
     <lng>29.8104733</lng>
    </southwest>
    <northeast>
     <lat>-19.4432961</lat>
     <lng>29.8113973</lng>
    </northeast>
   </bounds>
  </geometry>
  <partial_match>true</partial_match>
  <place_id>ChIJSa4dxl-TNBkRoZGtgqvhGG8</place_id>
 </result>
 <result>
  <type>route</type>
  <formatted_address>E Lincoln Ave, Midland, AR 72945, USA</formatted_address>
  <address_component>
   <long_name>East Lincoln Avenue</long_name>
   <short_name>E Lincoln Ave</short_name>
   <type>route</type>
  </address_component>
  <address_component>
   <long_name>Midland</long_name>
   <short_name>Midland</short_name>
   <type>locality</type>
   <type>political</type>
  </address_component>
  <address_component>
   <long_name>Jim Fork Township</long_name>
   <short_name>Jim Fork Township</short_name>
   <type>administrative_area_level_3</type>
   <type>political</type>
  </address_component>
  <address_component>
   <long_name>Sebastian County</long_name>
   <short_name>Sebastian County</short_name>
   <type>administrative_area_level_2</type>
   <type>political</type>
  </address_component>
  <address_component>
   <long_name>Arkansas</long_name>
   <short_name>AR</short_name>
   <type>administrative_area_level_1</type>
   <type>political</type>
  </address_component>
  <address_component>
   <long_name>United States</long_name>
   <short_name>US</short_name>
   <type>country</type>
   <type>political</type>
  </address_component>
  <address_component>
   <long_name>72945</long_name>
   <short_name>72945</short_name>
   <type>postal_code</type>
  </address_component>
  <geometry>
   <location>
    <lat>35.0953352</lat>
    <lng>-94.3532789</lng>
   </location>
   <location_type>GEOMETRIC_CENTER</location_type>
   <viewport>
    <southwest>
     <lat>35.0927678</lat>
     <lng>-94.3583730</lng>
    </southwest>
    <northeast>
     <lat>35.0983550</lat>
     <lng>-94.3474540</lng>
    </northeast>
   </viewport>
   <bounds>
    <southwest>
     <lat>35.0927678</lat>
     <lng>-94.3583730</lng>
    </southwest>
    <northeast>
     <lat>35.0983550</lat>
     <lng>-94.3474540</lng>
    </northeast>
   </bounds>
  </geometry>
  <partial_match>true</partial_match>
  <place_id>ChIJ-9bD3_0Ay4cRUIGzvD4uTeA</place_id>
 </result>
 <result>
  <type>route</type>
  <formatted_address>N Lincoln St, Midland, TX 79705, USA</formatted_address>
  <address_component>
   <long_name>North Lincoln Street</long_name>
   <short_name>N Lincoln St</short_name>
   <type>route</type>
  </address_component>
  <address_component>
   <long_name>Midland</long_name>
   <short_name>Midland</short_name>
   <type>locality</type>
   <type>political</type>
  </address_component>
  <address_component>
   <long_name>Midland County</long_name>
   <short_name>Midland County</short_name>
   <type>administrative_area_level_2</type>
   <type>political</type>
  </address_component>
  <address_component>
   <long_name>Texas</long_name>
   <short_name>TX</short_name>
   <type>administrative_area_level_1</type>
   <type>political</type>
  </address_component>
  <address_component>
   <long_name>United States</long_name>
   <short_name>US</short_name>
   <type>country</type>
   <type>political</type>
  </address_component>
  <address_component>
   <long_name>79705</long_name>
   <short_name>79705</short_name>
   <type>postal_code</type>
  </address_component>
  <geometry>
   <location>
    <lat>32.0254132</lat>
    <lng>-102.0644763</lng>
   </location>
   <location_type>GEOMETRIC_CENTER</location_type>
   <viewport>
    <southwest>
     <lat>32.0226000</lat>
     <lng>-102.0658605</lng>
    </southwest>
    <northeast>
     <lat>32.0283449</lat>
     <lng>-102.0631625</lng>
    </northeast>
   </viewport>
   <bounds>
    <southwest>
     <lat>32.0226000</lat>
     <lng>-102.0654480</lng>
    </southwest>
    <northeast>
     <lat>32.0283449</lat>
     <lng>-102.0635750</lng>
    </northeast>
   </bounds>
  </geometry>
  <partial_match>true</partial_match>
  <place_id>ChIJAXa7FXNi-YYRW1I8hhL4ZV4</place_id>
 </result>
 <result>
  <type>route</type>
  <formatted_address>S Lincoln St, Midland, TX 79701, USA</formatted_address>
  <address_component>
   <long_name>South Lincoln Street</long_name>
   <short_name>S Lincoln St</short_name>
   <type>route</type>
  </address_component>
  <address_component>
   <long_name>Greenwood</long_name>
   <short_name>Greenwood</short_name>
   <type>neighborhood</type>
   <type>political</type>
  </address_component>
  <address_component>
   <long_name>Midland</long_name>
   <short_name>Midland</short_name>
   <type>locality</type>
   <type>political</type>
  </address_component>
  <address_component>
   <long_name>Midland County</long_name>
   <short_name>Midland County</short_name>
   <type>administrative_area_level_2</type>
   <type>political</type>
  </address_component>
  <address_component>
   <long_name>Texas</long_name>
   <short_name>TX</short_name>
   <type>administrative_area_level_1</type>
   <type>political</type>
  </address_component>
  <address_component>
   <long_name>United States</long_name>
   <short_name>US</short_name>
   <type>country</type>
   <type>political</type>
  </address_component>
  <address_component>
   <long_name>79701</long_name>
   <short_name>79701</short_name>
   <type>postal_code</type>
  </address_component>
  <geometry>
   <location>
    <lat>31.9944983</lat>
    <lng>-102.0545088</lng>
   </location>
   <location_type>GEOMETRIC_CENTER</location_type>
   <viewport>
    <southwest>
     <lat>31.9922720</lat>
     <lng>-102.0559815</lng>
    </southwest>
    <northeast>
     <lat>31.9975283</lat>
     <lng>-102.0532835</lng>
    </northeast>
   </viewport>
   <bounds>
    <southwest>
     <lat>31.9922720</lat>
     <lng>-102.0557300</lng>
    </southwest>
    <northeast>
     <lat>31.9975283</lat>
     <lng>-102.0535350</lng>
    </northeast>
   </bounds>
  </geometry>
  <partial_match>true</partial_match>
  <place_id>ChIJyyFk_Y1i-YYRJWWUT8_FoaQ</place_id>
 </result>
 <result>
  <type>route</type>
  <formatted_address>Lincoln Rd N, Solihull, Birmingham, West Midlands B27 6RP, UK</formatted_address>
  <address_component>
   <long_name>Lincoln Road North</long_name>
   <short_name>Lincoln Rd N</short_name>
   <type>route</type>
  </address_component>
  <address_component>
   <long_name>Solihull</long_name>
   <short_name>Solihull</short_name>
   <type>locality</type>
   <type>political</type>
  </address_component>
  <address_component>
   <long_name>Birmingham</long_name>
   <short_name>Birmingham</short_name>
   <type>postal_town</type>
  </address_component>
  <address_component>
   <long_name>West Midlands</long_name>
   <short_name>West Midlands</short_name>
   <type>administrative_area_level_2</type>
   <type>political</type>
  </address_component>
  <address_component>
   <long_name>United Kingdom</long_name>
   <short_name>GB</short_name>
   <type>country</type>
   <type>political</type>
  </address_component>
  <address_component>
   <long_name>B27 6RP</long_name>
   <short_name>B27 6RP</short_name>
   <type>postal_code</type>
  </address_component>
  <geometry>
   <location>
    <lat>52.4474968</lat>
    <lng>-1.8077525</lng>
   </location>
   <location_type>GEOMETRIC_CENTER</location_type>
   <viewport>
    <southwest>
     <lat>52.4452156</lat>
     <lng>-1.8100014</lng>
    </southwest>
    <northeast>
     <lat>52.4495529</lat>
     <lng>-1.8065155</lng>
    </northeast>
   </viewport>
   <bounds>
    <southwest>
     <lat>52.4452156</lat>
     <lng>-1.8100014</lng>
    </southwest>
    <northeast>
     <lat>52.4495529</lat>
     <lng>-1.8065155</lng>
    </northeast>
   </bounds>
  </geometry>
  <partial_match>true</partial_match>
  <place_id>ChIJvViucjy6cEgRI7OVwlmYYIw</place_id>
 </result>
 <result>
  <type>premise</type>
  <formatted_address>Midland Buildings, Skegness Rd, Ingoldmells, Skegness, Lincolnshire PE25 1NP, UK</formatted_address>
  <address_component>
   <long_name>Midland Buildings</long_name>
   <short_name>Midland Buildings</short_name>
   <type>premise</type>
  </address_component>
  <address_component>
   <long_name>Skegness Road</long_name>
   <short_name>Skegness Rd</short_name>
   <type>route</type>
  </address_component>
  <address_component>
   <long_name>Ingoldmells</long_name>
   <short_name>Ingoldmells</short_name>
   <type>locality</type>
   <type>political</type>
  </address_component>
  <address_component>
   <long_name>Skegness</long_name>
   <short_name>Skegness</short_name>
   <type>postal_town</type>
  </address_component>
  <address_component>
   <long_name>Lincolnshire</long_name>
   <short_name>Lincolnshire</short_name>
   <type>administrative_area_level_2</type>
   <type>political</type>
  </address_component>
  <address_component>
   <long_name>United Kingdom</long_name>
   <short_name>GB</short_name>
   <type>country</type>
   <type>political</type>
  </address_component>
  <address_component>
   <long_name>PE25 1NP</long_name>
   <short_name>PE25 1NP</short_name>
   <type>postal_code</type>
  </address_component>
  <geometry>
   <location>
    <lat>53.1933728</lat>
    <lng>0.3345654</lng>
   </location>
   <location_type>ROOFTOP</location_type>
   <viewport>
    <southwest>
     <lat>53.1920238</lat>
     <lng>0.3332164</lng>
    </southwest>
    <northeast>
     <lat>53.1947218</lat>
     <lng>0.3359143</lng>
    </northeast>
   </viewport>
   <bounds>
    <southwest>
     <lat>53.1932000</lat>
     <lng>0.3344515</lng>
    </southwest>
    <northeast>
     <lat>53.1935456</lat>
     <lng>0.3346792</lng>
    </northeast>
   </bounds>
  </geometry>
  <partial_match>true</partial_match>
  <place_id>ChIJuZ87VUbG10cRYLriTsXqy4U</place_id>
 </result>
</GeocodeResponse>
