<?xml version="1.0" encoding="UTF-8"?>
<GeocodeResponse>
 <status>OK</status>
 <result>
  <type>route</type>
  <formatted_address>Route de Franche Comté, 52400 Bourbonne-les-Bains, France</formatted_address>
  <address_component>
   <long_name>Route de Franche Comté</long_name>
   <short_name>Route de Franche Comté</short_name>
   <type>route</type>
  </address_component>
  <address_component>
   <long_name>Bourbonne-les-Bains</long_name>
   <short_name>Bourbonne-les-Bains</short_name>
   <type>locality</type>
   <type>political</type>
  </address_component>
  <address_component>
   <long_name>Haute-Marne</long_name>
   <short_name>Haute-Marne</short_name>
   <type>administrative_area_level_2</type>
   <type>political</type>
  </address_component>
  <address_component>
   <long_name>Alsace-Champagne-Ardenne-Lorraine</long_name>
   <short_name>Alsace-Champagne-Ardenne-Lorraine</short_name>
   <type>administrative_area_level_1</type>
   <type>political</type>
  </address_component>
  <address_component>
   <long_name>France</long_name>
   <short_name>FR</short_name>
   <type>country</type>
   <type>political</type>
  </address_component>
  <address_component>
   <long_name>52400</long_name>
   <short_name>52400</short_name>
   <type>postal_code</type>
  </address_component>
  <geometry>
   <location>
    <lat>47.9475762</lat>
    <lng>5.7611666</lng>
   </location>
   <location_type>GEOMETRIC_CENTER</location_type>
   <viewport>
    <southwest>
     <lat>47.9394858</lat>
     <lng>5.7574420</lng>
    </southwest>
    <northeast>
     <lat>47.9535697</lat>
     <lng>5.7746570</lng>
    </northeast>
   </viewport>
   <bounds>
    <southwest>
     <lat>47.9394858</lat>
     <lng>5.7574420</lng>
    </southwest>
    <northeast>
     <lat>47.9535697</lat>
     <lng>5.7746570</lng>
    </northeast>
   </bounds>
  </geometry>
  <partial_match>true</partial_match>
  <place_id>ChIJDSTfGc4pk0cR6YeZjLmCJmY</place_id>
 </result>
 <result>
  <type>route</type>
  <formatted_address>Avenue de Franche Comté, 88340 Le Val-d'Ajol, France</formatted_address>
  <address_component>
   <long_name>Avenue de Franche Comté</long_name>
   <short_name>Avenue de Franche Comté</short_name>
   <type>route</type>
  </address_component>
  <address_component>
   <long_name>Le Val-d'Ajol</long_name>
   <short_name>Le Val-d'Ajol</short_name>
   <type>locality</type>
   <type>political</type>
  </address_component>
  <address_component>
   <long_name>Vosges</long_name>
   <short_name>Vosges</short_name>
   <type>administrative_area_level_2</type>
   <type>political</type>
  </address_component>
  <address_component>
   <long_name>Alsace-Champagne-Ardenne-Lorraine</long_name>
   <short_name>Alsace-Champagne-Ardenne-Lorraine</short_name>
   <type>administrative_area_level_1</type>
   <type>political</type>
  </address_component>
  <address_component>
   <long_name>France</long_name>
   <short_name>FR</short_name>
   <type>country</type>
   <type>political</type>
  </address_component>
  <address_component>
   <long_name>88340</long_name>
   <short_name>88340</short_name>
   <type>postal_code</type>
  </address_component>
  <geometry>
   <location>
    <lat>47.9574118</lat>
    <lng>6.4499740</lng>
   </location>
   <location_type>GEOMETRIC_CENTER</location_type>
   <viewport>
    <southwest>
     <lat>47.9540435</lat>
     <lng>6.4456133</lng>
    </southwest>
    <northeast>
     <lat>47.9612680</lat>
     <lng>6.4535273</lng>
    </northeast>
   </viewport>
   <bounds>
    <southwest>
     <lat>47.9540435</lat>
     <lng>6.4456133</lng>
    </southwest>
    <northeast>
     <lat>47.9612680</lat>
     <lng>6.4535273</lng>
    </northeast>
   </bounds>
  </geometry>
  <partial_match>true</partial_match>
  <place_id>ChIJjxIre7irk0cRGBgSwNd8vaU</place_id>
 </result>
 <result>
  <type>route</type>
  <formatted_address>Avenue de Franche Comté, 51200 Épernay, France</formatted_address>
  <address_component>
   <long_name>Avenue de Franche Comté</long_name>
   <short_name>Avenue de Franche Comté</short_name>
   <type>route</type>
  </address_component>
  <address_component>
   <long_name>Épernay</long_name>
   <short_name>Épernay</short_name>
   <type>locality</type>
   <type>political</type>
  </address_component>
  <address_component>
   <long_name>Marne</long_name>
   <short_name>Marne</short_name>
   <type>administrative_area_level_2</type>
   <type>political</type>
  </address_component>
  <address_component>
   <long_name>Alsace-Champagne-Ardenne-Lorraine</long_name>
   <short_name>Alsace-Champagne-Ardenne-Lorraine</short_name>
   <type>administrative_area_level_1</type>
   <type>political</type>
  </address_component>
  <address_component>
   <long_name>France</long_name>
   <short_name>FR</short_name>
   <type>country</type>
   <type>political</type>
  </address_component>
  <address_component>
   <long_name>51200</long_name>
   <short_name>51200</short_name>
   <type>postal_code</type>
  </address_component>
  <geometry>
   <location>
    <lat>49.0352729</lat>
    <lng>3.9608480</lng>
   </location>
   <location_type>GEOMETRIC_CENTER</location_type>
   <viewport>
    <southwest>
     <lat>49.0333675</lat>
     <lng>3.9566140</lng>
    </southwest>
    <northeast>
     <lat>49.0360655</lat>
     <lng>3.9637339</lng>
    </northeast>
   </viewport>
   <bounds>
    <southwest>
     <lat>49.0335830</lat>
     <lng>3.9566140</lng>
    </southwest>
    <northeast>
     <lat>49.0358500</lat>
     <lng>3.9637339</lng>
    </northeast>
   </bounds>
  </geometry>
  <partial_match>true</partial_match>
  <place_id>ChIJxd3rj0dr6UcR1fWGQfC79Kw</place_id>
 </result>
 <result>
  <type>route</type>
  <formatted_address>Rue de Franche Comté, 68270 Wittenheim, France</formatted_address>
  <address_component>
   <long_name>Rue de Franche Comté</long_name>
   <short_name>Rue de Franche Comté</short_name>
   <type>route</type>
  </address_component>
  <address_component>
   <long_name>Wittenheim</long_name>
   <short_name>Wittenheim</short_name>
   <type>locality</type>
   <type>political</type>
  </address_component>
  <address_component>
   <long_name>Haut-Rhin</long_name>
   <short_name>Haut-Rhin</short_name>
   <type>administrative_area_level_2</type>
   <type>political</type>
  </address_component>
  <address_component>
   <long_name>Alsace-Champagne-Ardenne-Lorraine</long_name>
   <short_name>Alsace-Champagne-Ardenne-Lorraine</short_name>
   <type>administrative_area_level_1</type>
   <type>political</type>
  </address_component>
  <address_component>
   <long_name>France</long_name>
   <short_name>FR</short_name>
   <type>country</type>
   <type>political</type>
  </address_component>
  <address_component>
   <long_name>68270</long_name>
   <short_name>68270</short_name>
   <type>postal_code</type>
  </address_component>
  <geometry>
   <location>
    <lat>47.8156020</lat>
    <lng>7.3225540</lng>
   </location>
   <location_type>GEOMETRIC_CENTER</location_type>
   <viewport>
    <southwest>
     <lat>47.8140701</lat>
     <lng>7.3183977</lng>
    </southwest>
    <northeast>
     <lat>47.8167681</lat>
     <lng>7.3270601</lng>
    </northeast>
   </viewport>
   <bounds>
    <southwest>
     <lat>47.8145664</lat>
     <lng>7.3183977</lng>
    </southwest>
    <northeast>
     <lat>47.8162718</lat>
     <lng>7.3270601</lng>
    </northeast>
   </bounds>
  </geometry>
  <partial_match>true</partial_match>
  <place_id>ChIJYd0Vii-dkUcRFNwNftPhMA4</place_id>
 </result>
 <result>
  <type>route</type>
  <formatted_address>Rue de Franche Comté, 67390 Marckolsheim, France</formatted_address>
  <address_component>
   <long_name>Rue de Franche Comté</long_name>
   <short_name>Rue de Franche Comté</short_name>
   <type>route</type>
  </address_component>
  <address_component>
   <long_name>Marckolsheim</long_name>
   <short_name>Marckolsheim</short_name>
   <type>locality</type>
   <type>political</type>
  </address_component>
  <address_component>
   <long_name>Bas-Rhin</long_name>
   <short_name>Bas-Rhin</short_name>
   <type>administrative_area_level_2</type>
   <type>political</type>
  </address_component>
  <address_component>
   <long_name>Alsace-Champagne-Ardenne-Lorraine</long_name>
   <short_name>Alsace-Champagne-Ardenne-Lorraine</short_name>
   <type>administrative_area_level_1</type>
   <type>political</type>
  </address_component>
  <address_component>
   <long_name>France</long_name>
   <short_name>FR</short_name>
   <type>country</type>
   <type>political</type>
  </address_component>
  <address_component>
   <long_name>67390</long_name>
   <short_name>67390</short_name>
   <type>postal_code</type>
  </address_component>
  <geometry>
   <location>
    <lat>48.1638040</lat>
    <lng>7.5398720</lng>
   </location>
   <location_type>GEOMETRIC_CENTER</location_type>
   <viewport>
    <southwest>
     <lat>48.1618948</lat>
     <lng>7.5385563</lng>
    </southwest>
    <northeast>
     <lat>48.1657198</lat>
     <lng>7.5412543</lng>
    </northeast>
   </viewport>
   <bounds>
    <southwest>
     <lat>48.1618948</lat>
     <lng>7.5386947</lng>
    </southwest>
    <northeast>
     <lat>48.1657198</lat>
     <lng>7.5411159</lng>
    </northeast>
   </bounds>
  </geometry>
  <partial_match>true</partial_match>
  <place_id>ChIJP0P6Xc5BkUcRY7LR_an3c-U</place_id>
 </result>
 <result>
  <type>route</type>
  <formatted_address>Rue de Franche Comté, 52250 Longeau-Percey, France</formatted_address>
  <address_component>
   <long_name>Rue de Franche Comté</long_name>
   <short_name>Rue de Franche Comté</short_name>
   <type>route</type>
  </address_component>
  <address_component>
   <long_name>Longeau-Percey</long_name>
   <short_name>Longeau-Percey</short_name>
   <type>locality</type>
   <type>political</type>
  </address_component>
  <address_component>
   <long_name>Haute-Marne</long_name>
   <short_name>Haute-Marne</short_name>
   <type>administrative_area_level_2</type>
   <type>political</type>
  </address_component>
  <address_component>
   <long_name>Alsace-Champagne-Ardenne-Lorraine</long_name>
   <short_name>Alsace-Champagne-Ardenne-Lorraine</short_name>
   <type>administrative_area_level_1</type>
   <type>political</type>
  </address_component>
  <address_component>
   <long_name>France</long_name>
   <short_name>FR</short_name>
   <type>country</type>
   <type>political</type>
  </address_component>
  <address_component>
   <long_name>52250</long_name>
   <short_name>52250</short_name>
   <type>postal_code</type>
  </address_component>
  <geometry>
   <location>
    <lat>47.7637560</lat>
    <lng>5.3118020</lng>
   </location>
   <location_type>GEOMETRIC_CENTER</location_type>
   <viewport>
    <southwest>
     <lat>47.7619383</lat>
     <lng>5.3096710</lng>
    </southwest>
    <northeast>
     <lat>47.7654661</lat>
     <lng>5.3135347</lng>
    </northeast>
   </viewport>
   <bounds>
    <southwest>
     <lat>47.7619383</lat>
     <lng>5.3096710</lng>
    </southwest>
    <northeast>
     <lat>47.7654661</lat>
     <lng>5.3135347</lng>
    </northeast>
   </bounds>
  </geometry>
  <partial_match>true</partial_match>
  <place_id>ChIJecuavYY87UcRQixe7hBLBW0</place_id>
 </result>
 <result>
  <type>route</type>
  <formatted_address>Rue de Franche Comté, 54500 Vandœuvre-lès-Nancy, France</formatted_address>
  <address_component>
   <long_name>Rue de Franche Comté</long_name>
   <short_name>Rue de Franche Comté</short_name>
   <type>route</type>
  </address_component>
  <address_component>
   <long_name>Vandœuvre-lès-Nancy</long_name>
   <short_name>Vandœuvre-lès-Nancy</short_name>
   <type>locality</type>
   <type>political</type>
  </address_component>
  <address_component>
   <long_name>Meurthe-et-Moselle</long_name>
   <short_name>Meurthe-et-Moselle</short_name>
   <type>administrative_area_level_2</type>
   <type>political</type>
  </address_component>
  <address_component>
   <long_name>Alsace-Champagne-Ardenne-Lorraine</long_name>
   <short_name>Alsace-Champagne-Ardenne-Lorraine</short_name>
   <type>administrative_area_level_1</type>
   <type>political</type>
  </address_component>
  <address_component>
   <long_name>France</long_name>
   <short_name>FR</short_name>
   <type>country</type>
   <type>political</type>
  </address_component>
  <address_component>
   <long_name>54500</long_name>
   <short_name>54500</short_name>
   <type>postal_code</type>
  </address_component>
  <geometry>
   <location>
    <lat>48.6505519</lat>
    <lng>6.1550632</lng>
   </location>
   <location_type>GEOMETRIC_CENTER</location_type>
   <viewport>
    <southwest>
     <lat>48.6489750</lat>
     <lng>6.1535846</lng>
    </southwest>
    <northeast>
     <lat>48.6516730</lat>
     <lng>6.1562826</lng>
    </northeast>
   </viewport>
   <bounds>
    <southwest>
     <lat>48.6492610</lat>
     <lng>6.1536860</lng>
    </southwest>
    <northeast>
     <lat>48.6513870</lat>
     <lng>6.1561812</lng>
    </northeast>
   </bounds>
  </geometry>
  <partial_match>true</partial_match>
  <place_id>ChIJF2DxYQmilEcRW7b-LEM24j0</place_id>
 </result>
 <result>
  <type>route</type>
  <formatted_address>Rue de Franche Comté, 67380 Lingolsheim, France</formatted_address>
  <address_component>
   <long_name>Rue de Franche Comté</long_name>
   <short_name>Rue de Franche Comté</short_name>
   <type>route</type>
  </address_component>
  <address_component>
   <long_name>Lingolsheim</long_name>
   <short_name>Lingolsheim</short_name>
   <type>locality</type>
   <type>political</type>
  </address_component>
  <address_component>
   <long_name>Bas-Rhin</long_name>
   <short_name>Bas-Rhin</short_name>
   <type>administrative_area_level_2</type>
   <type>political</type>
  </address_component>
  <address_component>
   <long_name>Alsace-Champagne-Ardenne-Lorraine</long_name>
   <short_name>Alsace-Champagne-Ardenne-Lorraine</short_name>
   <type>administrative_area_level_1</type>
   <type>political</type>
  </address_component>
  <address_component>
   <long_name>France</long_name>
   <short_name>FR</short_name>
   <type>country</type>
   <type>political</type>
  </address_component>
  <address_component>
   <long_name>67380</long_name>
   <short_name>67380</short_name>
   <type>postal_code</type>
  </address_component>
  <geometry>
   <location>
    <lat>48.5655902</lat>
    <lng>7.6877165</lng>
   </location>
   <location_type>GEOMETRIC_CENTER</location_type>
   <viewport>
    <southwest>
     <lat>48.5637245</lat>
     <lng>7.6858459</lng>
    </southwest>
    <northeast>
     <lat>48.5664225</lat>
     <lng>7.6885474</lng>
    </northeast>
   </viewport>
   <bounds>
    <southwest>
     <lat>48.5640903</lat>
     <lng>7.6858459</lng>
    </southwest>
    <northeast>
     <lat>48.5660567</lat>
     <lng>7.6885474</lng>
    </northeast>
   </bounds>
  </geometry>
  <partial_match>true</partial_match>
  <place_id>ChIJwcrA2j22lkcRdKNN8Hmj4-k</place_id>
 </result>
 <result>
  <type>route</type>
  <formatted_address>Rue de Franche Comté, 68390 Baldersheim, France</formatted_address>
  <address_component>
   <long_name>Rue de Franche Comté</long_name>
   <short_name>Rue de Franche Comté</short_name>
   <type>route</type>
  </address_component>
  <address_component>
   <long_name>Baldersheim</long_name>
   <short_name>Baldersheim</short_name>
   <type>locality</type>
   <type>political</type>
  </address_component>
  <address_component>
   <long_name>Haut-Rhin</long_name>
   <short_name>Haut-Rhin</short_name>
   <type>administrative_area_level_2</type>
   <type>political</type>
  </address_component>
  <address_component>
   <long_name>Alsace-Champagne-Ardenne-Lorraine</long_name>
   <short_name>Alsace-Champagne-Ardenne-Lorraine</short_name>
   <type>administrative_area_level_1</type>
   <type>political</type>
  </address_component>
  <address_component>
   <long_name>France</long_name>
   <short_name>FR</short_name>
   <type>country</type>
   <type>political</type>
  </address_component>
  <address_component>
   <long_name>68390</long_name>
   <short_name>68390</short_name>
   <type>postal_code</type>
  </address_component>
  <geometry>
   <location>
    <lat>47.7962140</lat>
    <lng>7.3828825</lng>
   </location>
   <location_type>GEOMETRIC_CENTER</location_type>
   <viewport>
    <southwest>
     <lat>47.7947537</lat>
     <lng>7.3815229</lng>
    </southwest>
    <northeast>
     <lat>47.7974516</lat>
     <lng>7.3843714</lng>
    </northeast>
   </viewport>
   <bounds>
    <southwest>
     <lat>47.7957036</lat>
     <lng>7.3815229</lng>
    </southwest>
    <northeast>
     <lat>47.7965017</lat>
     <lng>7.3843714</lng>
    </northeast>
   </bounds>
  </geometry>
  <partial_match>true</partial_match>
  <place_id>ChIJ-bxY2TackUcRCq86AzrjuEk</place_id>
 </result>
 <result>
  <type>route</type>
  <formatted_address>Impasse de Franche Comté, 57970 Yutz, France</formatted_address>
  <address_component>
   <long_name>Impasse de Franche Comté</long_name>
   <short_name>Impasse de Franche Comté</short_name>
   <type>route</type>
  </address_component>
  <address_component>
   <long_name>Yutz</long_name>
   <short_name>Yutz</short_name>
   <type>locality</type>
   <type>political</type>
  </address_component>
  <address_component>
   <long_name>Moselle</long_name>
   <short_name>Moselle</short_name>
   <type>administrative_area_level_2</type>
   <type>political</type>
  </address_component>
  <address_component>
   <long_name>Alsace-Champagne-Ardenne-Lorraine</long_name>
   <short_name>Alsace-Champagne-Ardenne-Lorraine</short_name>
   <type>administrative_area_level_1</type>
   <type>political</type>
  </address_component>
  <address_component>
   <long_name>France</long_name>
   <short_name>FR</short_name>
   <type>country</type>
   <type>political</type>
  </address_component>
  <address_component>
   <long_name>57970</long_name>
   <short_name>57970</short_name>
   <type>postal_code</type>
  </address_component>
  <geometry>
   <location>
    <lat>49.3509760</lat>
    <lng>6.1818330</lng>
   </location>
   <location_type>GEOMETRIC_CENTER</location_type>
   <viewport>
    <southwest>
     <lat>49.3494240</lat>
     <lng>6.1802675</lng>
    </southwest>
    <northeast>
     <lat>49.3521220</lat>
     <lng>6.1829655</lng>
    </northeast>
   </viewport>
   <bounds>
    <southwest>
     <lat>49.3500360</lat>
     <lng>6.1804420</lng>
    </southwest>
    <northeast>
     <lat>49.3515100</lat>
     <lng>6.1827910</lng>
    </northeast>
   </bounds>
  </geometry>
  <partial_match>true</partial_match>
  <place_id>ChIJVybotsUklUcRPQG-rd_1NBE</place_id>
 </result>
</GeocodeResponse>
