<?xml version="1.0" encoding="UTF-8"?>
<GeocodeResponse>
 <status>OK</status>
 <result>
  <type>locality</type>
  <type>political</type>
  <formatted_address>Heves, Hungary</formatted_address>
  <address_component>
   <long_name>Heves</long_name>
   <short_name>Heves</short_name>
   <type>locality</type>
   <type>political</type>
  </address_component>
  <address_component>
   <long_name>Hevesi</long_name>
   <short_name>Hevesi</short_name>
   <type>administrative_area_level_2</type>
   <type>political</type>
  </address_component>
  <address_component>
   <long_name>Heves County</long_name>
   <short_name>Heves County</short_name>
   <type>administrative_area_level_1</type>
   <type>political</type>
  </address_component>
  <address_component>
   <long_name>Hungary</long_name>
   <short_name>HU</short_name>
   <type>country</type>
   <type>political</type>
  </address_component>
  <geometry>
   <location>
    <lat>47.5971694</lat>
    <lng>20.2801560</lng>
   </location>
   <location_type>APPROXIMATE</location_type>
   <viewport>
    <southwest>
     <lat>47.5281970</lat>
     <lng>20.2086710</lng>
    </southwest>
    <northeast>
     <lat>47.6712580</lat>
     <lng>20.3831291</lng>
    </northeast>
   </viewport>
   <bounds>
    <southwest>
     <lat>47.5281970</lat>
     <lng>20.2086710</lng>
    </southwest>
    <northeast>
     <lat>47.6712580</lat>
     <lng>20.3831291</lng>
    </northeast>
   </bounds>
  </geometry>
  <place_id>ChIJxTO872HhQEcRABceDCnEAAQ</place_id>
 </result>
 <result>
  <type>neighborhood</type>
  <type>political</type>
  <formatted_address>Füzesabony, Észak, 3390 Hungary</formatted_address>
  <address_component>
   <long_name>Észak</long_name>
   <short_name>Észak</short_name>
   <type>neighborhood</type>
   <type>political</type>
  </address_component>
  <address_component>
   <long_name>Füzesabony</long_name>
   <short_name>Füzesabony</short_name>
   <type>locality</type>
   <type>political</type>
  </address_component>
  <address_component>
   <long_name>Füzesabonyi</long_name>
   <short_name>Füzesabonyi</short_name>
   <type>administrative_area_level_2</type>
   <type>political</type>
  </address_component>
  <address_component>
   <long_name>Heves County</long_name>
   <short_name>Heves County</short_name>
   <type>administrative_area_level_1</type>
   <type>political</type>
  </address_component>
  <address_component>
   <long_name>Hungary</long_name>
   <short_name>HU</short_name>
   <type>country</type>
   <type>political</type>
  </address_component>
  <address_component>
   <long_name>3390</long_name>
   <short_name>3390</short_name>
   <type>postal_code</type>
  </address_component>
  <geometry>
   <location>
    <lat>47.7554769</lat>
    <lng>20.4071553</lng>
   </location>
   <location_type>APPROXIMATE</location_type>
   <viewport>
    <southwest>
     <lat>47.7505671</lat>
     <lng>20.3968379</lng>
    </southwest>
    <northeast>
     <lat>47.7638989</lat>
     <lng>20.4236081</lng>
    </northeast>
   </viewport>
   <bounds>
    <southwest>
     <lat>47.7505671</lat>
     <lng>20.3968379</lng>
    </southwest>
    <northeast>
     <lat>47.7638989</lat>
     <lng>20.4236081</lng>
    </northeast>
   </bounds>
  </geometry>
  <place_id>ChIJeZbz_bDuQEcRYeX_CkctxXM</place_id>
 </result>
</GeocodeResponse>
