<?xml version="1.0" encoding="UTF-8"?>
<GeocodeResponse>
 <status>OK</status>
 <result>
  <type>sublocality_level_1</type>
  <type>sublocality</type>
  <type>political</type>
  <formatted_address>Amsterdam-Noord, Amsterdam, Netherlands</formatted_address>
  <address_component>
   <long_name>Amsterdam-Noord</long_name>
   <short_name>Amsterdam-Noord</short_name>
   <type>sublocality_level_1</type>
   <type>sublocality</type>
   <type>political</type>
  </address_component>
  <address_component>
   <long_name>Amsterdam</long_name>
   <short_name>Amsterdam</short_name>
   <type>locality</type>
   <type>political</type>
  </address_component>
  <address_component>
   <long_name>Government of Amsterdam</long_name>
   <short_name>Government of Amsterdam</short_name>
   <type>administrative_area_level_2</type>
   <type>political</type>
  </address_component>
  <address_component>
   <long_name>North Holland</long_name>
   <short_name>NH</short_name>
   <type>administrative_area_level_1</type>
   <type>political</type>
  </address_component>
  <address_component>
   <long_name>Netherlands</long_name>
   <short_name>NL</short_name>
   <type>country</type>
   <type>political</type>
  </address_component>
  <geometry>
   <location>
    <lat>52.3957280</lat>
    <lng>4.9662103</lng>
   </location>
   <location_type>APPROXIMATE</location_type>
   <viewport>
    <southwest>
     <lat>52.3725610</lat>
     <lng>4.8559710</lng>
    </southwest>
    <northeast>
     <lat>52.4307890</lat>
     <lng>5.0685469</lng>
    </northeast>
   </viewport>
   <bounds>
    <southwest>
     <lat>52.3725610</lat>
     <lng>4.8559710</lng>
    </southwest>
    <northeast>
     <lat>52.4307890</lat>
     <lng>5.0685469</lng>
    </northeast>
   </bounds>
  </geometry>
  <partial_match>true</partial_match>
  <place_id>ChIJY4PmrcUIxkcR6xaLg0CmtNM</place_id>
 </result>
 <result>
  <type>locality</type>
  <type>political</type>
  <formatted_address>1031 Noord, Netherlands</formatted_address>
  <address_component>
   <long_name>Noord</long_name>
   <short_name>Noord</short_name>
   <type>locality</type>
   <type>political</type>
  </address_component>
  <address_component>
   <long_name>Amsterdam</long_name>
   <short_name>Amsterdam</short_name>
   <type>administrative_area_level_2</type>
   <type>political</type>
  </address_component>
  <address_component>
   <long_name>Noord-Holland</long_name>
   <short_name>NH</short_name>
   <type>administrative_area_level_1</type>
   <type>political</type>
  </address_component>
  <address_component>
   <long_name>Netherlands</long_name>
   <short_name>NL</short_name>
   <type>country</type>
   <type>political</type>
  </address_component>
  <address_component>
   <long_name>1031</long_name>
   <short_name>1031</short_name>
   <type>postal_code_prefix</type>
   <type>postal_code</type>
  </address_component>
  <geometry>
   <location>
    <lat>52.3910158</lat>
    <lng>4.9112709</lng>
   </location>
   <location_type>APPROXIMATE</location_type>
   <viewport>
    <southwest>
     <lat>52.3896668</lat>
     <lng>4.9099219</lng>
    </southwest>
    <northeast>
     <lat>52.3923648</lat>
     <lng>4.9126199</lng>
    </northeast>
   </viewport>
  </geometry>
  <partial_match>true</partial_match>
  <place_id>ChIJPXH4kU0IxkcRSEv5OQ15Sfo</place_id>
 </result>
</GeocodeResponse>
