<?xml version="1.0" encoding="UTF-8"?>
<GeocodeResponse>
 <status>OK</status>
 <result>
  <type>administrative_area_level_2</type>
  <type>political</type>
  <formatted_address>Iğdır Merkez/Iğdır, Turkey</formatted_address>
  <address_component>
   <long_name>Iğdır Merkez</long_name>
   <short_name>Iğdır Merkez</short_name>
   <type>administrative_area_level_2</type>
   <type>political</type>
  </address_component>
  <address_component>
   <long_name>Iğdır</long_name>
   <short_name>Iğdır</short_name>
   <type>administrative_area_level_1</type>
   <type>political</type>
  </address_component>
  <address_component>
   <long_name>Turkey</long_name>
   <short_name>TR</short_name>
   <type>country</type>
   <type>political</type>
  </address_component>
  <geometry>
   <location>
    <lat>39.8879841</lat>
    <lng>44.0048365</lng>
   </location>
   <location_type>APPROXIMATE</location_type>
   <viewport>
    <southwest>
     <lat>39.6687298</lat>
     <lng>43.7091110</lng>
    </southwest>
    <northeast>
     <lat>40.0619340</lat>
     <lng>44.3417811</lng>
    </northeast>
   </viewport>
   <bounds>
    <southwest>
     <lat>39.6687298</lat>
     <lng>43.7091110</lng>
    </southwest>
    <northeast>
     <lat>40.0619340</lat>
     <lng>44.3417811</lng>
    </northeast>
   </bounds>
  </geometry>
  <partial_match>true</partial_match>
  <place_id>ChIJsRZH_DAka0ARcGBxNkffiSk</place_id>
 </result>
 <result>
  <type>administrative_area_level_2</type>
  <type>political</type>
  <formatted_address>Ağrı Merkez/Ağrı, Turkey</formatted_address>
  <address_component>
   <long_name>Ağrı Merkez</long_name>
   <short_name>Ağrı Merkez</short_name>
   <type>administrative_area_level_2</type>
   <type>political</type>
  </address_component>
  <address_component>
   <long_name>Ağrı</long_name>
   <short_name>Ağrı</short_name>
   <type>administrative_area_level_1</type>
   <type>political</type>
  </address_component>
  <address_component>
   <long_name>Turkey</long_name>
   <short_name>TR</short_name>
   <type>country</type>
   <type>political</type>
  </address_component>
  <geometry>
   <location>
    <lat>39.7928954</lat>
    <lng>43.1795757</lng>
   </location>
   <location_type>APPROXIMATE</location_type>
   <viewport>
    <southwest>
     <lat>39.5589720</lat>
     <lng>42.8516340</lng>
    </southwest>
    <northeast>
     <lat>39.9979630</lat>
     <lng>43.4276088</lng>
    </northeast>
   </viewport>
   <bounds>
    <southwest>
     <lat>39.5589720</lat>
     <lng>42.8516340</lng>
    </southwest>
    <northeast>
     <lat>39.9979630</lat>
     <lng>43.4276088</lng>
    </northeast>
   </bounds>
  </geometry>
  <partial_match>true</partial_match>
  <place_id>ChIJE2OEXYR-a0ARX2eT2ACNKgw</place_id>
 </result>
</GeocodeResponse>
