<?xml version="1.0" encoding="UTF-8"?>
<GeocodeResponse>
 <status>OK</status>
 <result>
  <type>premise</type>
  <formatted_address>FN Byen, Marmorvej 51, 2100 København, Denmark</formatted_address>
  <address_component>
   <long_name>FN Byen</long_name>
   <short_name>FN Byen</short_name>
   <type>premise</type>
  </address_component>
  <address_component>
   <long_name>51</long_name>
   <short_name>51</short_name>
   <type>street_number</type>
  </address_component>
  <address_component>
   <long_name>Marmorvej</long_name>
   <short_name>Marmorvej</short_name>
   <type>route</type>
  </address_component>
  <address_component>
   <long_name>København Ø</long_name>
   <short_name>København Ø</short_name>
   <type>sublocality_level_1</type>
   <type>sublocality</type>
   <type>political</type>
  </address_component>
  <address_component>
   <long_name>København</long_name>
   <short_name>København</short_name>
   <type>locality</type>
   <type>political</type>
  </address_component>
  <address_component>
   <long_name>København</long_name>
   <short_name>København</short_name>
   <type>administrative_area_level_2</type>
   <type>political</type>
  </address_component>
  <address_component>
   <long_name>Capital Region of Denmark</long_name>
   <short_name>Capital Region of Denmark</short_name>
   <type>administrative_area_level_1</type>
   <type>political</type>
  </address_component>
  <address_component>
   <long_name>Denmark</long_name>
   <short_name>DK</short_name>
   <type>country</type>
   <type>political</type>
  </address_component>
  <address_component>
   <long_name>2100</long_name>
   <short_name>2100</short_name>
   <type>postal_code</type>
  </address_component>
  <geometry>
   <location>
    <lat>55.7046202</lat>
    <lng>12.5978021</lng>
   </location>
   <location_type>ROOFTOP</location_type>
   <viewport>
    <southwest>
     <lat>55.7032712</lat>
     <lng>12.5964531</lng>
    </southwest>
    <northeast>
     <lat>55.7059692</lat>
     <lng>12.5991511</lng>
    </northeast>
   </viewport>
   <bounds>
    <southwest>
     <lat>55.7039768</lat>
     <lng>12.5965605</lng>
    </southwest>
    <northeast>
     <lat>55.7052636</lat>
     <lng>12.5990437</lng>
    </northeast>
   </bounds>
  </geometry>
  <partial_match>true</partial_match>
  <place_id>ChIJ1xXfyulSUkYRNS5OC6NLaH4</place_id>
 </result>
 <result>
  <type>route</type>
  <formatted_address>Gyngemose Parkvej, 2860 Herlev, Denmark</formatted_address>
  <address_component>
   <long_name>Gyngemose Parkvej</long_name>
   <short_name>Gyngemose Parkvej</short_name>
   <type>route</type>
  </address_component>
  <address_component>
   <long_name>Herlev</long_name>
   <short_name>Herlev</short_name>
   <type>locality</type>
   <type>political</type>
  </address_component>
  <address_component>
   <long_name>Gladsaxe Municipality</long_name>
   <short_name>Gladsaxe Municipality</short_name>
   <type>administrative_area_level_2</type>
   <type>political</type>
  </address_component>
  <address_component>
   <long_name>Denmark</long_name>
   <short_name>DK</short_name>
   <type>country</type>
   <type>political</type>
  </address_component>
  <address_component>
   <long_name>2860</long_name>
   <short_name>2860</short_name>
   <type>postal_code</type>
  </address_component>
  <geometry>
   <location>
    <lat>55.7261292</lat>
    <lng>12.4754377</lng>
   </location>
   <location_type>GEOMETRIC_CENTER</location_type>
   <viewport>
    <southwest>
     <lat>55.7249371</lat>
     <lng>12.4740937</lng>
    </southwest>
    <northeast>
     <lat>55.7276350</lat>
     <lng>12.4767916</lng>
    </northeast>
   </viewport>
   <bounds>
    <southwest>
     <lat>55.7252542</lat>
     <lng>12.4747430</lng>
    </southwest>
    <northeast>
     <lat>55.7273179</lat>
     <lng>12.4761423</lng>
    </northeast>
   </bounds>
  </geometry>
  <partial_match>true</partial_match>
  <place_id>ChIJ9z1XHcBRUkYRAS_KAOTNI9c</place_id>
 </result>
 <result>
  <type>bus_station</type>
  <type>transit_station</type>
  <type>point_of_interest</type>
  <type>establishment</type>
  <formatted_address>FN Byen, 2100 København, Denmark</formatted_address>
  <address_component>
   <long_name>FN Byen</long_name>
   <short_name>FN Byen</short_name>
   <type>point_of_interest</type>
   <type>establishment</type>
  </address_component>
  <address_component>
   <long_name>København Ø</long_name>
   <short_name>København Ø</short_name>
   <type>sublocality_level_1</type>
   <type>sublocality</type>
   <type>political</type>
  </address_component>
  <address_component>
   <long_name>København</long_name>
   <short_name>København</short_name>
   <type>locality</type>
   <type>political</type>
  </address_component>
  <address_component>
   <long_name>København</long_name>
   <short_name>København</short_name>
   <type>administrative_area_level_2</type>
   <type>political</type>
  </address_component>
  <address_component>
   <long_name>Denmark</long_name>
   <short_name>DK</short_name>
   <type>country</type>
   <type>political</type>
  </address_component>
  <address_component>
   <long_name>2100</long_name>
   <short_name>2100</short_name>
   <type>postal_code</type>
  </address_component>
  <geometry>
   <location>
    <lat>55.7037600</lat>
    <lng>12.5919710</lng>
   </location>
   <location_type>APPROXIMATE</location_type>
   <viewport>
    <southwest>
     <lat>55.7024110</lat>
     <lng>12.5906220</lng>
    </southwest>
    <northeast>
     <lat>55.7051090</lat>
     <lng>12.5933200</lng>
    </northeast>
   </viewport>
  </geometry>
  <partial_match>true</partial_match>
  <place_id>ChIJ_5weuOhSUkYR8OBLdzJ_HPw</place_id>
 </result>
 <result>
  <type>bus_station</type>
  <type>transit_station</type>
  <type>point_of_interest</type>
  <type>establishment</type>
  <formatted_address>DR Byen St., 2300 København, Denmark</formatted_address>
  <address_component>
   <long_name>DR Byen St.</long_name>
   <short_name>DR Byen St.</short_name>
   <type>point_of_interest</type>
   <type>establishment</type>
  </address_component>
  <address_component>
   <long_name>København S</long_name>
   <short_name>København S</short_name>
   <type>sublocality_level_1</type>
   <type>sublocality</type>
   <type>political</type>
  </address_component>
  <address_component>
   <long_name>København</long_name>
   <short_name>København</short_name>
   <type>locality</type>
   <type>political</type>
  </address_component>
  <address_component>
   <long_name>København</long_name>
   <short_name>København</short_name>
   <type>administrative_area_level_2</type>
   <type>political</type>
  </address_component>
  <address_component>
   <long_name>Denmark</long_name>
   <short_name>DK</short_name>
   <type>country</type>
   <type>political</type>
  </address_component>
  <address_component>
   <long_name>2300</long_name>
   <short_name>2300</short_name>
   <type>postal_code</type>
  </address_component>
  <geometry>
   <location>
    <lat>55.6554383</lat>
    <lng>12.5882715</lng>
   </location>
   <location_type>APPROXIMATE</location_type>
   <viewport>
    <southwest>
     <lat>55.6540893</lat>
     <lng>12.5869225</lng>
    </southwest>
    <northeast>
     <lat>55.6567873</lat>
     <lng>12.5896205</lng>
    </northeast>
   </viewport>
  </geometry>
  <partial_match>true</partial_match>
  <place_id>ChIJz9VmA1tTUkYRhAI4WjdeDEs</place_id>
 </result>
 <result>
  <type>subway_station</type>
  <type>transit_station</type>
  <type>point_of_interest</type>
  <type>establishment</type>
  <formatted_address>DR Byen St. (Metro), 2300 København, Denmark</formatted_address>
  <address_component>
   <long_name>DR Byen St. (Metro)</long_name>
   <short_name>DR Byen St. (Metro)</short_name>
   <type>point_of_interest</type>
   <type>establishment</type>
  </address_component>
  <address_component>
   <long_name>København S</long_name>
   <short_name>København S</short_name>
   <type>sublocality_level_1</type>
   <type>sublocality</type>
   <type>political</type>
  </address_component>
  <address_component>
   <long_name>København</long_name>
   <short_name>København</short_name>
   <type>locality</type>
   <type>political</type>
  </address_component>
  <address_component>
   <long_name>København</long_name>
   <short_name>København</short_name>
   <type>administrative_area_level_2</type>
   <type>political</type>
  </address_component>
  <address_component>
   <long_name>Denmark</long_name>
   <short_name>DK</short_name>
   <type>country</type>
   <type>political</type>
  </address_component>
  <address_component>
   <long_name>2300</long_name>
   <short_name>2300</short_name>
   <type>postal_code</type>
  </address_component>
  <geometry>
   <location>
    <lat>55.6558129</lat>
    <lng>12.5889897</lng>
   </location>
   <location_type>APPROXIMATE</location_type>
   <viewport>
    <southwest>
     <lat>55.6544639</lat>
     <lng>12.5876407</lng>
    </southwest>
    <northeast>
     <lat>55.6571619</lat>
     <lng>12.5903387</lng>
    </northeast>
   </viewport>
  </geometry>
  <partial_match>true</partial_match>
  <place_id>ChIJzXwC4lpTUkYRmoQayb-dbxA</place_id>
 </result>
</GeocodeResponse>
