<?xml version="1.0" encoding="UTF-8"?>
<GeocodeResponse>
 <status>OK</status>
 <result>
  <type>route</type>
  <formatted_address>South St, Eastwood, Nottingham, Nottinghamshire NG16 3PF, UK</formatted_address>
  <address_component>
   <long_name>South Street</long_name>
   <short_name>South St</short_name>
   <type>route</type>
  </address_component>
  <address_component>
   <long_name>Eastwood</long_name>
   <short_name>Eastwood</short_name>
   <type>locality</type>
   <type>political</type>
  </address_component>
  <address_component>
   <long_name>Nottingham</long_name>
   <short_name>Nottingham</short_name>
   <type>postal_town</type>
  </address_component>
  <address_component>
   <long_name>Nottinghamshire</long_name>
   <short_name>Nottinghamshire</short_name>
   <type>administrative_area_level_2</type>
   <type>political</type>
  </address_component>
  <address_component>
   <long_name>United Kingdom</long_name>
   <short_name>GB</short_name>
   <type>country</type>
   <type>political</type>
  </address_component>
  <address_component>
   <long_name>NG16 3PF</long_name>
   <short_name>NG16 3PF</short_name>
   <type>postal_code</type>
  </address_component>
  <geometry>
   <location>
    <lat>53.0145096</lat>
    <lng>-1.3126809</lng>
   </location>
   <location_type>GEOMETRIC_CENTER</location_type>
   <viewport>
    <southwest>
     <lat>53.0125436</lat>
     <lng>-1.3158759</lng>
    </southwest>
    <northeast>
     <lat>53.0164965</lat>
     <lng>-1.3087786</lng>
    </northeast>
   </viewport>
   <bounds>
    <southwest>
     <lat>53.0125436</lat>
     <lng>-1.3158759</lng>
    </southwest>
    <northeast>
     <lat>53.0164965</lat>
     <lng>-1.3087786</lng>
    </northeast>
   </bounds>
  </geometry>
  <partial_match>true</partial_match>
  <place_id>ChIJSbzT4ZjseUgR3illtbZaawU</place_id>
 </result>
 <result>
  <type>route</type>
  <formatted_address>South St, Riddings, Alfreton, Derbyshire DE55 4EJ, UK</formatted_address>
  <address_component>
   <long_name>South Street</long_name>
   <short_name>South St</short_name>
   <type>route</type>
  </address_component>
  <address_component>
   <long_name>Riddings</long_name>
   <short_name>Riddings</short_name>
   <type>locality</type>
   <type>political</type>
  </address_component>
  <address_component>
   <long_name>Alfreton</long_name>
   <short_name>Alfreton</short_name>
   <type>postal_town</type>
  </address_component>
  <address_component>
   <long_name>Derbyshire</long_name>
   <short_name>Derbyshire</short_name>
   <type>administrative_area_level_2</type>
   <type>political</type>
  </address_component>
  <address_component>
   <long_name>United Kingdom</long_name>
   <short_name>GB</short_name>
   <type>country</type>
   <type>political</type>
  </address_component>
  <address_component>
   <long_name>DE55 4EJ</long_name>
   <short_name>DE55 4EJ</short_name>
   <type>postal_code</type>
  </address_component>
  <geometry>
   <location>
    <lat>53.0668524</lat>
    <lng>-1.3665775</lng>
   </location>
   <location_type>GEOMETRIC_CENTER</location_type>
   <viewport>
    <southwest>
     <lat>53.0654392</lat>
     <lng>-1.3681349</lng>
    </southwest>
    <northeast>
     <lat>53.0681372</lat>
     <lng>-1.3654369</lng>
    </northeast>
   </viewport>
   <bounds>
    <southwest>
     <lat>53.0665500</lat>
     <lng>-1.3680581</lng>
    </southwest>
    <northeast>
     <lat>53.0670264</lat>
     <lng>-1.3655137</lng>
    </northeast>
   </bounds>
  </geometry>
  <partial_match>true</partial_match>
  <place_id>ChIJAbXPTeSSeUgRIB8FrVdIcmc</place_id>
 </result>
 <result>
  <type>route</type>
  <formatted_address>South Rd, Beeston, Nottingham, Nottinghamshire NG9 1LY, UK</formatted_address>
  <address_component>
   <long_name>South Road</long_name>
   <short_name>South Rd</short_name>
   <type>route</type>
  </address_component>
  <address_component>
   <long_name>Beeston</long_name>
   <short_name>Beeston</short_name>
   <type>locality</type>
   <type>political</type>
  </address_component>
  <address_component>
   <long_name>Nottingham</long_name>
   <short_name>Nottingham</short_name>
   <type>postal_town</type>
  </address_component>
  <address_component>
   <long_name>Nottinghamshire</long_name>
   <short_name>Nottinghamshire</short_name>
   <type>administrative_area_level_2</type>
   <type>political</type>
  </address_component>
  <address_component>
   <long_name>United Kingdom</long_name>
   <short_name>GB</short_name>
   <type>country</type>
   <type>political</type>
  </address_component>
  <address_component>
   <long_name>NG9 1LY</long_name>
   <short_name>NG9 1LY</short_name>
   <type>postal_code</type>
  </address_component>
  <geometry>
   <location>
    <lat>52.9147453</lat>
    <lng>-1.2054989</lng>
   </location>
   <location_type>GEOMETRIC_CENTER</location_type>
   <viewport>
    <southwest>
     <lat>52.9131937</lat>
     <lng>-1.2066182</lng>
    </southwest>
    <northeast>
     <lat>52.9158917</lat>
     <lng>-1.2039203</lng>
    </northeast>
   </viewport>
   <bounds>
    <southwest>
     <lat>52.9134217</lat>
     <lng>-1.2063781</lng>
    </southwest>
    <northeast>
     <lat>52.9156637</lat>
     <lng>-1.2041604</lng>
    </northeast>
   </bounds>
  </geometry>
  <partial_match>true</partial_match>
  <place_id>ChIJUxpCjtPpeUgRud1wSjuorEw</place_id>
 </result>
 <result>
  <type>route</type>
  <formatted_address>South St, Ilkeston, Derbyshire DE7 5QJ, UK</formatted_address>
  <address_component>
   <long_name>South Street</long_name>
   <short_name>South St</short_name>
   <type>route</type>
  </address_component>
  <address_component>
   <long_name>Ilkeston</long_name>
   <short_name>Ilkeston</short_name>
   <type>locality</type>
   <type>political</type>
  </address_component>
  <address_component>
   <long_name>Ilkeston</long_name>
   <short_name>Ilkeston</short_name>
   <type>postal_town</type>
  </address_component>
  <address_component>
   <long_name>Derbyshire</long_name>
   <short_name>Derbyshire</short_name>
   <type>administrative_area_level_2</type>
   <type>political</type>
  </address_component>
  <address_component>
   <long_name>United Kingdom</long_name>
   <short_name>GB</short_name>
   <type>country</type>
   <type>political</type>
  </address_component>
  <address_component>
   <long_name>DE7 5QJ</long_name>
   <short_name>DE7 5QJ</short_name>
   <type>postal_code</type>
  </address_component>
  <geometry>
   <location>
    <lat>52.9688117</lat>
    <lng>-1.3089083</lng>
   </location>
   <location_type>GEOMETRIC_CENTER</location_type>
   <viewport>
    <southwest>
     <lat>52.9675575</lat>
     <lng>-1.3105599</lng>
    </southwest>
    <northeast>
     <lat>52.9702730</lat>
     <lng>-1.3078620</lng>
    </northeast>
   </viewport>
   <bounds>
    <southwest>
     <lat>52.9675575</lat>
     <lng>-1.3104152</lng>
    </southwest>
    <northeast>
     <lat>52.9702730</lat>
     <lng>-1.3080067</lng>
    </northeast>
   </bounds>
  </geometry>
  <partial_match>true</partial_match>
  <place_id>ChIJa-D6AQzseUgRxhlddOheUro</place_id>
 </result>
 <result>
  <type>route</type>
  <formatted_address>South St, South Normanton, Alfreton, Derbyshire DE55 2DA, UK</formatted_address>
  <address_component>
   <long_name>South Street</long_name>
   <short_name>South St</short_name>
   <type>route</type>
  </address_component>
  <address_component>
   <long_name>South Normanton</long_name>
   <short_name>South Normanton</short_name>
   <type>locality</type>
   <type>political</type>
  </address_component>
  <address_component>
   <long_name>Alfreton</long_name>
   <short_name>Alfreton</short_name>
   <type>postal_town</type>
  </address_component>
  <address_component>
   <long_name>Derbyshire</long_name>
   <short_name>Derbyshire</short_name>
   <type>administrative_area_level_2</type>
   <type>political</type>
  </address_component>
  <address_component>
   <long_name>United Kingdom</long_name>
   <short_name>GB</short_name>
   <type>country</type>
   <type>political</type>
  </address_component>
  <address_component>
   <long_name>DE55 2DA</long_name>
   <short_name>DE55 2DA</short_name>
   <type>postal_code</type>
  </address_component>
  <geometry>
   <location>
    <lat>53.1054990</lat>
    <lng>-1.3347140</lng>
   </location>
   <location_type>GEOMETRIC_CENTER</location_type>
   <viewport>
    <southwest>
     <lat>53.1041406</lat>
     <lng>-1.3366430</lng>
    </southwest>
    <northeast>
     <lat>53.1068385</lat>
     <lng>-1.3331598</lng>
    </northeast>
   </viewport>
   <bounds>
    <southwest>
     <lat>53.1050809</lat>
     <lng>-1.3366430</lng>
    </southwest>
    <northeast>
     <lat>53.1058982</lat>
     <lng>-1.3331598</lng>
    </northeast>
   </bounds>
  </geometry>
  <partial_match>true</partial_match>
  <place_id>ChIJy9PzMsCTeUgRgq4eJHoKXJc</place_id>
 </result>
 <result>
  <type>route</type>
  <formatted_address>South St, Long Eaton, Nottingham, Derbyshire NG10 1ER, UK</formatted_address>
  <address_component>
   <long_name>South Street</long_name>
   <short_name>South St</short_name>
   <type>route</type>
  </address_component>
  <address_component>
   <long_name>Long Eaton</long_name>
   <short_name>Long Eaton</short_name>
   <type>locality</type>
   <type>political</type>
  </address_component>
  <address_component>
   <long_name>Nottingham</long_name>
   <short_name>Nottingham</short_name>
   <type>postal_town</type>
  </address_component>
  <address_component>
   <long_name>Derbyshire</long_name>
   <short_name>Derbyshire</short_name>
   <type>administrative_area_level_2</type>
   <type>political</type>
  </address_component>
  <address_component>
   <long_name>United Kingdom</long_name>
   <short_name>GB</short_name>
   <type>country</type>
   <type>political</type>
  </address_component>
  <address_component>
   <long_name>NG10 1ER</long_name>
   <short_name>NG10 1ER</short_name>
   <type>postal_code</type>
  </address_component>
  <geometry>
   <location>
    <lat>52.8941746</lat>
    <lng>-1.2685829</lng>
   </location>
   <location_type>GEOMETRIC_CENTER</location_type>
   <viewport>
    <southwest>
     <lat>52.8928417</lat>
     <lng>-1.2700171</lng>
    </southwest>
    <northeast>
     <lat>52.8955397</lat>
     <lng>-1.2673192</lng>
    </northeast>
   </viewport>
   <bounds>
    <southwest>
     <lat>52.8932910</lat>
     <lng>-1.2691073</lng>
    </southwest>
    <northeast>
     <lat>52.8950904</lat>
     <lng>-1.2682290</lng>
    </northeast>
   </bounds>
  </geometry>
  <partial_match>true</partial_match>
  <place_id>ChIJt0UqYOnoeUgRVjFttGIJ1O0</place_id>
 </result>
 <result>
  <type>route</type>
  <formatted_address>Derbyshire Ln, Hucknall, Nottingham, Nottinghamshire NG15 7JX, UK</formatted_address>
  <address_component>
   <long_name>Derbyshire Lane</long_name>
   <short_name>Derbyshire Ln</short_name>
   <type>route</type>
  </address_component>
  <address_component>
   <long_name>Hucknall</long_name>
   <short_name>Hucknall</short_name>
   <type>locality</type>
   <type>political</type>
  </address_component>
  <address_component>
   <long_name>Nottingham</long_name>
   <short_name>Nottingham</short_name>
   <type>postal_town</type>
  </address_component>
  <address_component>
   <long_name>Nottinghamshire</long_name>
   <short_name>Nottinghamshire</short_name>
   <type>administrative_area_level_2</type>
   <type>political</type>
  </address_component>
  <address_component>
   <long_name>United Kingdom</long_name>
   <short_name>GB</short_name>
   <type>country</type>
   <type>political</type>
  </address_component>
  <address_component>
   <long_name>NG15 7JX</long_name>
   <short_name>NG15 7JX</short_name>
   <type>postal_code</type>
  </address_component>
  <geometry>
   <location>
    <lat>53.0367784</lat>
    <lng>-1.2077556</lng>
   </location>
   <location_type>GEOMETRIC_CENTER</location_type>
   <viewport>
    <southwest>
     <lat>53.0352469</lat>
     <lng>-1.2106055</lng>
    </southwest>
    <northeast>
     <lat>53.0379449</lat>
     <lng>-1.2037981</lng>
    </northeast>
   </viewport>
   <bounds>
    <southwest>
     <lat>53.0362360</lat>
     <lng>-1.2106055</lng>
    </southwest>
    <northeast>
     <lat>53.0369558</lat>
     <lng>-1.2037981</lng>
    </northeast>
   </bounds>
  </geometry>
  <partial_match>true</partial_match>
  <place_id>ChIJwdgsrKvqeUgRurLIY6ebSNw</place_id>
 </result>
 <result>
  <type>route</type>
  <formatted_address>Nottingham Rd, United Kingdom</formatted_address>
  <address_component>
   <long_name>Nottingham Road</long_name>
   <short_name>Nottingham Rd</short_name>
   <type>route</type>
  </address_component>
  <address_component>
   <long_name>United Kingdom</long_name>
   <short_name>GB</short_name>
   <type>country</type>
   <type>political</type>
  </address_component>
  <geometry>
   <location>
    <lat>52.9557079</lat>
    <lng>-1.2764501</lng>
   </location>
   <location_type>GEOMETRIC_CENTER</location_type>
   <viewport>
    <southwest>
     <lat>52.9530637</lat>
     <lng>-1.3068898</lng>
    </southwest>
    <northeast>
     <lat>52.9675254</lat>
     <lng>-1.2462244</lng>
    </northeast>
   </viewport>
   <bounds>
    <southwest>
     <lat>52.9530637</lat>
     <lng>-1.3068898</lng>
    </southwest>
    <northeast>
     <lat>52.9675254</lat>
     <lng>-1.2462244</lng>
    </northeast>
   </bounds>
  </geometry>
  <partial_match>true</partial_match>
  <place_id>ChIJw0C9Y-freUgROemKjtBQbzg</place_id>
 </result>
 <result>
  <type>route</type>
  <formatted_address>South St, Giltbrook, Nottingham, Nottinghamshire NG16 2GJ, UK</formatted_address>
  <address_component>
   <long_name>South Street</long_name>
   <short_name>South St</short_name>
   <type>route</type>
  </address_component>
  <address_component>
   <long_name>Giltbrook</long_name>
   <short_name>Giltbrook</short_name>
   <type>locality</type>
   <type>political</type>
  </address_component>
  <address_component>
   <long_name>Nottingham</long_name>
   <short_name>Nottingham</short_name>
   <type>postal_town</type>
  </address_component>
  <address_component>
   <long_name>Nottinghamshire</long_name>
   <short_name>Nottinghamshire</short_name>
   <type>administrative_area_level_2</type>
   <type>political</type>
  </address_component>
  <address_component>
   <long_name>United Kingdom</long_name>
   <short_name>GB</short_name>
   <type>country</type>
   <type>political</type>
  </address_component>
  <address_component>
   <long_name>NG16 2GJ</long_name>
   <short_name>NG16 2GJ</short_name>
   <type>postal_code</type>
  </address_component>
  <geometry>
   <location>
    <lat>53.0070607</lat>
    <lng>-1.2809210</lng>
   </location>
   <location_type>GEOMETRIC_CENTER</location_type>
   <viewport>
    <southwest>
     <lat>53.0053869</lat>
     <lng>-1.2827386</lng>
    </southwest>
    <northeast>
     <lat>53.0080848</lat>
     <lng>-1.2800406</lng>
    </northeast>
   </viewport>
   <bounds>
    <southwest>
     <lat>53.0063683</lat>
     <lng>-1.2819230</lng>
    </southwest>
    <northeast>
     <lat>53.0071034</lat>
     <lng>-1.2808562</lng>
    </northeast>
   </bounds>
  </geometry>
  <partial_match>true</partial_match>
  <place_id>ChIJz18Tfm3reUgRTFk7wkGRTOc</place_id>
 </result>
 <result>
  <type>route</type>
  <formatted_address>Nottingham Rd, Nottingham NG9 6EG, UK</formatted_address>
  <address_component>
   <long_name>Nottingham Road</long_name>
   <short_name>Nottingham Rd</short_name>
   <type>route</type>
  </address_component>
  <address_component>
   <long_name>Nottingham</long_name>
   <short_name>Nottingham</short_name>
   <type>postal_town</type>
  </address_component>
  <address_component>
   <long_name>United Kingdom</long_name>
   <short_name>GB</short_name>
   <type>country</type>
   <type>political</type>
  </address_component>
  <address_component>
   <long_name>NG9 6EG</long_name>
   <short_name>NG9 6EG</short_name>
   <type>postal_code</type>
  </address_component>
  <geometry>
   <location>
    <lat>52.9029853</lat>
    <lng>-1.2529202</lng>
   </location>
   <location_type>GEOMETRIC_CENTER</location_type>
   <viewport>
    <southwest>
     <lat>52.8995355</lat>
     <lng>-1.2712196</lng>
    </southwest>
    <northeast>
     <lat>52.9085433</lat>
     <lng>-1.2357087</lng>
    </northeast>
   </viewport>
   <bounds>
    <southwest>
     <lat>52.8995355</lat>
     <lng>-1.2712196</lng>
    </southwest>
    <northeast>
     <lat>52.9085433</lat>
     <lng>-1.2357087</lng>
    </northeast>
   </bounds>
  </geometry>
  <partial_match>true</partial_match>
  <place_id>ChIJWdkoP_noeUgRprC7Wq67wiU</place_id>
 </result>
</GeocodeResponse>
