<?xml version="1.0" encoding="UTF-8"?>
<GeocodeResponse>
 <status>OK</status>
 <result>
  <type>route</type>
  <formatted_address>Jadranska cesta, Croatia</formatted_address>
  <address_component>
   <long_name>Jadranska cesta</long_name>
   <short_name>Jadranska cesta</short_name>
   <type>route</type>
  </address_component>
  <address_component>
   <long_name>Općina Dubrovnik</long_name>
   <short_name>Općina Dubrovnik</short_name>
   <type>administrative_area_level_2</type>
   <type>political</type>
  </address_component>
  <address_component>
   <long_name>Dubrovačko-neretvanska županija</long_name>
   <short_name>Dubrovačko-neretvanska županija</short_name>
   <type>administrative_area_level_1</type>
   <type>political</type>
  </address_component>
  <address_component>
   <long_name>Croatia</long_name>
   <short_name>HR</short_name>
   <type>country</type>
   <type>political</type>
  </address_component>
  <geometry>
   <location>
    <lat>42.6490277</lat>
    <lng>18.1021092</lng>
   </location>
   <location_type>GEOMETRIC_CENTER</location_type>
   <viewport>
    <southwest>
     <lat>42.6381601</lat>
     <lng>18.0813674</lng>
    </southwest>
    <northeast>
     <lat>42.6687302</lat>
     <lng>18.1322369</lng>
    </northeast>
   </viewport>
   <bounds>
    <southwest>
     <lat>42.6381601</lat>
     <lng>18.0813674</lng>
    </southwest>
    <northeast>
     <lat>42.6687302</lat>
     <lng>18.1322369</lng>
    </northeast>
   </bounds>
  </geometry>
  <place_id>ChIJJcrxrtp0TBMRUKRB6CLifto</place_id>
 </result>
 <result>
  <type>route</type>
  <formatted_address>Jadranska, 20355, Opuzen, Croatia</formatted_address>
  <address_component>
   <long_name>Jadranska</long_name>
   <short_name>Jadranska</short_name>
   <type>route</type>
  </address_component>
  <address_component>
   <long_name>Opuzen</long_name>
   <short_name>Opuzen</short_name>
   <type>locality</type>
   <type>political</type>
  </address_component>
  <address_component>
   <long_name>Općina Opuzen</long_name>
   <short_name>Općina Opuzen</short_name>
   <type>administrative_area_level_2</type>
   <type>political</type>
  </address_component>
  <address_component>
   <long_name>Dubrovačko-neretvanska županija</long_name>
   <short_name>Dubrovačko-neretvanska županija</short_name>
   <type>administrative_area_level_1</type>
   <type>political</type>
  </address_component>
  <address_component>
   <long_name>Croatia</long_name>
   <short_name>HR</short_name>
   <type>country</type>
   <type>political</type>
  </address_component>
  <address_component>
   <long_name>20355</long_name>
   <short_name>20355</short_name>
   <type>postal_code</type>
  </address_component>
  <geometry>
   <location>
    <lat>43.0162760</lat>
    <lng>17.5571481</lng>
   </location>
   <location_type>GEOMETRIC_CENTER</location_type>
   <viewport>
    <southwest>
     <lat>43.0144930</lat>
     <lng>17.5514424</lng>
    </southwest>
    <northeast>
     <lat>43.0178451</lat>
     <lng>17.5623271</lng>
    </northeast>
   </viewport>
   <bounds>
    <southwest>
     <lat>43.0144930</lat>
     <lng>17.5514424</lng>
    </southwest>
    <northeast>
     <lat>43.0178451</lat>
     <lng>17.5623271</lng>
    </northeast>
   </bounds>
  </geometry>
  <place_id>ChIJ4RT2akenSxMRLeDnP3MfTAU</place_id>
 </result>
 <result>
  <type>route</type>
  <formatted_address>Jadranska ul., 20350, Metković, Croatia</formatted_address>
  <address_component>
   <long_name>Jadranska ulica</long_name>
   <short_name>Jadranska ul.</short_name>
   <type>route</type>
  </address_component>
  <address_component>
   <long_name>Metković</long_name>
   <short_name>Metković</short_name>
   <type>locality</type>
   <type>political</type>
  </address_component>
  <address_component>
   <long_name>Općina Metković</long_name>
   <short_name>Općina Metković</short_name>
   <type>administrative_area_level_2</type>
   <type>political</type>
  </address_component>
  <address_component>
   <long_name>Dubrovačko-neretvanska županija</long_name>
   <short_name>Dubrovačko-neretvanska županija</short_name>
   <type>administrative_area_level_1</type>
   <type>political</type>
  </address_component>
  <address_component>
   <long_name>Croatia</long_name>
   <short_name>HR</short_name>
   <type>country</type>
   <type>political</type>
  </address_component>
  <address_component>
   <long_name>20350</long_name>
   <short_name>20350</short_name>
   <type>postal_code</type>
  </address_component>
  <geometry>
   <location>
    <lat>43.0591094</lat>
    <lng>17.6437980</lng>
   </location>
   <location_type>GEOMETRIC_CENTER</location_type>
   <viewport>
    <southwest>
     <lat>43.0579310</lat>
     <lng>17.6405830</lng>
    </southwest>
    <northeast>
     <lat>43.0606290</lat>
     <lng>17.6462795</lng>
    </northeast>
   </viewport>
   <bounds>
    <southwest>
     <lat>43.0584845</lat>
     <lng>17.6405830</lng>
    </southwest>
    <northeast>
     <lat>43.0600755</lat>
     <lng>17.6462795</lng>
    </northeast>
   </bounds>
  </geometry>
  <place_id>ChIJlx0TxB8LSxMRRvY0WzHNFqo</place_id>
 </result>
</GeocodeResponse>
