<?xml version="1.0" encoding="UTF-8"?>
<GeocodeResponse>
 <status>OK</status>
 <result>
  <type>route</type>
  <formatted_address>Helmstedter Str., Braunschweig, Germany</formatted_address>
  <address_component>
   <long_name>Helmstedter Straße</long_name>
   <short_name>Helmstedter Str.</short_name>
   <type>route</type>
  </address_component>
  <address_component>
   <long_name>Braunschweig</long_name>
   <short_name>BS</short_name>
   <type>locality</type>
   <type>political</type>
  </address_component>
  <address_component>
   <long_name>Niedersachsen</long_name>
   <short_name>NDS</short_name>
   <type>administrative_area_level_1</type>
   <type>political</type>
  </address_component>
  <address_component>
   <long_name>Germany</long_name>
   <short_name>DE</short_name>
   <type>country</type>
   <type>political</type>
  </address_component>
  <geometry>
   <location>
    <lat>52.2547110</lat>
    <lng>10.5630384</lng>
   </location>
   <location_type>GEOMETRIC_CENTER</location_type>
   <viewport>
    <southwest>
     <lat>52.2491100</lat>
     <lng>10.5341654</lng>
    </southwest>
    <northeast>
     <lat>52.2629948</lat>
     <lng>10.5937900</lng>
    </northeast>
   </viewport>
   <bounds>
    <southwest>
     <lat>52.2491100</lat>
     <lng>10.5341654</lng>
    </southwest>
    <northeast>
     <lat>52.2629948</lat>
     <lng>10.5937900</lng>
    </northeast>
   </bounds>
  </geometry>
  <partial_match>true</partial_match>
  <place_id>ChIJ-37M2gn1r0cRuFjvK9QLszk</place_id>
 </result>
 <result>
  <type>route</type>
  <formatted_address>Braunschweiger Str., 38350 Helmstedt, Germany</formatted_address>
  <address_component>
   <long_name>Braunschweiger Straße</long_name>
   <short_name>Braunschweiger Str.</short_name>
   <type>route</type>
  </address_component>
  <address_component>
   <long_name>Helmstedt</long_name>
   <short_name>Helmstedt</short_name>
   <type>locality</type>
   <type>political</type>
  </address_component>
  <address_component>
   <long_name>Niedersachsen</long_name>
   <short_name>NDS</short_name>
   <type>administrative_area_level_1</type>
   <type>political</type>
  </address_component>
  <address_component>
   <long_name>Germany</long_name>
   <short_name>DE</short_name>
   <type>country</type>
   <type>political</type>
  </address_component>
  <address_component>
   <long_name>38350</long_name>
   <short_name>38350</short_name>
   <type>postal_code</type>
  </address_component>
  <geometry>
   <location>
    <lat>52.2287212</lat>
    <lng>11.0040829</lng>
   </location>
   <location_type>GEOMETRIC_CENTER</location_type>
   <viewport>
    <southwest>
     <lat>52.2273410</lat>
     <lng>11.0018363</lng>
    </southwest>
    <northeast>
     <lat>52.2300390</lat>
     <lng>11.0055261</lng>
    </northeast>
   </viewport>
   <bounds>
    <southwest>
     <lat>52.2282500</lat>
     <lng>11.0018363</lng>
    </southwest>
    <northeast>
     <lat>52.2291300</lat>
     <lng>11.0055261</lng>
    </northeast>
   </bounds>
  </geometry>
  <partial_match>true</partial_match>
  <place_id>ChIJOezyzd6Ar0cR1hOLZiwubZU</place_id>
 </result>
 <result>
  <type>route</type>
  <formatted_address>Braunschweiger Str., 38154 Königslutter am Elm, Germany</formatted_address>
  <address_component>
   <long_name>Braunschweiger Straße</long_name>
   <short_name>Braunschweiger Str.</short_name>
   <type>route</type>
  </address_component>
  <address_component>
   <long_name>Königslutter am Elm</long_name>
   <short_name>Königslutter am Elm</short_name>
   <type>locality</type>
   <type>political</type>
  </address_component>
  <address_component>
   <long_name>Niedersachsen</long_name>
   <short_name>NDS</short_name>
   <type>administrative_area_level_1</type>
   <type>political</type>
  </address_component>
  <address_component>
   <long_name>Germany</long_name>
   <short_name>DE</short_name>
   <type>country</type>
   <type>political</type>
  </address_component>
  <address_component>
   <long_name>38154</long_name>
   <short_name>38154</short_name>
   <type>postal_code</type>
  </address_component>
  <geometry>
   <location>
    <lat>52.2542568</lat>
    <lng>10.8057567</lng>
   </location>
   <location_type>GEOMETRIC_CENTER</location_type>
   <viewport>
    <southwest>
     <lat>52.2521100</lat>
     <lng>10.7977178</lng>
    </southwest>
    <northeast>
     <lat>52.2561825</lat>
     <lng>10.8132867</lng>
    </northeast>
   </viewport>
   <bounds>
    <southwest>
     <lat>52.2521100</lat>
     <lng>10.7977178</lng>
    </southwest>
    <northeast>
     <lat>52.2561825</lat>
     <lng>10.8132867</lng>
    </northeast>
   </bounds>
  </geometry>
  <partial_match>true</partial_match>
  <place_id>ChIJWWqy6waJr0cRnkmAWRhX8NQ</place_id>
 </result>
 <result>
  <type>route</type>
  <formatted_address>Braunschweiger Str., 39356 Weferlingen, Germany</formatted_address>
  <address_component>
   <long_name>Braunschweiger Straße</long_name>
   <short_name>Braunschweiger Str.</short_name>
   <type>route</type>
  </address_component>
  <address_component>
   <long_name>Weferlingen</long_name>
   <short_name>Weferlingen</short_name>
   <type>locality</type>
   <type>political</type>
  </address_component>
  <address_component>
   <long_name>Sachsen-Anhalt</long_name>
   <short_name>SA</short_name>
   <type>administrative_area_level_1</type>
   <type>political</type>
  </address_component>
  <address_component>
   <long_name>Germany</long_name>
   <short_name>DE</short_name>
   <type>country</type>
   <type>political</type>
  </address_component>
  <address_component>
   <long_name>39356</long_name>
   <short_name>39356</short_name>
   <type>postal_code</type>
  </address_component>
  <geometry>
   <location>
    <lat>52.3121961</lat>
    <lng>11.0502296</lng>
   </location>
   <location_type>GEOMETRIC_CENTER</location_type>
   <viewport>
    <southwest>
     <lat>52.3109383</lat>
     <lng>11.0474900</lng>
    </southwest>
    <northeast>
     <lat>52.3136363</lat>
     <lng>11.0526532</lng>
    </northeast>
   </viewport>
   <bounds>
    <southwest>
     <lat>52.3109800</lat>
     <lng>11.0474900</lng>
    </southwest>
    <northeast>
     <lat>52.3135946</lat>
     <lng>11.0526532</lng>
    </northeast>
   </bounds>
  </geometry>
  <partial_match>true</partial_match>
  <place_id>ChIJx5ycwKCDr0cR-vDLhL2CPnY</place_id>
 </result>
</GeocodeResponse>
