<?xml version="1.0" encoding="UTF-8"?>
<GeocodeResponse>
 <status>OK</status>
 <result>
  <type>locality</type>
  <type>political</type>
  <formatted_address>Kortrijk, Belgium</formatted_address>
  <address_component>
   <long_name>Kortrijk</long_name>
   <short_name>Kortrijk</short_name>
   <type>locality</type>
   <type>political</type>
  </address_component>
  <address_component>
   <long_name>West Flanders</long_name>
   <short_name>WV</short_name>
   <type>administrative_area_level_2</type>
   <type>political</type>
  </address_component>
  <address_component>
   <long_name>Flanders</long_name>
   <short_name>Flanders</short_name>
   <type>administrative_area_level_1</type>
   <type>political</type>
  </address_component>
  <address_component>
   <long_name>Belgium</long_name>
   <short_name>BE</short_name>
   <type>country</type>
   <type>political</type>
  </address_component>
  <geometry>
   <location>
    <lat>50.8194776</lat>
    <lng>3.2577263</lng>
   </location>
   <location_type>APPROXIMATE</location_type>
   <viewport>
    <southwest>
     <lat>50.7310001</lat>
     <lng>3.2005799</lng>
    </southwest>
    <northeast>
     <lat>50.8746101</lat>
     <lng>3.3589901</lng>
    </northeast>
   </viewport>
   <bounds>
    <southwest>
     <lat>50.7310001</lat>
     <lng>3.2005799</lng>
    </southwest>
    <northeast>
     <lat>50.8746101</lat>
     <lng>3.3589901</lng>
    </northeast>
   </bounds>
  </geometry>
  <partial_match>true</partial_match>
  <place_id>ChIJSWpw2OI6w0cRk7kBpsDYkfc</place_id>
 </result>
 <result>
  <type>sublocality_level_1</type>
  <type>sublocality</type>
  <type>political</type>
  <formatted_address>Kortrijk, 8500 Kortrijk, Belgium</formatted_address>
  <address_component>
   <long_name>Kortrijk</long_name>
   <short_name>Kortrijk</short_name>
   <type>sublocality_level_1</type>
   <type>sublocality</type>
   <type>political</type>
  </address_component>
  <address_component>
   <long_name>Kortrijk</long_name>
   <short_name>Kortrijk</short_name>
   <type>locality</type>
   <type>political</type>
  </address_component>
  <address_component>
   <long_name>West-Vlaanderen</long_name>
   <short_name>WV</short_name>
   <type>administrative_area_level_2</type>
   <type>political</type>
  </address_component>
  <address_component>
   <long_name>Vlaanderen</long_name>
   <short_name>Vlaanderen</short_name>
   <type>administrative_area_level_1</type>
   <type>political</type>
  </address_component>
  <address_component>
   <long_name>Belgium</long_name>
   <short_name>BE</short_name>
   <type>country</type>
   <type>political</type>
  </address_component>
  <address_component>
   <long_name>8500</long_name>
   <short_name>8500</short_name>
   <type>postal_code</type>
  </address_component>
  <geometry>
   <location>
    <lat>50.8194894</lat>
    <lng>3.2577076</lng>
   </location>
   <location_type>APPROXIMATE</location_type>
   <viewport>
    <southwest>
     <lat>50.8181404</lat>
     <lng>3.2563586</lng>
    </southwest>
    <northeast>
     <lat>50.8208384</lat>
     <lng>3.2590566</lng>
    </northeast>
   </viewport>
  </geometry>
  <partial_match>true</partial_match>
  <place_id>ChIJHe_k4Tw7w0cR2aJd9k50ly8</place_id>
 </result>
</GeocodeResponse>
