<?xml version="1.0" encoding="UTF-8"?>
<GeocodeResponse>
 <status>OK</status>
 <result>
  <type>neighborhood</type>
  <type>political</type>
  <formatted_address>Flores, 5000 Vila Real, Portugal</formatted_address>
  <address_component>
   <long_name>Flores</long_name>
   <short_name>Flores</short_name>
   <type>neighborhood</type>
   <type>political</type>
  </address_component>
  <address_component>
   <long_name>Vila Real</long_name>
   <short_name>Vila Real</short_name>
   <type>locality</type>
   <type>political</type>
  </address_component>
  <address_component>
   <long_name>Vila Real</long_name>
   <short_name>Vila Real</short_name>
   <type>administrative_area_level_1</type>
   <type>political</type>
  </address_component>
  <address_component>
   <long_name>Portugal</long_name>
   <short_name>PT</short_name>
   <type>country</type>
   <type>political</type>
  </address_component>
  <address_component>
   <long_name>5000</long_name>
   <short_name>5000</short_name>
   <type>postal_code_prefix</type>
   <type>postal_code</type>
  </address_component>
  <geometry>
   <location>
    <lat>41.3170307</lat>
    <lng>-7.7290420</lng>
   </location>
   <location_type>APPROXIMATE</location_type>
   <viewport>
    <southwest>
     <lat>41.3086498</lat>
     <lng>-7.7450494</lng>
    </southwest>
    <northeast>
     <lat>41.3254106</lat>
     <lng>-7.7130346</lng>
    </northeast>
   </viewport>
  </geometry>
  <place_id>ChIJ2-vrY0NKOw0RCquDr1u5dcI</place_id>
 </result>
 <result>
  <type>natural_feature</type>
  <type>establishment</type>
  <formatted_address>Flores Island, Portugal</formatted_address>
  <address_component>
   <long_name>Flores Island</long_name>
   <short_name>Flores Island</short_name>
   <type>natural_feature</type>
   <type>establishment</type>
  </address_component>
  <address_component>
   <long_name>Azores</long_name>
   <short_name>Azores</short_name>
   <type>administrative_area_level_1</type>
   <type>political</type>
  </address_component>
  <address_component>
   <long_name>Portugal</long_name>
   <short_name>PT</short_name>
   <type>country</type>
   <type>political</type>
  </address_component>
  <geometry>
   <location>
    <lat>39.4474713</lat>
    <lng>-31.1939450</lng>
   </location>
   <location_type>APPROXIMATE</location_type>
   <viewport>
    <southwest>
     <lat>39.3713679</lat>
     <lng>-31.2688141</lng>
    </southwest>
    <northeast>
     <lat>39.5246326</lat>
     <lng>-31.1245481</lng>
    </northeast>
   </viewport>
   <bounds>
    <southwest>
     <lat>39.3713679</lat>
     <lng>-31.2688141</lng>
    </southwest>
    <northeast>
     <lat>39.5246326</lat>
     <lng>-31.1245481</lng>
    </northeast>
   </bounds>
  </geometry>
  <place_id>ChIJ519zx78jMgsR0KmP189FcDA</place_id>
 </result>
 <result>
  <type>airport</type>
  <type>point_of_interest</type>
  <type>establishment</type>
  <formatted_address>Flores Airport (FLW), Rua Santa Catarina, 9970-320 Santa Cruz das Flores, Portugal</formatted_address>
  <address_component>
   <long_name>Flores Airport</long_name>
   <short_name>Flores Airport</short_name>
   <type>point_of_interest</type>
   <type>establishment</type>
  </address_component>
  <address_component>
   <long_name>Rua Santa Catarina</long_name>
   <short_name>Rua Santa Catarina</short_name>
   <type>route</type>
  </address_component>
  <address_component>
   <long_name>Santa Cruz das Flores</long_name>
   <short_name>Santa Cruz das Flores</short_name>
   <type>locality</type>
   <type>political</type>
  </address_component>
  <address_component>
   <long_name>Açores</long_name>
   <short_name>Açores</short_name>
   <type>administrative_area_level_1</type>
   <type>political</type>
  </address_component>
  <address_component>
   <long_name>Portugal</long_name>
   <short_name>PT</short_name>
   <type>country</type>
   <type>political</type>
  </address_component>
  <address_component>
   <long_name>9970-320</long_name>
   <short_name>9970-320</short_name>
   <type>postal_code</type>
  </address_component>
  <geometry>
   <location>
    <lat>39.4559884</lat>
    <lng>-31.1316588</lng>
   </location>
   <location_type>APPROXIMATE</location_type>
   <viewport>
    <southwest>
     <lat>39.4546394</lat>
     <lng>-31.1330078</lng>
    </southwest>
    <northeast>
     <lat>39.4573374</lat>
     <lng>-31.1303098</lng>
    </northeast>
   </viewport>
  </geometry>
  <place_id>ChIJcc4v6TMkMgsRsUqYIh0vYjg</place_id>
 </result>
</GeocodeResponse>
