<?xml version="1.0" encoding="UTF-8"?>
<GeocodeResponse>
 <status>OK</status>
 <result>
  <type>route</type>
  <formatted_address>Noord, 8032 Zwolle, Netherlands</formatted_address>
  <address_component>
   <long_name>Noord</long_name>
   <short_name>Noord</short_name>
   <type>route</type>
  </address_component>
  <address_component>
   <long_name>Zwolle</long_name>
   <short_name>Zwolle</short_name>
   <type>locality</type>
   <type>political</type>
  </address_component>
  <address_component>
   <long_name>Zwolle</long_name>
   <short_name>Zwolle</short_name>
   <type>administrative_area_level_2</type>
   <type>political</type>
  </address_component>
  <address_component>
   <long_name>Overijssel</long_name>
   <short_name>Overste</short_name>
   <type>administrative_area_level_1</type>
   <type>political</type>
  </address_component>
  <address_component>
   <long_name>Netherlands</long_name>
   <short_name>NL</short_name>
   <type>country</type>
   <type>political</type>
  </address_component>
  <address_component>
   <long_name>8032</long_name>
   <short_name>8032</short_name>
   <type>postal_code_prefix</type>
   <type>postal_code</type>
  </address_component>
  <geometry>
   <location>
    <lat>52.5268708</lat>
    <lng>6.1113613</lng>
   </location>
   <location_type>GEOMETRIC_CENTER</location_type>
   <viewport>
    <southwest>
     <lat>52.5257068</lat>
     <lng>6.1097865</lng>
    </southwest>
    <northeast>
     <lat>52.5284048</lat>
     <lng>6.1124844</lng>
    </northeast>
   </viewport>
   <bounds>
    <southwest>
     <lat>52.5260002</lat>
     <lng>6.1105790</lng>
    </southwest>
    <northeast>
     <lat>52.5281114</lat>
     <lng>6.1116919</lng>
    </northeast>
   </bounds>
  </geometry>
  <place_id>ChIJlUgb10Hfx0cR04xEL7ftzEs</place_id>
 </result>
</GeocodeResponse>
