<?xml version="1.0" encoding="UTF-8"?>
<GeocodeResponse>
 <status>OK</status>
 <result>
  <type>route</type>
  <formatted_address>Muldentalstraße, 09623 Rechenberg-Bienenmühle, Germany</formatted_address>
  <address_component>
   <long_name>Muldentalstraße</long_name>
   <short_name>Muldentalstraße</short_name>
   <type>route</type>
  </address_component>
  <address_component>
   <long_name>Rechenberg-Bienenmühle</long_name>
   <short_name>Rechenberg-Bienenmühle</short_name>
   <type>locality</type>
   <type>political</type>
  </address_component>
  <address_component>
   <long_name>Chemnitz</long_name>
   <short_name>C</short_name>
   <type>administrative_area_level_2</type>
   <type>political</type>
  </address_component>
  <address_component>
   <long_name>Sachsen</long_name>
   <short_name>SN</short_name>
   <type>administrative_area_level_1</type>
   <type>political</type>
  </address_component>
  <address_component>
   <long_name>Germany</long_name>
   <short_name>DE</short_name>
   <type>country</type>
   <type>political</type>
  </address_component>
  <address_component>
   <long_name>09623</long_name>
   <short_name>09623</short_name>
   <type>postal_code</type>
  </address_component>
  <geometry>
   <location>
    <lat>50.7387011</lat>
    <lng>13.5432784</lng>
   </location>
   <location_type>GEOMETRIC_CENTER</location_type>
   <viewport>
    <southwest>
     <lat>50.7343400</lat>
     <lng>13.4992400</lng>
    </southwest>
    <northeast>
     <lat>50.7585631</lat>
     <lng>13.5967674</lng>
    </northeast>
   </viewport>
   <bounds>
    <southwest>
     <lat>50.7343400</lat>
     <lng>13.4992400</lng>
    </southwest>
    <northeast>
     <lat>50.7585631</lat>
     <lng>13.5967674</lng>
    </northeast>
   </bounds>
  </geometry>
  <partial_match>true</partial_match>
  <place_id>ChIJqTIU07fvCUcRdj0XL7jL4u4</place_id>
 </result>
 <result>
  <type>route</type>
  <formatted_address>Muldentalstraße, Leipzig, Germany</formatted_address>
  <address_component>
   <long_name>Muldentalstraße</long_name>
   <short_name>Muldentalstraße</short_name>
   <type>route</type>
  </address_component>
  <address_component>
   <long_name>Leipzig</long_name>
   <short_name>Leipzig</short_name>
   <type>locality</type>
   <type>political</type>
  </address_component>
  <address_component>
   <long_name>Leipzig</long_name>
   <short_name>Leipzig</short_name>
   <type>administrative_area_level_2</type>
   <type>political</type>
  </address_component>
  <address_component>
   <long_name>Sachsen</long_name>
   <short_name>SN</short_name>
   <type>administrative_area_level_1</type>
   <type>political</type>
  </address_component>
  <address_component>
   <long_name>Germany</long_name>
   <short_name>DE</short_name>
   <type>country</type>
   <type>political</type>
  </address_component>
  <geometry>
   <location>
    <lat>51.2780770</lat>
    <lng>12.4684899</lng>
   </location>
   <location_type>GEOMETRIC_CENTER</location_type>
   <viewport>
    <southwest>
     <lat>51.2689207</lat>
     <lng>12.4485180</lng>
    </southwest>
    <northeast>
     <lat>51.2870840</lat>
     <lng>12.4872989</lng>
    </northeast>
   </viewport>
   <bounds>
    <southwest>
     <lat>51.2689207</lat>
     <lng>12.4485180</lng>
    </southwest>
    <northeast>
     <lat>51.2870840</lat>
     <lng>12.4872989</lng>
    </northeast>
   </bounds>
  </geometry>
  <partial_match>true</partial_match>
  <place_id>ChIJ3XT9Fa_-pkcRLTuspRNuTYY</place_id>
 </result>
 <result>
  <type>route</type>
  <formatted_address>Muldentalstraße, Auerbach/Vogtland, Germany</formatted_address>
  <address_component>
   <long_name>Muldentalstraße</long_name>
   <short_name>Muldentalstraße</short_name>
   <type>route</type>
  </address_component>
  <address_component>
   <long_name>Auerbach/Vogtland</long_name>
   <short_name>Auerbach/Vogtland</short_name>
   <type>locality</type>
   <type>political</type>
  </address_component>
  <address_component>
   <long_name>Chemnitz</long_name>
   <short_name>C</short_name>
   <type>administrative_area_level_2</type>
   <type>political</type>
  </address_component>
  <address_component>
   <long_name>Sachsen</long_name>
   <short_name>SN</short_name>
   <type>administrative_area_level_1</type>
   <type>political</type>
  </address_component>
  <address_component>
   <long_name>Germany</long_name>
   <short_name>DE</short_name>
   <type>country</type>
   <type>political</type>
  </address_component>
  <geometry>
   <location>
    <lat>50.4539859</lat>
    <lng>12.4441341</lng>
   </location>
   <location_type>GEOMETRIC_CENTER</location_type>
   <viewport>
    <southwest>
     <lat>50.4494445</lat>
     <lng>12.4269602</lng>
    </southwest>
    <northeast>
     <lat>50.4545526</lat>
     <lng>12.4641627</lng>
    </northeast>
   </viewport>
   <bounds>
    <southwest>
     <lat>50.4494445</lat>
     <lng>12.4269602</lng>
    </southwest>
    <northeast>
     <lat>50.4545526</lat>
     <lng>12.4641627</lng>
    </northeast>
   </bounds>
  </geometry>
  <partial_match>true</partial_match>
  <place_id>ChIJo3ymisjEoEcRqhROBw0H4Nc</place_id>
 </result>
 <result>
  <type>route</type>
  <formatted_address>Muldentalstraße, 09603 Großschirma, Germany</formatted_address>
  <address_component>
   <long_name>Muldentalstraße</long_name>
   <short_name>Muldentalstraße</short_name>
   <type>route</type>
  </address_component>
  <address_component>
   <long_name>Großschirma</long_name>
   <short_name>Großschirma</short_name>
   <type>locality</type>
   <type>political</type>
  </address_component>
  <address_component>
   <long_name>Chemnitz</long_name>
   <short_name>C</short_name>
   <type>administrative_area_level_2</type>
   <type>political</type>
  </address_component>
  <address_component>
   <long_name>Sachsen</long_name>
   <short_name>SN</short_name>
   <type>administrative_area_level_1</type>
   <type>political</type>
  </address_component>
  <address_component>
   <long_name>Germany</long_name>
   <short_name>DE</short_name>
   <type>country</type>
   <type>political</type>
  </address_component>
  <address_component>
   <long_name>09603</long_name>
   <short_name>09603</short_name>
   <type>postal_code</type>
  </address_component>
  <geometry>
   <location>
    <lat>50.9635622</lat>
    <lng>13.3239377</lng>
   </location>
   <location_type>GEOMETRIC_CENTER</location_type>
   <viewport>
    <southwest>
     <lat>50.9593468</lat>
     <lng>13.3111116</lng>
    </southwest>
    <northeast>
     <lat>50.9750839</lat>
     <lng>13.3309926</lng>
    </northeast>
   </viewport>
   <bounds>
    <southwest>
     <lat>50.9593468</lat>
     <lng>13.3111116</lng>
    </southwest>
    <northeast>
     <lat>50.9750839</lat>
     <lng>13.3309926</lng>
    </northeast>
   </bounds>
  </geometry>
  <partial_match>true</partial_match>
  <place_id>ChIJpZLvcqxhp0cR7SB-M4Z8lQs</place_id>
 </result>
 <result>
  <type>route</type>
  <formatted_address>Muldentalstraße, 09623 Frauenstein, Germany</formatted_address>
  <address_component>
   <long_name>Muldentalstraße</long_name>
   <short_name>Muldentalstraße</short_name>
   <type>route</type>
  </address_component>
  <address_component>
   <long_name>Frauenstein</long_name>
   <short_name>Frauenstein</short_name>
   <type>locality</type>
   <type>political</type>
  </address_component>
  <address_component>
   <long_name>Chemnitz</long_name>
   <short_name>C</short_name>
   <type>administrative_area_level_2</type>
   <type>political</type>
  </address_component>
  <address_component>
   <long_name>Sachsen</long_name>
   <short_name>SN</short_name>
   <type>administrative_area_level_1</type>
   <type>political</type>
  </address_component>
  <address_component>
   <long_name>Germany</long_name>
   <short_name>DE</short_name>
   <type>country</type>
   <type>political</type>
  </address_component>
  <address_component>
   <long_name>09623</long_name>
   <short_name>09623</short_name>
   <type>postal_code</type>
  </address_component>
  <geometry>
   <location>
    <lat>50.7751140</lat>
    <lng>13.4802156</lng>
   </location>
   <location_type>GEOMETRIC_CENTER</location_type>
   <viewport>
    <southwest>
     <lat>50.7716411</lat>
     <lng>13.4740513</lng>
    </southwest>
    <northeast>
     <lat>50.7780912</lat>
     <lng>13.4861911</lng>
    </northeast>
   </viewport>
   <bounds>
    <southwest>
     <lat>50.7716411</lat>
     <lng>13.4740513</lng>
    </southwest>
    <northeast>
     <lat>50.7780912</lat>
     <lng>13.4861911</lng>
    </northeast>
   </bounds>
  </geometry>
  <partial_match>true</partial_match>
  <place_id>ChIJdUMKegrlCUcR1WuQ6IKUtmg</place_id>
 </result>
 <result>
  <type>route</type>
  <formatted_address>Muldentalweg, Bennewitz, Germany</formatted_address>
  <address_component>
   <long_name>Muldentalweg</long_name>
   <short_name>Muldentalweg</short_name>
   <type>route</type>
  </address_component>
  <address_component>
   <long_name>Bennewitz</long_name>
   <short_name>Bennewitz</short_name>
   <type>locality</type>
   <type>political</type>
  </address_component>
  <address_component>
   <long_name>Leipzig</long_name>
   <short_name>Leipzig</short_name>
   <type>administrative_area_level_2</type>
   <type>political</type>
  </address_component>
  <address_component>
   <long_name>Sachsen</long_name>
   <short_name>SN</short_name>
   <type>administrative_area_level_1</type>
   <type>political</type>
  </address_component>
  <address_component>
   <long_name>Germany</long_name>
   <short_name>DE</short_name>
   <type>country</type>
   <type>political</type>
  </address_component>
  <geometry>
   <location>
    <lat>51.3466580</lat>
    <lng>12.6562957</lng>
   </location>
   <location_type>GEOMETRIC_CENTER</location_type>
   <viewport>
    <southwest>
     <lat>51.3395929</lat>
     <lng>12.6444100</lng>
    </southwest>
    <northeast>
     <lat>51.3519736</lat>
     <lng>12.6657452</lng>
    </northeast>
   </viewport>
   <bounds>
    <southwest>
     <lat>51.3395929</lat>
     <lng>12.6444100</lng>
    </southwest>
    <northeast>
     <lat>51.3519736</lat>
     <lng>12.6657452</lng>
    </northeast>
   </bounds>
  </geometry>
  <partial_match>true</partial_match>
  <place_id>ChIJr9NjwYWqp0cRmZ93UZ9jTEE</place_id>
 </result>
 <result>
  <type>locality</type>
  <type>political</type>
  <formatted_address>04668 Grimma, Germany</formatted_address>
  <address_component>
   <long_name>Grimma</long_name>
   <short_name>Grimma</short_name>
   <type>locality</type>
   <type>political</type>
  </address_component>
  <address_component>
   <long_name>Leipzig</long_name>
   <short_name>Leipzig</short_name>
   <type>administrative_area_level_3</type>
   <type>political</type>
  </address_component>
  <address_component>
   <long_name>Leipzig</long_name>
   <short_name>Leipzig</short_name>
   <type>administrative_area_level_2</type>
   <type>political</type>
  </address_component>
  <address_component>
   <long_name>Saxony</long_name>
   <short_name>SN</short_name>
   <type>administrative_area_level_1</type>
   <type>political</type>
  </address_component>
  <address_component>
   <long_name>Germany</long_name>
   <short_name>DE</short_name>
   <type>country</type>
   <type>political</type>
  </address_component>
  <address_component>
   <long_name>04668</long_name>
   <short_name>04668</short_name>
   <type>postal_code</type>
  </address_component>
  <geometry>
   <location>
    <lat>51.2364426</lat>
    <lng>12.7202313</lng>
   </location>
   <location_type>APPROXIMATE</location_type>
   <viewport>
    <southwest>
     <lat>51.1344471</lat>
     <lng>12.6398105</lng>
    </southwest>
    <northeast>
     <lat>51.3124685</lat>
     <lng>12.9315571</lng>
    </northeast>
   </viewport>
   <bounds>
    <southwest>
     <lat>51.1344471</lat>
     <lng>12.6398105</lng>
    </southwest>
    <northeast>
     <lat>51.3124685</lat>
     <lng>12.9315571</lng>
    </northeast>
   </bounds>
  </geometry>
  <partial_match>true</partial_match>
  <place_id>ChIJs-FCeSkEp0cR030caXmlg44</place_id>
 </result>
 <result>
  <type>route</type>
  <formatted_address>Muldentalstraße, 04720 Großweitzschen, Germany</formatted_address>
  <address_component>
   <long_name>Muldentalstraße</long_name>
   <short_name>Muldentalstraße</short_name>
   <type>route</type>
  </address_component>
  <address_component>
   <long_name>Westewitz</long_name>
   <short_name>Westewitz</short_name>
   <type>sublocality_level_1</type>
   <type>sublocality</type>
   <type>political</type>
  </address_component>
  <address_component>
   <long_name>Großweitzschen</long_name>
   <short_name>Großweitzschen</short_name>
   <type>locality</type>
   <type>political</type>
  </address_component>
  <address_component>
   <long_name>Chemnitz</long_name>
   <short_name>C</short_name>
   <type>administrative_area_level_2</type>
   <type>political</type>
  </address_component>
  <address_component>
   <long_name>Sachsen</long_name>
   <short_name>SN</short_name>
   <type>administrative_area_level_1</type>
   <type>political</type>
  </address_component>
  <address_component>
   <long_name>Germany</long_name>
   <short_name>DE</short_name>
   <type>country</type>
   <type>political</type>
  </address_component>
  <address_component>
   <long_name>04720</long_name>
   <short_name>04720</short_name>
   <type>postal_code</type>
  </address_component>
  <geometry>
   <location>
    <lat>51.1359668</lat>
    <lng>13.0279561</lng>
   </location>
   <location_type>GEOMETRIC_CENTER</location_type>
   <viewport>
    <southwest>
     <lat>51.1346400</lat>
     <lng>13.0231100</lng>
    </southwest>
    <northeast>
     <lat>51.1374236</lat>
     <lng>13.0315900</lng>
    </northeast>
   </viewport>
   <bounds>
    <southwest>
     <lat>51.1346400</lat>
     <lng>13.0231100</lng>
    </southwest>
    <northeast>
     <lat>51.1374236</lat>
     <lng>13.0315900</lng>
    </northeast>
   </bounds>
  </geometry>
  <partial_match>true</partial_match>
  <place_id>ChIJVQGGj49yp0cR-xpX_mjtFQE</place_id>
 </result>
 <result>
  <type>route</type>
  <formatted_address>Muldentalstraße, 09322 Penig, Germany</formatted_address>
  <address_component>
   <long_name>Muldentalstraße</long_name>
   <short_name>Muldentalstraße</short_name>
   <type>route</type>
  </address_component>
  <address_component>
   <long_name>Penig</long_name>
   <short_name>Penig</short_name>
   <type>locality</type>
   <type>political</type>
  </address_component>
  <address_component>
   <long_name>Chemnitz</long_name>
   <short_name>C</short_name>
   <type>administrative_area_level_2</type>
   <type>political</type>
  </address_component>
  <address_component>
   <long_name>Sachsen</long_name>
   <short_name>SN</short_name>
   <type>administrative_area_level_1</type>
   <type>political</type>
  </address_component>
  <address_component>
   <long_name>Germany</long_name>
   <short_name>DE</short_name>
   <type>country</type>
   <type>political</type>
  </address_component>
  <address_component>
   <long_name>09322</long_name>
   <short_name>09322</short_name>
   <type>postal_code</type>
  </address_component>
  <geometry>
   <location>
    <lat>50.9361915</lat>
    <lng>12.7319921</lng>
   </location>
   <location_type>GEOMETRIC_CENTER</location_type>
   <viewport>
    <southwest>
     <lat>50.9307900</lat>
     <lng>12.7296550</lng>
    </southwest>
    <northeast>
     <lat>50.9417213</lat>
     <lng>12.7344200</lng>
    </northeast>
   </viewport>
   <bounds>
    <southwest>
     <lat>50.9307900</lat>
     <lng>12.7296550</lng>
    </southwest>
    <northeast>
     <lat>50.9417213</lat>
     <lng>12.7344200</lng>
    </northeast>
   </bounds>
  </geometry>
  <partial_match>true</partial_match>
  <place_id>ChIJfa7aIk88p0cRtCO-kcaM0ss</place_id>
 </result>
</GeocodeResponse>
