<?xml version="1.0" encoding="UTF-8"?>
<GeocodeResponse>
 <status>OK</status>
 <result>
  <type>administrative_area_level_1</type>
  <type>political</type>
  <formatted_address>Limbaži Municipality, Latvia</formatted_address>
  <address_component>
   <long_name>Limbaži Municipality</long_name>
   <short_name>Limbaži Municipality</short_name>
   <type>administrative_area_level_1</type>
   <type>political</type>
  </address_component>
  <address_component>
   <long_name>Latvia</long_name>
   <short_name>LV</short_name>
   <type>country</type>
   <type>political</type>
  </address_component>
  <geometry>
   <location>
    <lat>57.5403227</lat>
    <lng>24.7134451</lng>
   </location>
   <location_type>APPROXIMATE</location_type>
   <viewport>
    <southwest>
     <lat>57.2215980</lat>
     <lng>24.3976561</lng>
    </southwest>
    <northeast>
     <lat>57.7612381</lat>
     <lng>25.0906547</lng>
    </northeast>
   </viewport>
   <bounds>
    <southwest>
     <lat>57.2215980</lat>
     <lng>24.3976561</lng>
    </southwest>
    <northeast>
     <lat>57.7612381</lat>
     <lng>25.0906547</lng>
    </northeast>
   </bounds>
  </geometry>
  <partial_match>true</partial_match>
  <place_id>ChIJH-ONfQEE7EYRAADzaM3PAAM</place_id>
 </result>
 <result>
  <type>route</type>
  <formatted_address>Limbažu iela, Smiltene, Smiltenes pilsēta, LV-4729, Latvia</formatted_address>
  <address_component>
   <long_name>Limbažu iela</long_name>
   <short_name>Limbažu iela</short_name>
   <type>route</type>
  </address_component>
  <address_component>
   <long_name>Smiltene</long_name>
   <short_name>Smiltene</short_name>
   <type>locality</type>
   <type>political</type>
  </address_component>
  <address_component>
   <long_name>Smiltenes pilsēta</long_name>
   <short_name>Smiltenes pilsēta</short_name>
   <type>administrative_area_level_2</type>
   <type>political</type>
  </address_component>
  <address_component>
   <long_name>Smiltene Municipality</long_name>
   <short_name>Smiltene Municipality</short_name>
   <type>administrative_area_level_1</type>
   <type>political</type>
  </address_component>
  <address_component>
   <long_name>Latvia</long_name>
   <short_name>LV</short_name>
   <type>country</type>
   <type>political</type>
  </address_component>
  <address_component>
   <long_name>LV-4729</long_name>
   <short_name>LV-4729</short_name>
   <type>postal_code</type>
  </address_component>
  <geometry>
   <location>
    <lat>57.4214760</lat>
    <lng>25.8885034</lng>
   </location>
   <location_type>GEOMETRIC_CENTER</location_type>
   <viewport>
    <southwest>
     <lat>57.4181475</lat>
     <lng>25.8834634</lng>
    </southwest>
    <northeast>
     <lat>57.4241625</lat>
     <lng>25.8916751</lng>
    </northeast>
   </viewport>
   <bounds>
    <southwest>
     <lat>57.4181475</lat>
     <lng>25.8834634</lng>
    </southwest>
    <northeast>
     <lat>57.4241625</lat>
     <lng>25.8916751</lng>
    </northeast>
   </bounds>
  </geometry>
  <partial_match>true</partial_match>
  <place_id>ChIJNTXaUffF60YRUfIv1SsiYAA</place_id>
 </result>
 <result>
  <type>route</type>
  <formatted_address>Limbažu iela, Aloja, Alojas pilsēta, LV-4064, Latvia</formatted_address>
  <address_component>
   <long_name>Limbažu iela</long_name>
   <short_name>Limbažu iela</short_name>
   <type>route</type>
  </address_component>
  <address_component>
   <long_name>Aloja</long_name>
   <short_name>Aloja</short_name>
   <type>locality</type>
   <type>political</type>
  </address_component>
  <address_component>
   <long_name>Alojas pilsēta</long_name>
   <short_name>Alojas pilsēta</short_name>
   <type>administrative_area_level_2</type>
   <type>political</type>
  </address_component>
  <address_component>
   <long_name>Aloja Municipality</long_name>
   <short_name>Aloja Municipality</short_name>
   <type>administrative_area_level_1</type>
   <type>political</type>
  </address_component>
  <address_component>
   <long_name>Latvia</long_name>
   <short_name>LV</short_name>
   <type>country</type>
   <type>political</type>
  </address_component>
  <address_component>
   <long_name>LV-4064</long_name>
   <short_name>LV-4064</short_name>
   <type>postal_code</type>
  </address_component>
  <geometry>
   <location>
    <lat>57.7642731</lat>
    <lng>24.8891780</lng>
   </location>
   <location_type>GEOMETRIC_CENTER</location_type>
   <viewport>
    <southwest>
     <lat>57.7617156</lat>
     <lng>24.8858999</lng>
    </southwest>
    <northeast>
     <lat>57.7671694</lat>
     <lng>24.8907582</lng>
    </northeast>
   </viewport>
   <bounds>
    <southwest>
     <lat>57.7617156</lat>
     <lng>24.8858999</lng>
    </southwest>
    <northeast>
     <lat>57.7671694</lat>
     <lng>24.8907582</lng>
    </northeast>
   </bounds>
  </geometry>
  <partial_match>true</partial_match>
  <place_id>ChIJ5UOBAbxy7EYRNZtuVsZqAws</place_id>
 </result>
 <result>
  <type>route</type>
  <formatted_address>Limbažu iela, Valmiera, LV-4201, Latvia</formatted_address>
  <address_component>
   <long_name>Limbažu iela</long_name>
   <short_name>Limbažu iela</short_name>
   <type>route</type>
  </address_component>
  <address_component>
   <long_name>Valmiera</long_name>
   <short_name>Valmiera</short_name>
   <type>locality</type>
   <type>political</type>
  </address_component>
  <address_component>
   <long_name>Valmieras pilsēta</long_name>
   <short_name>Valmieras pilsēta</short_name>
   <type>administrative_area_level_2</type>
   <type>political</type>
  </address_component>
  <address_component>
   <long_name>Valmiera</long_name>
   <short_name>Valmiera</short_name>
   <type>administrative_area_level_1</type>
   <type>political</type>
  </address_component>
  <address_component>
   <long_name>Latvia</long_name>
   <short_name>LV</short_name>
   <type>country</type>
   <type>political</type>
  </address_component>
  <address_component>
   <long_name>LV-4201</long_name>
   <short_name>LV-4201</short_name>
   <type>postal_code</type>
  </address_component>
  <geometry>
   <location>
    <lat>57.5399225</lat>
    <lng>25.4059699</lng>
   </location>
   <location_type>GEOMETRIC_CENTER</location_type>
   <viewport>
    <southwest>
     <lat>57.5364725</lat>
     <lng>25.4040581</lng>
    </southwest>
    <northeast>
     <lat>57.5425587</lat>
     <lng>25.4091550</lng>
    </northeast>
   </viewport>
   <bounds>
    <southwest>
     <lat>57.5364725</lat>
     <lng>25.4040581</lng>
    </southwest>
    <northeast>
     <lat>57.5425587</lat>
     <lng>25.4091550</lng>
    </northeast>
   </bounds>
  </geometry>
  <partial_match>true</partial_match>
  <place_id>ChIJGwNtXdXt60YRzcG0OXo1adM</place_id>
 </result>
 <result>
  <type>route</type>
  <formatted_address>Limbažu iela, Ziemeļu rajons, Rīga, LV-1005, Latvia</formatted_address>
  <address_component>
   <long_name>Limbažu iela</long_name>
   <short_name>Limbažu iela</short_name>
   <type>route</type>
  </address_component>
  <address_component>
   <long_name>Ziemeļu rajons</long_name>
   <short_name>Ziemeļu rajons</short_name>
   <type>sublocality_level_1</type>
   <type>sublocality</type>
   <type>political</type>
  </address_component>
  <address_component>
   <long_name>Rīga</long_name>
   <short_name>Rīga</short_name>
   <type>locality</type>
   <type>political</type>
  </address_component>
  <address_component>
   <long_name>Rīgas pilsēta</long_name>
   <short_name>Rīgas pilsēta</short_name>
   <type>administrative_area_level_2</type>
   <type>political</type>
  </address_component>
  <address_component>
   <long_name>Riga</long_name>
   <short_name>Riga</short_name>
   <type>administrative_area_level_1</type>
   <type>political</type>
  </address_component>
  <address_component>
   <long_name>Latvia</long_name>
   <short_name>LV</short_name>
   <type>country</type>
   <type>political</type>
  </address_component>
  <address_component>
   <long_name>LV-1005</long_name>
   <short_name>LV-1005</short_name>
   <type>postal_code</type>
  </address_component>
  <geometry>
   <location>
    <lat>57.0004199</lat>
    <lng>24.1207699</lng>
   </location>
   <location_type>GEOMETRIC_CENTER</location_type>
   <viewport>
    <southwest>
     <lat>56.9990260</lat>
     <lng>24.1184099</lng>
    </southwest>
    <northeast>
     <lat>57.0017239</lat>
     <lng>24.1235999</lng>
    </northeast>
   </viewport>
   <bounds>
    <southwest>
     <lat>57.0000000</lat>
     <lng>24.1184099</lng>
    </southwest>
    <northeast>
     <lat>57.0007499</lat>
     <lng>24.1235999</lng>
    </northeast>
   </bounds>
  </geometry>
  <partial_match>true</partial_match>
  <place_id>ChIJreCJ-HHP7kYROuVSiqw85PU</place_id>
 </result>
 <result>
  <type>route</type>
  <formatted_address>Limbažu iela, Zvejniekciems, Saulkrastu lauku teritorija, LV-2161, Latvia</formatted_address>
  <address_component>
   <long_name>Limbažu iela</long_name>
   <short_name>Limbažu iela</short_name>
   <type>route</type>
  </address_component>
  <address_component>
   <long_name>Zvejniekciems</long_name>
   <short_name>Zvejniekciems</short_name>
   <type>locality</type>
   <type>political</type>
  </address_component>
  <address_component>
   <long_name>Saulkrastu lauku teritorija</long_name>
   <short_name>Saulkrastu lauku teritorija</short_name>
   <type>administrative_area_level_2</type>
   <type>political</type>
  </address_component>
  <address_component>
   <long_name>Saulkrasti Municipality</long_name>
   <short_name>Saulkrasti Municipality</short_name>
   <type>administrative_area_level_1</type>
   <type>political</type>
  </address_component>
  <address_component>
   <long_name>Latvia</long_name>
   <short_name>LV</short_name>
   <type>country</type>
   <type>political</type>
  </address_component>
  <address_component>
   <long_name>LV-2161</long_name>
   <short_name>LV-2161</short_name>
   <type>postal_code</type>
  </address_component>
  <geometry>
   <location>
    <lat>57.3213933</lat>
    <lng>24.4260439</lng>
   </location>
   <location_type>GEOMETRIC_CENTER</location_type>
   <viewport>
    <southwest>
     <lat>57.3198918</lat>
     <lng>24.4251328</lng>
    </southwest>
    <northeast>
     <lat>57.3225898</lat>
     <lng>24.4278307</lng>
    </northeast>
   </viewport>
   <bounds>
    <southwest>
     <lat>57.3209520</lat>
     <lng>24.4255380</lng>
    </southwest>
    <northeast>
     <lat>57.3215296</lat>
     <lng>24.4274255</lng>
    </northeast>
   </bounds>
  </geometry>
  <partial_match>true</partial_match>
  <place_id>ChIJOeFbvHqv7kYRd9x3RIpAkS0</place_id>
 </result>
 <result>
  <type>route</type>
  <formatted_address>Limbažu iela, Ziemeļblāzma, Skultes pagasts, LV-4025, Latvia</formatted_address>
  <address_component>
   <long_name>Limbažu iela</long_name>
   <short_name>Limbažu iela</short_name>
   <type>route</type>
  </address_component>
  <address_component>
   <long_name>Ziemeļblāzma</long_name>
   <short_name>Ziemeļblāzma</short_name>
   <type>locality</type>
   <type>political</type>
  </address_component>
  <address_component>
   <long_name>Skultes pagasts</long_name>
   <short_name>Skultes pagasts</short_name>
   <type>administrative_area_level_2</type>
   <type>political</type>
  </address_component>
  <address_component>
   <long_name>Limbaži Municipality</long_name>
   <short_name>Limbaži Municipality</short_name>
   <type>administrative_area_level_1</type>
   <type>political</type>
  </address_component>
  <address_component>
   <long_name>Latvia</long_name>
   <short_name>LV</short_name>
   <type>country</type>
   <type>political</type>
  </address_component>
  <address_component>
   <long_name>LV-4025</long_name>
   <short_name>LV-4025</short_name>
   <type>postal_code</type>
  </address_component>
  <geometry>
   <location>
    <lat>57.3361988</lat>
    <lng>24.4251590</lng>
   </location>
   <location_type>GEOMETRIC_CENTER</location_type>
   <viewport>
    <southwest>
     <lat>57.3347705</lat>
     <lng>24.4214791</lng>
    </southwest>
    <northeast>
     <lat>57.3374684</lat>
     <lng>24.4282654</lng>
    </northeast>
   </viewport>
   <bounds>
    <southwest>
     <lat>57.3357619</lat>
     <lng>24.4214791</lng>
    </southwest>
    <northeast>
     <lat>57.3364770</lat>
     <lng>24.4282654</lng>
    </northeast>
   </bounds>
  </geometry>
  <partial_match>true</partial_match>
  <place_id>ChIJ-znMwF-v7kYRtMw-JwY2ifQ</place_id>
 </result>
 <result>
  <type>natural_feature</type>
  <type>establishment</type>
  <formatted_address>Limbažu Lielezers, LV-4001, Latvia</formatted_address>
  <address_component>
   <long_name>Limbažu Lielezers</long_name>
   <short_name>Limbažu Lielezers</short_name>
   <type>natural_feature</type>
   <type>establishment</type>
  </address_component>
  <address_component>
   <long_name>Latvia</long_name>
   <short_name>LV</short_name>
   <type>country</type>
   <type>political</type>
  </address_component>
  <address_component>
   <long_name>LV-4001</long_name>
   <short_name>LV-4001</short_name>
   <type>postal_code</type>
  </address_component>
  <geometry>
   <location>
    <lat>57.4872401</lat>
    <lng>24.7000751</lng>
   </location>
   <location_type>APPROXIMATE</location_type>
   <viewport>
    <southwest>
     <lat>57.4691585</lat>
     <lng>24.6935007</lng>
    </southwest>
    <northeast>
     <lat>57.5076172</lat>
     <lng>24.7097307</lng>
    </northeast>
   </viewport>
   <bounds>
    <southwest>
     <lat>57.4691585</lat>
     <lng>24.6935007</lng>
    </southwest>
    <northeast>
     <lat>57.5076172</lat>
     <lng>24.7097307</lng>
    </northeast>
   </bounds>
  </geometry>
  <partial_match>true</partial_match>
  <place_id>ChIJl7STX4sD7EYROx_YC7QRwNM</place_id>
 </result>
</GeocodeResponse>
