<?xml version="1.0" encoding="UTF-8"?>
<GeocodeResponse>
 <status>OK</status>
 <result>
  <type>locality</type>
  <type>political</type>
  <formatted_address>4730-440 Pico, Portugal</formatted_address>
  <address_component>
   <long_name>Pico</long_name>
   <short_name>Pico</short_name>
   <type>locality</type>
   <type>political</type>
  </address_component>
  <address_component>
   <long_name>Braga</long_name>
   <short_name>Braga</short_name>
   <type>administrative_area_level_1</type>
   <type>political</type>
  </address_component>
  <address_component>
   <long_name>Portugal</long_name>
   <short_name>PT</short_name>
   <type>country</type>
   <type>political</type>
  </address_component>
  <address_component>
   <long_name>4730-380</long_name>
   <short_name>4730-380</short_name>
   <type>postal_code</type>
  </address_component>
  <address_component>
   <long_name>4730</long_name>
   <short_name>4730</short_name>
   <type>postal_code_prefix</type>
   <type>postal_code</type>
  </address_component>
  <geometry>
   <location>
    <lat>41.6959428</lat>
    <lng>-8.4154951</lng>
   </location>
   <location_type>APPROXIMATE</location_type>
   <viewport>
    <southwest>
     <lat>41.6876108</lat>
     <lng>-8.4315025</lng>
    </southwest>
    <northeast>
     <lat>41.7042738</lat>
     <lng>-8.3994877</lng>
    </northeast>
   </viewport>
  </geometry>
  <place_id>ChIJD5oogbYGJQ0R3FbuI553jQs</place_id>
 </result>
 <result>
  <type>natural_feature</type>
  <type>establishment</type>
  <formatted_address>Mount Pico, 9950, Portugal</formatted_address>
  <address_component>
   <long_name>Mount Pico</long_name>
   <short_name>Mount Pico</short_name>
   <type>natural_feature</type>
   <type>establishment</type>
  </address_component>
  <address_component>
   <long_name>Azores</long_name>
   <short_name>Azores</short_name>
   <type>administrative_area_level_1</type>
   <type>political</type>
  </address_component>
  <address_component>
   <long_name>Portugal</long_name>
   <short_name>PT</short_name>
   <type>country</type>
   <type>political</type>
  </address_component>
  <address_component>
   <long_name>9950</long_name>
   <short_name>9950</short_name>
   <type>postal_code_prefix</type>
   <type>postal_code</type>
  </address_component>
  <geometry>
   <location>
    <lat>38.4686758</lat>
    <lng>-28.3992576</lng>
   </location>
   <location_type>APPROXIMATE</location_type>
   <viewport>
    <southwest>
     <lat>38.4673268</lat>
     <lng>-28.4006066</lng>
    </southwest>
    <northeast>
     <lat>38.4700248</lat>
     <lng>-28.3979086</lng>
    </northeast>
   </viewport>
  </geometry>
  <place_id>ChIJBdCqHJaQRwsRyfaFzXU5Dpk</place_id>
 </result>
 <result>
  <type>natural_feature</type>
  <type>establishment</type>
  <formatted_address>Pico Island, Portugal</formatted_address>
  <address_component>
   <long_name>Pico Island</long_name>
   <short_name>Pico Island</short_name>
   <type>natural_feature</type>
   <type>establishment</type>
  </address_component>
  <address_component>
   <long_name>Azores</long_name>
   <short_name>Azores</short_name>
   <type>administrative_area_level_1</type>
   <type>political</type>
  </address_component>
  <address_component>
   <long_name>Portugal</long_name>
   <short_name>PT</short_name>
   <type>country</type>
   <type>political</type>
  </address_component>
  <geometry>
   <location>
    <lat>38.4580494</lat>
    <lng>-28.3228165</lng>
   </location>
   <location_type>APPROXIMATE</location_type>
   <viewport>
    <southwest>
     <lat>38.3820707</lat>
     <lng>-28.5419682</lng>
    </southwest>
    <northeast>
     <lat>38.5614312</lat>
     <lng>-28.0281957</lng>
    </northeast>
   </viewport>
   <bounds>
    <southwest>
     <lat>38.3820707</lat>
     <lng>-28.5419682</lng>
    </southwest>
    <northeast>
     <lat>38.5614312</lat>
     <lng>-28.0281957</lng>
    </northeast>
   </bounds>
  </geometry>
  <place_id>ChIJmU9lqIOXRwsRRgwGaz6o8TE</place_id>
 </result>
 <result>
  <type>neighborhood</type>
  <type>political</type>
  <formatted_address>Pico, 4820 Armil, Portugal</formatted_address>
  <address_component>
   <long_name>Pico</long_name>
   <short_name>Pico</short_name>
   <type>neighborhood</type>
   <type>political</type>
  </address_component>
  <address_component>
   <long_name>Armil</long_name>
   <short_name>Armil</short_name>
   <type>locality</type>
   <type>political</type>
  </address_component>
  <address_component>
   <long_name>Braga</long_name>
   <short_name>Braga</short_name>
   <type>administrative_area_level_1</type>
   <type>political</type>
  </address_component>
  <address_component>
   <long_name>Portugal</long_name>
   <short_name>PT</short_name>
   <type>country</type>
   <type>political</type>
  </address_component>
  <address_component>
   <long_name>4820</long_name>
   <short_name>4820</short_name>
   <type>postal_code_prefix</type>
   <type>postal_code</type>
  </address_component>
  <geometry>
   <location>
    <lat>41.4184654</lat>
    <lng>-8.1871845</lng>
   </location>
   <location_type>APPROXIMATE</location_type>
   <viewport>
    <southwest>
     <lat>41.4171164</lat>
     <lng>-8.1885335</lng>
    </southwest>
    <northeast>
     <lat>41.4198144</lat>
     <lng>-8.1858355</lng>
    </northeast>
   </viewport>
  </geometry>
  <place_id>ChIJX8U76w_pJA0Rf45CGo63z8Q</place_id>
 </result>
</GeocodeResponse>
