<?xml version="1.0" encoding="UTF-8"?>
<GeocodeResponse>
 <status>OK</status>
 <result>
  <type>locality</type>
  <type>political</type>
  <formatted_address>Hamm, Germany</formatted_address>
  <address_component>
   <long_name>Hamm</long_name>
   <short_name>Hamm</short_name>
   <type>locality</type>
   <type>political</type>
  </address_component>
  <address_component>
   <long_name>Arnsberg</long_name>
   <short_name>Arnsberg</short_name>
   <type>administrative_area_level_2</type>
   <type>political</type>
  </address_component>
  <address_component>
   <long_name>North Rhine-Westphalia</long_name>
   <short_name>NRW</short_name>
   <type>administrative_area_level_1</type>
   <type>political</type>
  </address_component>
  <address_component>
   <long_name>Germany</long_name>
   <short_name>DE</short_name>
   <type>country</type>
   <type>political</type>
  </address_component>
  <geometry>
   <location>
    <lat>51.6738583</lat>
    <lng>7.8159816</lng>
   </location>
   <location_type>APPROXIMATE</location_type>
   <viewport>
    <southwest>
     <lat>51.5778978</lat>
     <lng>7.6747775</lng>
    </southwest>
    <northeast>
     <lat>51.7445973</lat>
     <lng>7.9973434</lng>
    </northeast>
   </viewport>
   <bounds>
    <southwest>
     <lat>51.5778978</lat>
     <lng>7.6747775</lng>
    </southwest>
    <northeast>
     <lat>51.7445973</lat>
     <lng>7.9973434</lng>
    </northeast>
   </bounds>
  </geometry>
  <place_id>ChIJ1UToklhxuUcRcIdUMYHyJwQ</place_id>
 </result>
 <result>
  <type>sublocality_level_1</type>
  <type>sublocality</type>
  <type>political</type>
  <formatted_address>Hamm, 41748 Viersen, Germany</formatted_address>
  <address_component>
   <long_name>Hamm</long_name>
   <short_name>Hamm</short_name>
   <type>sublocality_level_1</type>
   <type>sublocality</type>
   <type>political</type>
  </address_component>
  <address_component>
   <long_name>Viersen</long_name>
   <short_name>Viersen</short_name>
   <type>locality</type>
   <type>political</type>
  </address_component>
  <address_component>
   <long_name>Düsseldorf</long_name>
   <short_name>Düsseldorf</short_name>
   <type>administrative_area_level_2</type>
   <type>political</type>
  </address_component>
  <address_component>
   <long_name>Nordrhein-Westfalen</long_name>
   <short_name>NRW</short_name>
   <type>administrative_area_level_1</type>
   <type>political</type>
  </address_component>
  <address_component>
   <long_name>Germany</long_name>
   <short_name>DE</short_name>
   <type>country</type>
   <type>political</type>
  </address_component>
  <address_component>
   <long_name>41748</long_name>
   <short_name>41748</short_name>
   <type>postal_code</type>
  </address_component>
  <geometry>
   <location>
    <lat>51.2508058</lat>
    <lng>6.4239501</lng>
   </location>
   <location_type>APPROXIMATE</location_type>
   <viewport>
    <southwest>
     <lat>51.2494568</lat>
     <lng>6.4226011</lng>
    </southwest>
    <northeast>
     <lat>51.2521548</lat>
     <lng>6.4252991</lng>
    </northeast>
   </viewport>
  </geometry>
  <place_id>ChIJhQJfbOOruEcRFV9HpVEf_Tw</place_id>
 </result>
 <result>
  <type>sublocality_level_1</type>
  <type>sublocality</type>
  <type>political</type>
  <formatted_address>Hamm, 45772 Marl, Germany</formatted_address>
  <address_component>
   <long_name>Hamm</long_name>
   <short_name>Hamm</short_name>
   <type>sublocality_level_1</type>
   <type>sublocality</type>
   <type>political</type>
  </address_component>
  <address_component>
   <long_name>Marl</long_name>
   <short_name>Marl</short_name>
   <type>locality</type>
   <type>political</type>
  </address_component>
  <address_component>
   <long_name>Münster</long_name>
   <short_name>MS</short_name>
   <type>administrative_area_level_2</type>
   <type>political</type>
  </address_component>
  <address_component>
   <long_name>Nordrhein-Westfalen</long_name>
   <short_name>NRW</short_name>
   <type>administrative_area_level_1</type>
   <type>political</type>
  </address_component>
  <address_component>
   <long_name>Germany</long_name>
   <short_name>DE</short_name>
   <type>country</type>
   <type>political</type>
  </address_component>
  <address_component>
   <long_name>45772</long_name>
   <short_name>45772</short_name>
   <type>postal_code</type>
  </address_component>
  <geometry>
   <location>
    <lat>51.6792994</lat>
    <lng>7.1364723</lng>
   </location>
   <location_type>APPROXIMATE</location_type>
   <viewport>
    <southwest>
     <lat>51.6766032</lat>
     <lng>7.1303984</lng>
    </southwest>
    <northeast>
     <lat>51.6871279</lat>
     <lng>7.1412469</lng>
    </northeast>
   </viewport>
   <bounds>
    <southwest>
     <lat>51.6766032</lat>
     <lng>7.1303984</lng>
    </southwest>
    <northeast>
     <lat>51.6871279</lat>
     <lng>7.1412469</lng>
    </northeast>
   </bounds>
  </geometry>
  <place_id>ChIJS5uPoav7uEcRmF_EcbnKQeU</place_id>
 </result>
 <result>
  <type>sublocality_level_2</type>
  <type>sublocality</type>
  <type>political</type>
  <formatted_address>Düsseldorf-Hamm, Düsseldorf, Germany</formatted_address>
  <address_component>
   <long_name>Düsseldorf-Hamm</long_name>
   <short_name>Düsseldorf-Hamm</short_name>
   <type>sublocality_level_2</type>
   <type>sublocality</type>
   <type>political</type>
  </address_component>
  <address_component>
   <long_name>Stadtbezirk 3</long_name>
   <short_name>Stadtbezirk 3</short_name>
   <type>sublocality_level_1</type>
   <type>sublocality</type>
   <type>political</type>
  </address_component>
  <address_component>
   <long_name>Düsseldorf</long_name>
   <short_name>Düsseldorf</short_name>
   <type>locality</type>
   <type>political</type>
  </address_component>
  <address_component>
   <long_name>Düsseldorf</long_name>
   <short_name>Düsseldorf</short_name>
   <type>administrative_area_level_2</type>
   <type>political</type>
  </address_component>
  <address_component>
   <long_name>North Rhine-Westphalia</long_name>
   <short_name>NRW</short_name>
   <type>administrative_area_level_1</type>
   <type>political</type>
  </address_component>
  <address_component>
   <long_name>Germany</long_name>
   <short_name>DE</short_name>
   <type>country</type>
   <type>political</type>
  </address_component>
  <geometry>
   <location>
    <lat>51.2004611</lat>
    <lng>6.7376766</lng>
   </location>
   <location_type>APPROXIMATE</location_type>
   <viewport>
    <southwest>
     <lat>51.1825419</lat>
     <lng>6.7294681</lng>
    </southwest>
    <northeast>
     <lat>51.2128509</lat>
     <lng>6.7621921</lng>
    </northeast>
   </viewport>
   <bounds>
    <southwest>
     <lat>51.1825419</lat>
     <lng>6.7294681</lng>
    </southwest>
    <northeast>
     <lat>51.2128509</lat>
     <lng>6.7621921</lng>
    </northeast>
   </bounds>
  </geometry>
  <place_id>ChIJOy_8bIi1uEcRsMEtSvxgJwU</place_id>
 </result>
 <result>
  <type>sublocality_level_1</type>
  <type>sublocality</type>
  <type>political</type>
  <formatted_address>Hamm, 45721 Haltern am See, Germany</formatted_address>
  <address_component>
   <long_name>Hamm</long_name>
   <short_name>Hamm</short_name>
   <type>sublocality_level_1</type>
   <type>sublocality</type>
   <type>political</type>
  </address_component>
  <address_component>
   <long_name>Haltern am See</long_name>
   <short_name>Haltern am See</short_name>
   <type>locality</type>
   <type>political</type>
  </address_component>
  <address_component>
   <long_name>Münster</long_name>
   <short_name>MS</short_name>
   <type>administrative_area_level_2</type>
   <type>political</type>
  </address_component>
  <address_component>
   <long_name>Nordrhein-Westfalen</long_name>
   <short_name>NRW</short_name>
   <type>administrative_area_level_1</type>
   <type>political</type>
  </address_component>
  <address_component>
   <long_name>Germany</long_name>
   <short_name>DE</short_name>
   <type>country</type>
   <type>political</type>
  </address_component>
  <address_component>
   <long_name>45721</long_name>
   <short_name>45721</short_name>
   <type>postal_code</type>
  </address_component>
  <geometry>
   <location>
    <lat>51.7206042</lat>
    <lng>7.1704073</lng>
   </location>
   <location_type>APPROXIMATE</location_type>
   <viewport>
    <southwest>
     <lat>51.7182860</lat>
     <lng>7.1672063</lng>
    </southwest>
    <northeast>
     <lat>51.7221035</lat>
     <lng>7.1744254</lng>
    </northeast>
   </viewport>
   <bounds>
    <southwest>
     <lat>51.7182860</lat>
     <lng>7.1672063</lng>
    </southwest>
    <northeast>
     <lat>51.7221035</lat>
     <lng>7.1744254</lng>
    </northeast>
   </bounds>
  </geometry>
  <place_id>ChIJ7_sWuF_5uEcR3MvKa-xvc80</place_id>
 </result>
 <result>
  <type>locality</type>
  <type>political</type>
  <formatted_address>Hamm am Rhein, Germany</formatted_address>
  <address_component>
   <long_name>Hamm am Rhein</long_name>
   <short_name>Hamm am Rhein</short_name>
   <type>locality</type>
   <type>political</type>
  </address_component>
  <address_component>
   <long_name>Alzey-Worms</long_name>
   <short_name>Alzey-Worms</short_name>
   <type>administrative_area_level_3</type>
   <type>political</type>
  </address_component>
  <address_component>
   <long_name>Rhineland-Palatinate</long_name>
   <short_name>RP</short_name>
   <type>administrative_area_level_1</type>
   <type>political</type>
  </address_component>
  <address_component>
   <long_name>Germany</long_name>
   <short_name>DE</short_name>
   <type>country</type>
   <type>political</type>
  </address_component>
  <geometry>
   <location>
    <lat>49.7327045</lat>
    <lng>8.4311885</lng>
   </location>
   <location_type>APPROXIMATE</location_type>
   <viewport>
    <southwest>
     <lat>49.7264204</lat>
     <lng>8.4074503</lng>
    </southwest>
    <northeast>
     <lat>49.7689894</lat>
     <lng>8.4798711</lng>
    </northeast>
   </viewport>
   <bounds>
    <southwest>
     <lat>49.7264204</lat>
     <lng>8.4074503</lng>
    </southwest>
    <northeast>
     <lat>49.7689894</lat>
     <lng>8.4798711</lng>
    </northeast>
   </bounds>
  </geometry>
  <place_id>ChIJ-bbpIRaAvUcR64GtPiHsJsc</place_id>
 </result>
</GeocodeResponse>
