<?xml version="1.0" encoding="UTF-8"?>
<GeocodeResponse>
 <status>OK</status>
 <result>
  <type>locality</type>
  <type>political</type>
  <formatted_address>Valka, Valkas pilsēta, LV-4701, Latvia</formatted_address>
  <address_component>
   <long_name>Valka</long_name>
   <short_name>Valka</short_name>
   <type>locality</type>
   <type>political</type>
  </address_component>
  <address_component>
   <long_name>Valkas pilsēta</long_name>
   <short_name>Valkas pilsēta</short_name>
   <type>administrative_area_level_2</type>
   <type>political</type>
  </address_component>
  <address_component>
   <long_name>Valka Municipality</long_name>
   <short_name>Valka Municipality</short_name>
   <type>administrative_area_level_1</type>
   <type>political</type>
  </address_component>
  <address_component>
   <long_name>Latvia</long_name>
   <short_name>LV</short_name>
   <type>country</type>
   <type>political</type>
  </address_component>
  <address_component>
   <long_name>LV-4701</long_name>
   <short_name>LV-4701</short_name>
   <type>postal_code</type>
  </address_component>
  <geometry>
   <location>
    <lat>57.7760410</lat>
    <lng>26.0028389</lng>
   </location>
   <location_type>APPROXIMATE</location_type>
   <viewport>
    <southwest>
     <lat>57.7562929</lat>
     <lng>25.9669810</lng>
    </southwest>
    <northeast>
     <lat>57.7993799</lat>
     <lng>26.0540450</lng>
    </northeast>
   </viewport>
   <bounds>
    <southwest>
     <lat>57.7562929</lat>
     <lng>25.9669810</lng>
    </southwest>
    <northeast>
     <lat>57.7993799</lat>
     <lng>26.0540450</lng>
    </northeast>
   </bounds>
  </geometry>
  <partial_match>true</partial_match>
  <place_id>ChIJi9HbYzai60YRsB3zaM3PAAQ</place_id>
 </result>
 <result>
  <type>route</type>
  <formatted_address>Valkas iela, Centra rajons, Rīga, LV-1010, Latvia</formatted_address>
  <address_component>
   <long_name>Valkas iela</long_name>
   <short_name>Valkas iela</short_name>
   <type>route</type>
  </address_component>
  <address_component>
   <long_name>Centra rajons</long_name>
   <short_name>Centra rajons</short_name>
   <type>sublocality_level_1</type>
   <type>sublocality</type>
   <type>political</type>
  </address_component>
  <address_component>
   <long_name>Rīga</long_name>
   <short_name>Rīga</short_name>
   <type>locality</type>
   <type>political</type>
  </address_component>
  <address_component>
   <long_name>Rīgas pilsēta</long_name>
   <short_name>Rīgas pilsēta</short_name>
   <type>administrative_area_level_2</type>
   <type>political</type>
  </address_component>
  <address_component>
   <long_name>Riga</long_name>
   <short_name>Riga</short_name>
   <type>administrative_area_level_1</type>
   <type>political</type>
  </address_component>
  <address_component>
   <long_name>Latvia</long_name>
   <short_name>LV</short_name>
   <type>country</type>
   <type>political</type>
  </address_component>
  <address_component>
   <long_name>LV-1010</long_name>
   <short_name>LV-1010</short_name>
   <type>postal_code</type>
  </address_component>
  <geometry>
   <location>
    <lat>56.9622100</lat>
    <lng>24.1021100</lng>
   </location>
   <location_type>GEOMETRIC_CENTER</location_type>
   <viewport>
    <southwest>
     <lat>56.9611410</lat>
     <lng>24.1002393</lng>
    </southwest>
    <northeast>
     <lat>56.9638390</lat>
     <lng>24.1032400</lng>
    </northeast>
   </viewport>
   <bounds>
    <southwest>
     <lat>56.9622100</lat>
     <lng>24.1002393</lng>
    </southwest>
    <northeast>
     <lat>56.9627700</lat>
     <lng>24.1032400</lng>
    </northeast>
   </bounds>
  </geometry>
  <partial_match>true</partial_match>
  <place_id>ChIJg7b028PP7kYRo1qUqEKB1GI</place_id>
 </result>
 <result>
  <type>route</type>
  <formatted_address>Valkas iela, Strenči, Strenču pilsēta, LV-4730, Latvia</formatted_address>
  <address_component>
   <long_name>Valkas iela</long_name>
   <short_name>Valkas iela</short_name>
   <type>route</type>
  </address_component>
  <address_component>
   <long_name>Strenči</long_name>
   <short_name>Strenči</short_name>
   <type>locality</type>
   <type>political</type>
  </address_component>
  <address_component>
   <long_name>Strenču pilsēta</long_name>
   <short_name>Strenču pilsēta</short_name>
   <type>administrative_area_level_2</type>
   <type>political</type>
  </address_component>
  <address_component>
   <long_name>Strenči Municipality</long_name>
   <short_name>Strenči Municipality</short_name>
   <type>administrative_area_level_1</type>
   <type>political</type>
  </address_component>
  <address_component>
   <long_name>Latvia</long_name>
   <short_name>LV</short_name>
   <type>country</type>
   <type>political</type>
  </address_component>
  <address_component>
   <long_name>LV-4730</long_name>
   <short_name>LV-4730</short_name>
   <type>postal_code</type>
  </address_component>
  <geometry>
   <location>
    <lat>57.6272544</lat>
    <lng>25.7041501</lng>
   </location>
   <location_type>GEOMETRIC_CENTER</location_type>
   <viewport>
    <southwest>
     <lat>57.6253525</lat>
     <lng>25.6888137</lng>
    </southwest>
    <northeast>
     <lat>57.6300157</lat>
     <lng>25.7184486</lng>
    </northeast>
   </viewport>
   <bounds>
    <southwest>
     <lat>57.6253525</lat>
     <lng>25.6888137</lng>
    </southwest>
    <northeast>
     <lat>57.6300157</lat>
     <lng>25.7184486</lng>
    </northeast>
   </bounds>
  </geometry>
  <partial_match>true</partial_match>
  <place_id>ChIJWw9Yz6WV60YRGhuMnyWjTs0</place_id>
 </result>
 <result>
  <type>route</type>
  <formatted_address>Valkas iela, Smiltene, Smiltenes pilsēta, LV-4729, Latvia</formatted_address>
  <address_component>
   <long_name>Valkas iela</long_name>
   <short_name>Valkas iela</short_name>
   <type>route</type>
  </address_component>
  <address_component>
   <long_name>Smiltene</long_name>
   <short_name>Smiltene</short_name>
   <type>locality</type>
   <type>political</type>
  </address_component>
  <address_component>
   <long_name>Smiltenes pilsēta</long_name>
   <short_name>Smiltenes pilsēta</short_name>
   <type>administrative_area_level_2</type>
   <type>political</type>
  </address_component>
  <address_component>
   <long_name>Smiltene Municipality</long_name>
   <short_name>Smiltene Municipality</short_name>
   <type>administrative_area_level_1</type>
   <type>political</type>
  </address_component>
  <address_component>
   <long_name>Latvia</long_name>
   <short_name>LV</short_name>
   <type>country</type>
   <type>political</type>
  </address_component>
  <address_component>
   <long_name>LV-4729</long_name>
   <short_name>LV-4729</short_name>
   <type>postal_code</type>
  </address_component>
  <geometry>
   <location>
    <lat>57.4290592</lat>
    <lng>25.9015971</lng>
   </location>
   <location_type>GEOMETRIC_CENTER</location_type>
   <viewport>
    <southwest>
     <lat>57.4270558</lat>
     <lng>25.8987165</lng>
    </southwest>
    <northeast>
     <lat>57.4320674</lat>
     <lng>25.9033906</lng>
    </northeast>
   </viewport>
   <bounds>
    <southwest>
     <lat>57.4270558</lat>
     <lng>25.8987165</lng>
    </southwest>
    <northeast>
     <lat>57.4320674</lat>
     <lng>25.9033906</lng>
    </northeast>
   </bounds>
  </geometry>
  <partial_match>true</partial_match>
  <place_id>ChIJ4-n3S_7F60YRi6Y6b7bQqz8</place_id>
 </result>
 <result>
  <type>route</type>
  <formatted_address>Valkas iela, Valmiera, LV-4201, Latvia</formatted_address>
  <address_component>
   <long_name>Valkas iela</long_name>
   <short_name>Valkas iela</short_name>
   <type>route</type>
  </address_component>
  <address_component>
   <long_name>Valmiera</long_name>
   <short_name>Valmiera</short_name>
   <type>locality</type>
   <type>political</type>
  </address_component>
  <address_component>
   <long_name>Valmieras pilsēta</long_name>
   <short_name>Valmieras pilsēta</short_name>
   <type>administrative_area_level_2</type>
   <type>political</type>
  </address_component>
  <address_component>
   <long_name>Valmiera</long_name>
   <short_name>Valmiera</short_name>
   <type>administrative_area_level_1</type>
   <type>political</type>
  </address_component>
  <address_component>
   <long_name>Latvia</long_name>
   <short_name>LV</short_name>
   <type>country</type>
   <type>political</type>
  </address_component>
  <address_component>
   <long_name>LV-4201</long_name>
   <short_name>LV-4201</short_name>
   <type>postal_code</type>
  </address_component>
  <geometry>
   <location>
    <lat>57.5488776</lat>
    <lng>25.4358432</lng>
   </location>
   <location_type>GEOMETRIC_CENTER</location_type>
   <viewport>
    <southwest>
     <lat>57.5476218</lat>
     <lng>25.4223092</lng>
    </southwest>
    <northeast>
     <lat>57.5539203</lat>
     <lng>25.4463024</lng>
    </northeast>
   </viewport>
   <bounds>
    <southwest>
     <lat>57.5476218</lat>
     <lng>25.4223092</lng>
    </southwest>
    <northeast>
     <lat>57.5539203</lat>
     <lng>25.4463024</lng>
    </northeast>
   </bounds>
  </geometry>
  <partial_match>true</partial_match>
  <place_id>ChIJ5whXSTHs60YRjRS-1xov0S0</place_id>
 </result>
 <result>
  <type>route</type>
  <formatted_address>Valkas iela, Rencēni, Rencēnu pagasts, LV-4232, Latvia</formatted_address>
  <address_component>
   <long_name>Valkas iela</long_name>
   <short_name>Valkas iela</short_name>
   <type>route</type>
  </address_component>
  <address_component>
   <long_name>Rencēni</long_name>
   <short_name>Rencēni</short_name>
   <type>locality</type>
   <type>political</type>
  </address_component>
  <address_component>
   <long_name>Rencēnu pagasts</long_name>
   <short_name>Rencēnu pagasts</short_name>
   <type>administrative_area_level_2</type>
   <type>political</type>
  </address_component>
  <address_component>
   <long_name>Burtnieki Municipality</long_name>
   <short_name>Burtnieki Municipality</short_name>
   <type>administrative_area_level_1</type>
   <type>political</type>
  </address_component>
  <address_component>
   <long_name>Latvia</long_name>
   <short_name>LV</short_name>
   <type>country</type>
   <type>political</type>
  </address_component>
  <address_component>
   <long_name>LV-4232</long_name>
   <short_name>LV-4232</short_name>
   <type>postal_code</type>
  </address_component>
  <geometry>
   <location>
    <lat>57.7308905</lat>
    <lng>25.4388199</lng>
   </location>
   <location_type>GEOMETRIC_CENTER</location_type>
   <viewport>
    <southwest>
     <lat>57.7293637</lat>
     <lng>25.4296419</lng>
    </southwest>
    <northeast>
     <lat>57.7320937</lat>
     <lng>25.4472680</lng>
    </northeast>
   </viewport>
   <bounds>
    <southwest>
     <lat>57.7293637</lat>
     <lng>25.4296419</lng>
    </southwest>
    <northeast>
     <lat>57.7320937</lat>
     <lng>25.4472680</lng>
    </northeast>
   </bounds>
  </geometry>
  <partial_match>true</partial_match>
  <place_id>ChIJ94pOZn6O60YR7X-vhuEzZMk</place_id>
 </result>
 <result>
  <type>route</type>
  <formatted_address>Valkas iela, Lejasciems, Lejasciema pagasts, LV-4412, Latvia</formatted_address>
  <address_component>
   <long_name>Valkas iela</long_name>
   <short_name>Valkas iela</short_name>
   <type>route</type>
  </address_component>
  <address_component>
   <long_name>Lejasciems</long_name>
   <short_name>Lejasciems</short_name>
   <type>locality</type>
   <type>political</type>
  </address_component>
  <address_component>
   <long_name>Lejasciema pagasts</long_name>
   <short_name>Lejasciema pagasts</short_name>
   <type>administrative_area_level_2</type>
   <type>political</type>
  </address_component>
  <address_component>
   <long_name>Gulbene Municipality</long_name>
   <short_name>Gulbene Municipality</short_name>
   <type>administrative_area_level_1</type>
   <type>political</type>
  </address_component>
  <address_component>
   <long_name>Latvia</long_name>
   <short_name>LV</short_name>
   <type>country</type>
   <type>political</type>
  </address_component>
  <address_component>
   <long_name>LV-4412</long_name>
   <short_name>LV-4412</short_name>
   <type>postal_code</type>
  </address_component>
  <geometry>
   <location>
    <lat>57.2878956</lat>
    <lng>26.5782029</lng>
   </location>
   <location_type>GEOMETRIC_CENTER</location_type>
   <viewport>
    <southwest>
     <lat>57.2841391</lat>
     <lng>26.5741807</lng>
    </southwest>
    <northeast>
     <lat>57.2910356</lat>
     <lng>26.5816048</lng>
    </northeast>
   </viewport>
   <bounds>
    <southwest>
     <lat>57.2841391</lat>
     <lng>26.5741807</lng>
    </southwest>
    <northeast>
     <lat>57.2910356</lat>
     <lng>26.5816048</lng>
    </northeast>
   </bounds>
  </geometry>
  <partial_match>true</partial_match>
  <place_id>ChIJh6KIFWQ56kYRwSHdBBmt0a0</place_id>
 </result>
 <result>
  <type>route</type>
  <formatted_address>Valkas iela, Alūksne, Alūksnes pilsēta, LV-4301, Latvia</formatted_address>
  <address_component>
   <long_name>Valkas iela</long_name>
   <short_name>Valkas iela</short_name>
   <type>route</type>
  </address_component>
  <address_component>
   <long_name>Alūksne</long_name>
   <short_name>Alūksne</short_name>
   <type>locality</type>
   <type>political</type>
  </address_component>
  <address_component>
   <long_name>Alūksnes pilsēta</long_name>
   <short_name>Alūksnes pilsēta</short_name>
   <type>administrative_area_level_2</type>
   <type>political</type>
  </address_component>
  <address_component>
   <long_name>Alūksne Municipality</long_name>
   <short_name>Alūksne Municipality</short_name>
   <type>administrative_area_level_1</type>
   <type>political</type>
  </address_component>
  <address_component>
   <long_name>Latvia</long_name>
   <short_name>LV</short_name>
   <type>country</type>
   <type>political</type>
  </address_component>
  <address_component>
   <long_name>LV-4301</long_name>
   <short_name>LV-4301</short_name>
   <type>postal_code</type>
  </address_component>
  <geometry>
   <location>
    <lat>57.4159686</lat>
    <lng>27.0555117</lng>
   </location>
   <location_type>GEOMETRIC_CENTER</location_type>
   <viewport>
    <southwest>
     <lat>57.4152146</lat>
     <lng>27.0481685</lng>
    </southwest>
    <northeast>
     <lat>57.4179126</lat>
     <lng>27.0610085</lng>
    </northeast>
   </viewport>
   <bounds>
    <southwest>
     <lat>57.4152335</lat>
     <lng>27.0481685</lng>
    </southwest>
    <northeast>
     <lat>57.4178937</lat>
     <lng>27.0610085</lng>
    </northeast>
   </bounds>
  </geometry>
  <partial_match>true</partial_match>
  <place_id>ChIJg0u4Wv5o6kYRkIUqOl5_Bmc</place_id>
 </result>
 <result>
  <type>route</type>
  <formatted_address>Valkas iela, Jūrmala, LV-2011, Latvia</formatted_address>
  <address_component>
   <long_name>Valkas iela</long_name>
   <short_name>Valkas iela</short_name>
   <type>route</type>
  </address_component>
  <address_component>
   <long_name>Jūrmala</long_name>
   <short_name>Jūrmala</short_name>
   <type>locality</type>
   <type>political</type>
  </address_component>
  <address_component>
   <long_name>Jūrmalas pilsēta</long_name>
   <short_name>Jūrmalas pilsēta</short_name>
   <type>administrative_area_level_2</type>
   <type>political</type>
  </address_component>
  <address_component>
   <long_name>Jūrmala</long_name>
   <short_name>Jūrmala</short_name>
   <type>administrative_area_level_1</type>
   <type>political</type>
  </address_component>
  <address_component>
   <long_name>Latvia</long_name>
   <short_name>LV</short_name>
   <type>country</type>
   <type>political</type>
  </address_component>
  <address_component>
   <long_name>LV-2011</long_name>
   <short_name>LV-2011</short_name>
   <type>postal_code</type>
  </address_component>
  <geometry>
   <location>
    <lat>56.9420475</lat>
    <lng>23.6118393</lng>
   </location>
   <location_type>GEOMETRIC_CENTER</location_type>
   <viewport>
    <southwest>
     <lat>56.9400438</lat>
     <lng>23.6092925</lng>
    </southwest>
    <northeast>
     <lat>56.9438906</lat>
     <lng>23.6146376</lng>
    </northeast>
   </viewport>
   <bounds>
    <southwest>
     <lat>56.9400438</lat>
     <lng>23.6092925</lng>
    </southwest>
    <northeast>
     <lat>56.9438906</lat>
     <lng>23.6146376</lng>
    </northeast>
   </bounds>
  </geometry>
  <partial_match>true</partial_match>
  <place_id>ChIJV3fA8Cnh7kYRJIEN_b3MgrM</place_id>
 </result>
 <result>
  <type>route</type>
  <formatted_address>Valkas iela, Daugavpils, Latvia</formatted_address>
  <address_component>
   <long_name>Valkas iela</long_name>
   <short_name>Valkas iela</short_name>
   <type>route</type>
  </address_component>
  <address_component>
   <long_name>Daugavpils</long_name>
   <short_name>Daugavpils</short_name>
   <type>locality</type>
   <type>political</type>
  </address_component>
  <address_component>
   <long_name>Daugavpils pilsēta</long_name>
   <short_name>Daugavpils pilsēta</short_name>
   <type>administrative_area_level_2</type>
   <type>political</type>
  </address_component>
  <address_component>
   <long_name>Daugavpils</long_name>
   <short_name>Daugavpils</short_name>
   <type>administrative_area_level_1</type>
   <type>political</type>
  </address_component>
  <address_component>
   <long_name>Latvia</long_name>
   <short_name>LV</short_name>
   <type>country</type>
   <type>political</type>
  </address_component>
  <geometry>
   <location>
    <lat>55.8829724</lat>
    <lng>26.5550875</lng>
   </location>
   <location_type>GEOMETRIC_CENTER</location_type>
   <viewport>
    <southwest>
     <lat>55.8764447</lat>
     <lng>26.5433861</lng>
    </southwest>
    <northeast>
     <lat>55.8897167</lat>
     <lng>26.5687210</lng>
    </northeast>
   </viewport>
   <bounds>
    <southwest>
     <lat>55.8764447</lat>
     <lng>26.5433861</lng>
    </southwest>
    <northeast>
     <lat>55.8897167</lat>
     <lng>26.5687210</lng>
    </northeast>
   </bounds>
  </geometry>
  <partial_match>true</partial_match>
  <place_id>ChIJ28ys1UyUwkYRFNXmdpZq5f8</place_id>
 </result>
</GeocodeResponse>
