<?xml version="1.0" encoding="UTF-8"?>
<GeocodeResponse>
 <status>OK</status>
 <result>
  <type>locality</type>
  <type>political</type>
  <formatted_address>39100 Bolzano, Province of Bolzano - South Tyrol, Italy</formatted_address>
  <address_component>
   <long_name>Bolzano</long_name>
   <short_name>Bolzano</short_name>
   <type>locality</type>
   <type>political</type>
  </address_component>
  <address_component>
   <long_name>Bolzano</long_name>
   <short_name>Bolzano</short_name>
   <type>administrative_area_level_3</type>
   <type>political</type>
  </address_component>
  <address_component>
   <long_name>Province of Bolzano - South Tyrol</long_name>
   <short_name>BZ</short_name>
   <type>administrative_area_level_2</type>
   <type>political</type>
  </address_component>
  <address_component>
   <long_name>Trentino-Alto Adige/South Tyrol</long_name>
   <short_name>Trentino-Alto Adige/South Tyrol</short_name>
   <type>administrative_area_level_1</type>
   <type>political</type>
  </address_component>
  <address_component>
   <long_name>Italy</long_name>
   <short_name>IT</short_name>
   <type>country</type>
   <type>political</type>
  </address_component>
  <address_component>
   <long_name>39100</long_name>
   <short_name>39100</short_name>
   <type>postal_code</type>
  </address_component>
  <geometry>
   <location>
    <lat>46.4982953</lat>
    <lng>11.3547582</lng>
   </location>
   <location_type>APPROXIMATE</location_type>
   <viewport>
    <southwest>
     <lat>46.4630385</lat>
     <lng>11.3136675</lng>
    </southwest>
    <northeast>
     <lat>46.5154347</lat>
     <lng>11.3806479</lng>
    </northeast>
   </viewport>
   <bounds>
    <southwest>
     <lat>46.4630385</lat>
     <lng>11.3136675</lng>
    </southwest>
    <northeast>
     <lat>46.5154347</lat>
     <lng>11.3806479</lng>
    </northeast>
   </bounds>
  </geometry>
  <place_id>ChIJSXCeQSucgkcRKkOLNE9pK2U</place_id>
 </result>
 <result>
  <type>locality</type>
  <type>political</type>
  <formatted_address>32100 Bolzano BL, Italy</formatted_address>
  <address_component>
   <long_name>Bolzano</long_name>
   <short_name>Bolzano</short_name>
   <type>locality</type>
   <type>political</type>
  </address_component>
  <address_component>
   <long_name>Belluno</long_name>
   <short_name>Belluno</short_name>
   <type>administrative_area_level_3</type>
   <type>political</type>
  </address_component>
  <address_component>
   <long_name>Provincia di Belluno</long_name>
   <short_name>BL</short_name>
   <type>administrative_area_level_2</type>
   <type>political</type>
  </address_component>
  <address_component>
   <long_name>Veneto</long_name>
   <short_name>Veneto</short_name>
   <type>administrative_area_level_1</type>
   <type>political</type>
  </address_component>
  <address_component>
   <long_name>Italy</long_name>
   <short_name>IT</short_name>
   <type>country</type>
   <type>political</type>
  </address_component>
  <address_component>
   <long_name>32100</long_name>
   <short_name>32100</short_name>
   <type>postal_code</type>
  </address_component>
  <geometry>
   <location>
    <lat>46.1631394</lat>
    <lng>12.1874823</lng>
   </location>
   <location_type>APPROXIMATE</location_type>
   <viewport>
    <southwest>
     <lat>46.1572678</lat>
     <lng>12.1846287</lng>
    </southwest>
    <northeast>
     <lat>46.1663751</lat>
     <lng>12.1915103</lng>
    </northeast>
   </viewport>
   <bounds>
    <southwest>
     <lat>46.1572678</lat>
     <lng>12.1846287</lng>
    </southwest>
    <northeast>
     <lat>46.1663751</lat>
     <lng>12.1915103</lng>
    </northeast>
   </bounds>
  </geometry>
  <place_id>ChIJXb9gfmgHeUcRTHaY64pRZeM</place_id>
 </result>
</GeocodeResponse>
