<?xml version="1.0" encoding="UTF-8"?>
<GeocodeResponse>
 <status>OK</status>
 <result>
  <type>locality</type>
  <type>political</type>
  <formatted_address>Hausen, Germany</formatted_address>
  <address_component>
   <long_name>Hausen</long_name>
   <short_name>Hausen</short_name>
   <type>locality</type>
   <type>political</type>
  </address_component>
  <address_component>
   <long_name>Forchheim</long_name>
   <short_name>FO</short_name>
   <type>administrative_area_level_3</type>
   <type>political</type>
  </address_component>
  <address_component>
   <long_name>Upper Franconia</long_name>
   <short_name>Upper Franconia</short_name>
   <type>administrative_area_level_2</type>
   <type>political</type>
  </address_component>
  <address_component>
   <long_name>Bavaria</long_name>
   <short_name>BY</short_name>
   <type>administrative_area_level_1</type>
   <type>political</type>
  </address_component>
  <address_component>
   <long_name>Germany</long_name>
   <short_name>DE</short_name>
   <type>country</type>
   <type>political</type>
  </address_component>
  <geometry>
   <location>
    <lat>49.6894285</lat>
    <lng>11.0318219</lng>
   </location>
   <location_type>APPROXIMATE</location_type>
   <viewport>
    <southwest>
     <lat>49.6708846</lat>
     <lng>10.9733964</lng>
    </southwest>
    <northeast>
     <lat>49.7246288</lat>
     <lng>11.0537870</lng>
    </northeast>
   </viewport>
   <bounds>
    <southwest>
     <lat>49.6708846</lat>
     <lng>10.9733964</lng>
    </southwest>
    <northeast>
     <lat>49.7246288</lat>
     <lng>11.0537870</lng>
    </northeast>
   </bounds>
  </geometry>
  <place_id>ChIJm5CDd6_3oUcRLabuapQY-6c</place_id>
 </result>
 <result>
  <type>locality</type>
  <type>political</type>
  <formatted_address>Hausen bei Würzburg, Germany</formatted_address>
  <address_component>
   <long_name>Hausen bei Würzburg</long_name>
   <short_name>Hausen bei Würzburg</short_name>
   <type>locality</type>
   <type>political</type>
  </address_component>
  <address_component>
   <long_name>Würzburg</long_name>
   <short_name>WÜ</short_name>
   <type>administrative_area_level_3</type>
   <type>political</type>
  </address_component>
  <address_component>
   <long_name>Lower Franconia</long_name>
   <short_name>Lower Franconia</short_name>
   <type>administrative_area_level_2</type>
   <type>political</type>
  </address_component>
  <address_component>
   <long_name>Bavaria</long_name>
   <short_name>BY</short_name>
   <type>administrative_area_level_1</type>
   <type>political</type>
  </address_component>
  <address_component>
   <long_name>Germany</long_name>
   <short_name>DE</short_name>
   <type>country</type>
   <type>political</type>
  </address_component>
  <geometry>
   <location>
    <lat>49.9280109</lat>
    <lng>10.0269910</lng>
   </location>
   <location_type>APPROXIMATE</location_type>
   <viewport>
    <southwest>
     <lat>49.8970909</lat>
     <lng>9.9857866</lng>
    </southwest>
    <northeast>
     <lat>49.9535198</lat>
     <lng>10.0703660</lng>
    </northeast>
   </viewport>
   <bounds>
    <southwest>
     <lat>49.8970909</lat>
     <lng>9.9857866</lng>
    </southwest>
    <northeast>
     <lat>49.9535198</lat>
     <lng>10.0703660</lng>
    </northeast>
   </bounds>
  </geometry>
  <place_id>ChIJLZOQPMbyokcRJj_CrJwbqpo</place_id>
 </result>
 <result>
  <type>locality</type>
  <type>political</type>
  <formatted_address>Hausen, Germany</formatted_address>
  <address_component>
   <long_name>Hausen</long_name>
   <short_name>Hausen</short_name>
   <type>locality</type>
   <type>political</type>
  </address_component>
  <address_component>
   <long_name>Miltenberg</long_name>
   <short_name>MIL</short_name>
   <type>administrative_area_level_3</type>
   <type>political</type>
  </address_component>
  <address_component>
   <long_name>Lower Franconia</long_name>
   <short_name>Lower Franconia</short_name>
   <type>administrative_area_level_2</type>
   <type>political</type>
  </address_component>
  <address_component>
   <long_name>Bavaria</long_name>
   <short_name>BY</short_name>
   <type>administrative_area_level_1</type>
   <type>political</type>
  </address_component>
  <address_component>
   <long_name>Germany</long_name>
   <short_name>DE</short_name>
   <type>country</type>
   <type>political</type>
  </address_component>
  <geometry>
   <location>
    <lat>49.8698446</lat>
    <lng>9.2095222</lng>
   </location>
   <location_type>APPROXIMATE</location_type>
   <viewport>
    <southwest>
     <lat>49.8536049</lat>
     <lng>9.1936640</lng>
    </southwest>
    <northeast>
     <lat>49.8902037</lat>
     <lng>9.2484606</lng>
    </northeast>
   </viewport>
   <bounds>
    <southwest>
     <lat>49.8536049</lat>
     <lng>9.1936640</lng>
    </southwest>
    <northeast>
     <lat>49.8902037</lat>
     <lng>9.2484606</lng>
    </northeast>
   </bounds>
  </geometry>
  <place_id>ChIJTXLo9JtOvUcRMBRi8Ci3HQQ</place_id>
 </result>
 <result>
  <type>locality</type>
  <type>political</type>
  <formatted_address>93345 Hausen, Germany</formatted_address>
  <address_component>
   <long_name>Hausen</long_name>
   <short_name>Hausen</short_name>
   <type>locality</type>
   <type>political</type>
  </address_component>
  <address_component>
   <long_name>Kelheim</long_name>
   <short_name>KEH</short_name>
   <type>administrative_area_level_3</type>
   <type>political</type>
  </address_component>
  <address_component>
   <long_name>Lower Bavaria</long_name>
   <short_name>Lower Bavaria</short_name>
   <type>administrative_area_level_2</type>
   <type>political</type>
  </address_component>
  <address_component>
   <long_name>Bavaria</long_name>
   <short_name>BY</short_name>
   <type>administrative_area_level_1</type>
   <type>political</type>
  </address_component>
  <address_component>
   <long_name>Germany</long_name>
   <short_name>DE</short_name>
   <type>country</type>
   <type>political</type>
  </address_component>
  <address_component>
   <long_name>93345</long_name>
   <short_name>93345</short_name>
   <type>postal_code</type>
  </address_component>
  <geometry>
   <location>
    <lat>48.8581172</lat>
    <lng>12.0059659</lng>
   </location>
   <location_type>APPROXIMATE</location_type>
   <viewport>
    <southwest>
     <lat>48.8067128</lat>
     <lng>11.9377766</lng>
    </southwest>
    <northeast>
     <lat>48.8798618</lat>
     <lng>12.0344190</lng>
    </northeast>
   </viewport>
   <bounds>
    <southwest>
     <lat>48.8067128</lat>
     <lng>11.9377766</lng>
    </southwest>
    <northeast>
     <lat>48.8798618</lat>
     <lng>12.0344190</lng>
    </northeast>
   </bounds>
  </geometry>
  <place_id>ChIJHVwkhqnJn0cRQdeWcqmhslY</place_id>
 </result>
 <result>
  <type>locality</type>
  <type>political</type>
  <formatted_address>Hausen, Germany</formatted_address>
  <address_component>
   <long_name>Hausen</long_name>
   <short_name>Hausen</short_name>
   <type>locality</type>
   <type>political</type>
  </address_component>
  <address_component>
   <long_name>Neuwied</long_name>
   <short_name>Neuwied</short_name>
   <type>administrative_area_level_3</type>
   <type>political</type>
  </address_component>
  <address_component>
   <long_name>Rhineland-Palatinate</long_name>
   <short_name>RP</short_name>
   <type>administrative_area_level_1</type>
   <type>political</type>
  </address_component>
  <address_component>
   <long_name>Germany</long_name>
   <short_name>DE</short_name>
   <type>country</type>
   <type>political</type>
  </address_component>
  <geometry>
   <location>
    <lat>50.5420233</lat>
    <lng>7.4075392</lng>
   </location>
   <location_type>APPROXIMATE</location_type>
   <viewport>
    <southwest>
     <lat>50.5111636</lat>
     <lng>7.3762874</lng>
    </southwest>
    <northeast>
     <lat>50.5615447</lat>
     <lng>7.4144628</lng>
    </northeast>
   </viewport>
   <bounds>
    <southwest>
     <lat>50.5111636</lat>
     <lng>7.3762874</lng>
    </southwest>
    <northeast>
     <lat>50.5615447</lat>
     <lng>7.4144628</lng>
    </northeast>
   </bounds>
  </geometry>
  <place_id>ChIJY8Di51vzvkcRfvvOZeV2GYE</place_id>
 </result>
 <result>
  <type>locality</type>
  <type>political</type>
  <formatted_address>97647 Hausen, Germany</formatted_address>
  <address_component>
   <long_name>Hausen</long_name>
   <short_name>Hausen</short_name>
   <type>locality</type>
   <type>political</type>
  </address_component>
  <address_component>
   <long_name>Rhön-Grabfeld</long_name>
   <short_name>Rhön-Grabfeld</short_name>
   <type>administrative_area_level_3</type>
   <type>political</type>
  </address_component>
  <address_component>
   <long_name>Lower Franconia</long_name>
   <short_name>Lower Franconia</short_name>
   <type>administrative_area_level_2</type>
   <type>political</type>
  </address_component>
  <address_component>
   <long_name>Bavaria</long_name>
   <short_name>BY</short_name>
   <type>administrative_area_level_1</type>
   <type>political</type>
  </address_component>
  <address_component>
   <long_name>Germany</long_name>
   <short_name>DE</short_name>
   <type>country</type>
   <type>political</type>
  </address_component>
  <address_component>
   <long_name>97647</long_name>
   <short_name>97647</short_name>
   <type>postal_code</type>
  </address_component>
  <geometry>
   <location>
    <lat>50.5059759</lat>
    <lng>10.1267789</lng>
   </location>
   <location_type>APPROXIMATE</location_type>
   <viewport>
    <southwest>
     <lat>50.4764383</lat>
     <lng>10.0300834</lng>
    </southwest>
    <northeast>
     <lat>50.5184572</lat>
     <lng>10.1596656</lng>
    </northeast>
   </viewport>
   <bounds>
    <southwest>
     <lat>50.4764383</lat>
     <lng>10.0300834</lng>
    </southwest>
    <northeast>
     <lat>50.5184572</lat>
     <lng>10.1596656</lng>
    </northeast>
   </bounds>
  </geometry>
  <place_id>ChIJWQZmlvgTo0cR4A1i8Ci3HQQ</place_id>
 </result>
</GeocodeResponse>
