<?xml version="1.0" encoding="UTF-8"?>
<GeocodeResponse>
 <status>OK</status>
 <result>
  <type>administrative_area_level_2</type>
  <type>political</type>
  <formatted_address>North District, Hong Kong</formatted_address>
  <address_component>
   <long_name>North District</long_name>
   <short_name>North District</short_name>
   <type>administrative_area_level_2</type>
   <type>political</type>
  </address_component>
  <address_component>
   <long_name>New Territories</long_name>
   <short_name>New Territories</short_name>
   <type>administrative_area_level_1</type>
   <type>political</type>
  </address_component>
  <address_component>
   <long_name>Hong Kong</long_name>
   <short_name>HK</short_name>
   <type>country</type>
   <type>political</type>
  </address_component>
  <geometry>
   <location>
    <lat>22.5009081</lat>
    <lng>114.1558258</lng>
   </location>
   <location_type>APPROXIMATE</location_type>
   <viewport>
    <southwest>
     <lat>22.4628761</lat>
     <lng>114.0785908</lng>
    </southwest>
    <northeast>
     <lat>22.5619690</lat>
     <lng>114.2276901</lng>
    </northeast>
   </viewport>
   <bounds>
    <southwest>
     <lat>22.4628761</lat>
     <lng>114.0785908</lng>
    </southwest>
    <northeast>
     <lat>22.5619690</lat>
     <lng>114.2276901</lng>
    </northeast>
   </bounds>
  </geometry>
  <place_id>ChIJky0XX9v1AzQR2MQ-BegIC-I</place_id>
 </result>
 <result>
  <type>locality</type>
  <type>political</type>
  <formatted_address>South Burlington, VT, USA</formatted_address>
  <address_component>
   <long_name>South Burlington</long_name>
   <short_name>South Burlington</short_name>
   <type>locality</type>
   <type>political</type>
  </address_component>
  <address_component>
   <long_name>Chittenden County</long_name>
   <short_name>Chittenden County</short_name>
   <type>administrative_area_level_2</type>
   <type>political</type>
  </address_component>
  <address_component>
   <long_name>Vermont</long_name>
   <short_name>VT</short_name>
   <type>administrative_area_level_1</type>
   <type>political</type>
  </address_component>
  <address_component>
   <long_name>United States</long_name>
   <short_name>US</short_name>
   <type>country</type>
   <type>political</type>
  </address_component>
  <geometry>
   <location>
    <lat>44.4669941</lat>
    <lng>-73.1709604</lng>
   </location>
   <location_type>APPROXIMATE</location_type>
   <viewport>
    <southwest>
     <lat>44.4053780</lat>
     <lng>-73.2334240</lng>
    </southwest>
    <northeast>
     <lat>44.5009699</lat>
     <lng>-73.1346981</lng>
    </northeast>
   </viewport>
   <bounds>
    <southwest>
     <lat>44.4053780</lat>
     <lng>-73.2784092</lng>
    </southwest>
    <northeast>
     <lat>44.5228725</lat>
     <lng>-73.1346981</lng>
    </northeast>
   </bounds>
  </geometry>
  <place_id>ChIJd4BYxQJ7ykwReze8h7QsIF8</place_id>
 </result>
 <result>
  <type>administrative_area_level_1</type>
  <type>political</type>
  <formatted_address>North District, Israel</formatted_address>
  <address_component>
   <long_name>North District</long_name>
   <short_name>North District</short_name>
   <type>administrative_area_level_1</type>
   <type>political</type>
  </address_component>
  <address_component>
   <long_name>Israel</long_name>
   <short_name>IL</short_name>
   <type>country</type>
   <type>political</type>
  </address_component>
  <geometry>
   <location>
    <lat>32.8972246</lat>
    <lng>35.3027226</lng>
   </location>
   <location_type>APPROXIMATE</location_type>
   <viewport>
    <southwest>
     <lat>32.3869671</lat>
     <lng>35.0272979</lng>
    </southwest>
    <northeast>
     <lat>33.3328050</lat>
     <lng>35.8962440</lng>
    </northeast>
   </viewport>
   <bounds>
    <southwest>
     <lat>32.3869671</lat>
     <lng>35.0272979</lng>
    </southwest>
    <northeast>
     <lat>33.3328050</lat>
     <lng>35.8962440</lng>
    </northeast>
   </bounds>
  </geometry>
  <place_id>ChIJdVSqdIk3HBURL7ZpTXHxZaU</place_id>
 </result>
 <result>
  <type>administrative_area_level_1</type>
  <type>political</type>
  <formatted_address>Northern Province, Sierra Leone</formatted_address>
  <address_component>
   <long_name>Northern Province</long_name>
   <short_name>Northern Province</short_name>
   <type>administrative_area_level_1</type>
   <type>political</type>
  </address_component>
  <address_component>
   <long_name>Sierra Leone</long_name>
   <short_name>SL</short_name>
   <type>country</type>
   <type>political</type>
  </address_component>
  <geometry>
   <location>
    <lat>9.3500888</lat>
    <lng>-11.7068294</lng>
   </location>
   <location_type>APPROXIMATE</location_type>
   <viewport>
    <southwest>
     <lat>8.2419749</lat>
     <lng>-13.3032624</lng>
    </southwest>
    <northeast>
     <lat>10.0004329</lat>
     <lng>-10.5848049</lng>
    </northeast>
   </viewport>
   <bounds>
    <southwest>
     <lat>8.2419749</lat>
     <lng>-13.3032624</lng>
    </southwest>
    <northeast>
     <lat>10.0004329</lat>
     <lng>-10.5848049</lng>
    </northeast>
   </bounds>
  </geometry>
  <place_id>ChIJnZ6yDb6pBg8Roi0Wdqg5mFQ</place_id>
 </result>
 <result>
  <type>administrative_area_level_1</type>
  <type>political</type>
  <formatted_address>North, Cameroon</formatted_address>
  <address_component>
   <long_name>North</long_name>
   <short_name>North</short_name>
   <type>administrative_area_level_1</type>
   <type>political</type>
  </address_component>
  <address_component>
   <long_name>Cameroon</long_name>
   <short_name>CM</short_name>
   <type>country</type>
   <type>political</type>
  </address_component>
  <geometry>
   <location>
    <lat>8.5809013</lat>
    <lng>13.9143990</lng>
   </location>
   <location_type>APPROXIMATE</location_type>
   <viewport>
    <southwest>
     <lat>7.0290790</lat>
     <lng>12.2255000</lng>
    </southwest>
    <northeast>
     <lat>10.2192810</lat>
     <lng>15.5982040</lng>
    </northeast>
   </viewport>
   <bounds>
    <southwest>
     <lat>7.0290790</lat>
     <lng>12.2255000</lng>
    </southwest>
    <northeast>
     <lat>10.2192810</lat>
     <lng>15.5982040</lng>
    </northeast>
   </bounds>
  </geometry>
  <place_id>ChIJY84g8C3I_BARzuy9UeTEQp8</place_id>
 </result>
 <result>
  <type>administrative_area_level_1</type>
  <type>political</type>
  <formatted_address>North, Lebanon</formatted_address>
  <address_component>
   <long_name>North</long_name>
   <short_name>North</short_name>
   <type>administrative_area_level_1</type>
   <type>political</type>
  </address_component>
  <address_component>
   <long_name>Lebanon</long_name>
   <short_name>LB</short_name>
   <type>country</type>
   <type>political</type>
  </address_component>
  <geometry>
   <location>
    <lat>34.4080795</lat>
    <lng>36.0458437</lng>
   </location>
   <location_type>APPROXIMATE</location_type>
   <viewport>
    <southwest>
     <lat>34.1265877</lat>
     <lng>35.6481044</lng>
    </southwest>
    <northeast>
     <lat>34.6923647</lat>
     <lng>36.4651247</lng>
    </northeast>
   </viewport>
   <bounds>
    <southwest>
     <lat>34.1265877</lat>
     <lng>35.6481044</lng>
    </southwest>
    <northeast>
     <lat>34.6923647</lat>
     <lng>36.4651247</lng>
    </northeast>
   </bounds>
  </geometry>
  <place_id>ChIJsfWBARv0IRURHlmgwZnexyE</place_id>
 </result>
 <result>
  <type>administrative_area_level_1</type>
  <type>political</type>
  <formatted_address>North Province, Maldives</formatted_address>
  <address_component>
   <long_name>North Province</long_name>
   <short_name>North Province</short_name>
   <type>administrative_area_level_1</type>
   <type>political</type>
  </address_component>
  <address_component>
   <long_name>Maldives</long_name>
   <short_name>MV</short_name>
   <type>country</type>
   <type>political</type>
  </address_component>
  <geometry>
   <location>
    <lat>5.9537050</lat>
    <lng>73.4152250</lng>
   </location>
   <location_type>APPROXIMATE</location_type>
   <viewport>
    <southwest>
     <lat>5.9358100</lat>
     <lng>73.4018770</lng>
    </southwest>
    <northeast>
     <lat>5.9715999</lat>
     <lng>73.4285730</lng>
    </northeast>
   </viewport>
   <bounds>
    <southwest>
     <lat>4.8162920</lat>
     <lng>72.8021840</lng>
    </southwest>
    <northeast>
     <lat>6.0044500</lat>
     <lng>73.6592971</lng>
    </northeast>
   </bounds>
  </geometry>
  <place_id>ChIJqQO9MqdNazsRUCV_e8oR5JE</place_id>
 </result>
</GeocodeResponse>
