<?xml version="1.0" encoding="UTF-8"?>
<GeocodeResponse>
 <status>OK</status>
 <result>
  <type>locality</type>
  <type>political</type>
  <formatted_address>Berlin, Germany</formatted_address>
  <address_component>
   <long_name>Berlin</long_name>
   <short_name>Berlin</short_name>
   <type>locality</type>
   <type>political</type>
  </address_component>
  <address_component>
   <long_name>Berlin</long_name>
   <short_name>Berlin</short_name>
   <type>administrative_area_level_1</type>
   <type>political</type>
  </address_component>
  <address_component>
   <long_name>Germany</long_name>
   <short_name>DE</short_name>
   <type>country</type>
   <type>political</type>
  </address_component>
  <geometry>
   <location>
    <lat>52.5200066</lat>
    <lng>13.4049540</lng>
   </location>
   <location_type>APPROXIMATE</location_type>
   <viewport>
    <southwest>
     <lat>52.3382340</lat>
     <lng>13.0883460</lng>
    </southwest>
    <northeast>
     <lat>52.6754542</lat>
     <lng>13.7611176</lng>
    </northeast>
   </viewport>
   <bounds>
    <southwest>
     <lat>52.3382340</lat>
     <lng>13.0883460</lng>
    </southwest>
    <northeast>
     <lat>52.6754542</lat>
     <lng>13.7611176</lng>
    </northeast>
   </bounds>
  </geometry>
  <place_id>ChIJAVkDPzdOqEcRcDteW0YgIQQ</place_id>
 </result>
 <result>
  <type>locality</type>
  <type>political</type>
  <formatted_address>Berlin, CT, USA</formatted_address>
  <address_component>
   <long_name>Berlin</long_name>
   <short_name>Berlin</short_name>
   <type>locality</type>
   <type>political</type>
  </address_component>
  <address_component>
   <long_name>Hartford County</long_name>
   <short_name>Hartford County</short_name>
   <type>administrative_area_level_2</type>
   <type>political</type>
  </address_component>
  <address_component>
   <long_name>Connecticut</long_name>
   <short_name>CT</short_name>
   <type>administrative_area_level_1</type>
   <type>political</type>
  </address_component>
  <address_component>
   <long_name>United States</long_name>
   <short_name>US</short_name>
   <type>country</type>
   <type>political</type>
  </address_component>
  <geometry>
   <location>
    <lat>41.6214880</lat>
    <lng>-72.7456519</lng>
   </location>
   <location_type>APPROXIMATE</location_type>
   <viewport>
    <southwest>
     <lat>41.5541968</lat>
     <lng>-72.8402441</lng>
    </southwest>
    <northeast>
     <lat>41.6526990</lat>
     <lng>-72.7112130</lng>
    </northeast>
   </viewport>
   <bounds>
    <southwest>
     <lat>41.5541968</lat>
     <lng>-72.8402441</lng>
    </southwest>
    <northeast>
     <lat>41.6526990</lat>
     <lng>-72.7112130</lng>
    </northeast>
   </bounds>
  </geometry>
  <place_id>ChIJTzAUu0i054kRAznGlquL7Zw</place_id>
 </result>
 <result>
  <type>locality</type>
  <type>political</type>
  <formatted_address>Berlin, NJ 08009, USA</formatted_address>
  <address_component>
   <long_name>Berlin</long_name>
   <short_name>Berlin</short_name>
   <type>locality</type>
   <type>political</type>
  </address_component>
  <address_component>
   <long_name>Camden County</long_name>
   <short_name>Camden County</short_name>
   <type>administrative_area_level_2</type>
   <type>political</type>
  </address_component>
  <address_component>
   <long_name>New Jersey</long_name>
   <short_name>NJ</short_name>
   <type>administrative_area_level_1</type>
   <type>political</type>
  </address_component>
  <address_component>
   <long_name>United States</long_name>
   <short_name>US</short_name>
   <type>country</type>
   <type>political</type>
  </address_component>
  <address_component>
   <long_name>08009</long_name>
   <short_name>08009</short_name>
   <type>postal_code</type>
  </address_component>
  <geometry>
   <location>
    <lat>39.7912261</lat>
    <lng>-74.9290536</lng>
   </location>
   <location_type>APPROXIMATE</location_type>
   <viewport>
    <southwest>
     <lat>39.7760099</lat>
     <lng>-74.9661128</lng>
    </southwest>
    <northeast>
     <lat>39.8091748</lat>
     <lng>-74.9079590</lng>
    </northeast>
   </viewport>
   <bounds>
    <southwest>
     <lat>39.7760099</lat>
     <lng>-74.9661128</lng>
    </southwest>
    <northeast>
     <lat>39.8091748</lat>
     <lng>-74.9079590</lng>
    </northeast>
   </bounds>
  </geometry>
  <place_id>ChIJq4o4ngwtwYkRw8CBLrlJBWc</place_id>
 </result>
 <result>
  <type>locality</type>
  <type>political</type>
  <formatted_address>Berlin, NH, USA</formatted_address>
  <address_component>
   <long_name>Berlin</long_name>
   <short_name>Berlin</short_name>
   <type>locality</type>
   <type>political</type>
  </address_component>
  <address_component>
   <long_name>Coos County</long_name>
   <short_name>Coos County</short_name>
   <type>administrative_area_level_2</type>
   <type>political</type>
  </address_component>
  <address_component>
   <long_name>New Hampshire</long_name>
   <short_name>NH</short_name>
   <type>administrative_area_level_1</type>
   <type>political</type>
  </address_component>
  <address_component>
   <long_name>United States</long_name>
   <short_name>US</short_name>
   <type>country</type>
   <type>political</type>
  </address_component>
  <geometry>
   <location>
    <lat>44.4686696</lat>
    <lng>-71.1850768</lng>
   </location>
   <location_type>APPROXIMATE</location_type>
   <viewport>
    <southwest>
     <lat>44.4450569</lat>
     <lng>-71.3978580</lng>
    </southwest>
    <northeast>
     <lat>44.5284360</lat>
     <lng>-71.1236421</lng>
    </northeast>
   </viewport>
   <bounds>
    <southwest>
     <lat>44.4450569</lat>
     <lng>-71.3978580</lng>
    </southwest>
    <northeast>
     <lat>44.5284360</lat>
     <lng>-71.1236421</lng>
    </northeast>
   </bounds>
  </geometry>
  <place_id>ChIJTz9RJ2Pws0wRMsLSyURIR9o</place_id>
 </result>
 <result>
  <type>locality</type>
  <type>political</type>
  <formatted_address>Berlin, MD 21811, USA</formatted_address>
  <address_component>
   <long_name>Berlin</long_name>
   <short_name>Berlin</short_name>
   <type>locality</type>
   <type>political</type>
  </address_component>
  <address_component>
   <long_name>Berlin</long_name>
   <short_name>3, Berlin</short_name>
   <type>administrative_area_level_3</type>
   <type>political</type>
  </address_component>
  <address_component>
   <long_name>Worcester County</long_name>
   <short_name>Worcester County</short_name>
   <type>administrative_area_level_2</type>
   <type>political</type>
  </address_component>
  <address_component>
   <long_name>Maryland</long_name>
   <short_name>MD</short_name>
   <type>administrative_area_level_1</type>
   <type>political</type>
  </address_component>
  <address_component>
   <long_name>United States</long_name>
   <short_name>US</short_name>
   <type>country</type>
   <type>political</type>
  </address_component>
  <address_component>
   <long_name>21811</long_name>
   <short_name>21811</short_name>
   <type>postal_code</type>
  </address_component>
  <geometry>
   <location>
    <lat>38.3226153</lat>
    <lng>-75.2176892</lng>
   </location>
   <location_type>APPROXIMATE</location_type>
   <viewport>
    <southwest>
     <lat>38.3084060</lat>
     <lng>-75.2347939</lng>
    </southwest>
    <northeast>
     <lat>38.3563691</lat>
     <lng>-75.1880180</lng>
    </northeast>
   </viewport>
   <bounds>
    <southwest>
     <lat>38.3084060</lat>
     <lng>-75.2347939</lng>
    </southwest>
    <northeast>
     <lat>38.3563691</lat>
     <lng>-75.1880180</lng>
    </northeast>
   </bounds>
  </geometry>
  <place_id>ChIJlaa_MaUmuYkRrBvqEfEZjp4</place_id>
 </result>
 <result>
  <type>locality</type>
  <type>political</type>
  <formatted_address>Berlin, VT, USA</formatted_address>
  <address_component>
   <long_name>Berlin</long_name>
   <short_name>Berlin</short_name>
   <type>locality</type>
   <type>political</type>
  </address_component>
  <address_component>
   <long_name>Washington County</long_name>
   <short_name>Washington County</short_name>
   <type>administrative_area_level_2</type>
   <type>political</type>
  </address_component>
  <address_component>
   <long_name>Vermont</long_name>
   <short_name>VT</short_name>
   <type>administrative_area_level_1</type>
   <type>political</type>
  </address_component>
  <address_component>
   <long_name>United States</long_name>
   <short_name>US</short_name>
   <type>country</type>
   <type>political</type>
  </address_component>
  <geometry>
   <location>
    <lat>44.2152614</lat>
    <lng>-72.5861615</lng>
   </location>
   <location_type>APPROXIMATE</location_type>
   <viewport>
    <southwest>
     <lat>44.1536289</lat>
     <lng>-72.6837411</lng>
    </southwest>
    <northeast>
     <lat>44.2718969</lat>
     <lng>-72.5197720</lng>
    </northeast>
   </viewport>
   <bounds>
    <southwest>
     <lat>44.1536289</lat>
     <lng>-72.6837411</lng>
    </southwest>
    <northeast>
     <lat>44.2718969</lat>
     <lng>-72.5197720</lng>
    </northeast>
   </bounds>
  </geometry>
  <place_id>ChIJ3UTDH44ItUwRnrBwuFl5kp8</place_id>
 </result>
</GeocodeResponse>
