<?xml version="1.0" encoding="UTF-8"?>
<GeocodeResponse>
 <status>OK</status>
 <result>
  <type>locality</type>
  <type>political</type>
  <formatted_address>Thüringen, Austria</formatted_address>
  <address_component>
   <long_name>Thüringen</long_name>
   <short_name>Thüringen</short_name>
   <type>locality</type>
   <type>political</type>
  </address_component>
  <address_component>
   <long_name>Gemeinde Thüringen</long_name>
   <short_name>Gemeinde Thüringen</short_name>
   <type>administrative_area_level_3</type>
   <type>political</type>
  </address_component>
  <address_component>
   <long_name>Bludenz District</long_name>
   <short_name>Bludenz District</short_name>
   <type>administrative_area_level_2</type>
   <type>political</type>
  </address_component>
  <address_component>
   <long_name>Vorarlberg</long_name>
   <short_name>Vorarlberg</short_name>
   <type>administrative_area_level_1</type>
   <type>political</type>
  </address_component>
  <address_component>
   <long_name>Austria</long_name>
   <short_name>AT</short_name>
   <type>country</type>
   <type>political</type>
  </address_component>
  <geometry>
   <location>
    <lat>47.1989427</lat>
    <lng>9.7644421</lng>
   </location>
   <location_type>APPROXIMATE</location_type>
   <viewport>
    <southwest>
     <lat>47.1805400</lat>
     <lng>9.7408900</lng>
    </southwest>
    <northeast>
     <lat>47.2153200</lat>
     <lng>9.7820499</lng>
    </northeast>
   </viewport>
   <bounds>
    <southwest>
     <lat>47.1805400</lat>
     <lng>9.7408900</lng>
    </southwest>
    <northeast>
     <lat>47.2153200</lat>
     <lng>9.7820499</lng>
    </northeast>
   </bounds>
  </geometry>
  <place_id>ChIJq3G3Rv1Fm0cR1l1qJrphXn4</place_id>
 </result>
 <result>
  <type>administrative_area_level_1</type>
  <type>political</type>
  <formatted_address>Thuringia, Germany</formatted_address>
  <address_component>
   <long_name>Thuringia</long_name>
   <short_name>Thuringia</short_name>
   <type>administrative_area_level_1</type>
   <type>political</type>
  </address_component>
  <address_component>
   <long_name>Germany</long_name>
   <short_name>DE</short_name>
   <type>country</type>
   <type>political</type>
  </address_component>
  <geometry>
   <location>
    <lat>51.0109892</lat>
    <lng>10.8453460</lng>
   </location>
   <location_type>APPROXIMATE</location_type>
   <viewport>
    <southwest>
     <lat>50.2043467</lat>
     <lng>9.8769840</lng>
    </southwest>
    <northeast>
     <lat>51.6489359</lat>
     <lng>12.6539327</lng>
    </northeast>
   </viewport>
   <bounds>
    <southwest>
     <lat>50.2043467</lat>
     <lng>9.8769840</lng>
    </southwest>
    <northeast>
     <lat>51.6489359</lat>
     <lng>12.6539327</lng>
    </northeast>
   </bounds>
  </geometry>
  <place_id>ChIJk_E62n8PpEcR0Hk0dMGOIAE</place_id>
 </result>
</GeocodeResponse>
