<?xml version="1.0" encoding="UTF-8"?>
<GeocodeResponse>
 <status>OK</status>
 <result>
  <type>locality</type>
  <type>political</type>
  <formatted_address>Vidzeme, Brantu pagasts, LV-4729, Latvia</formatted_address>
  <address_component>
   <long_name>Vidzeme</long_name>
   <short_name>Vidzeme</short_name>
   <type>locality</type>
   <type>political</type>
  </address_component>
  <address_component>
   <long_name>Brantu pagasts</long_name>
   <short_name>Brantu pagasts</short_name>
   <type>administrative_area_level_2</type>
   <type>political</type>
  </address_component>
  <address_component>
   <long_name>Smiltene Municipality</long_name>
   <short_name>Smiltene Municipality</short_name>
   <type>administrative_area_level_1</type>
   <type>political</type>
  </address_component>
  <address_component>
   <long_name>Latvia</long_name>
   <short_name>LV</short_name>
   <type>country</type>
   <type>political</type>
  </address_component>
  <address_component>
   <long_name>LV-4729</long_name>
   <short_name>LV-4729</short_name>
   <type>postal_code</type>
  </address_component>
  <geometry>
   <location>
    <lat>57.4065639</lat>
    <lng>25.8741530</lng>
   </location>
   <location_type>APPROXIMATE</location_type>
   <viewport>
    <southwest>
     <lat>57.4015409</lat>
     <lng>25.8658420</lng>
    </southwest>
    <northeast>
     <lat>57.4128070</lat>
     <lng>25.8832538</lng>
    </northeast>
   </viewport>
   <bounds>
    <southwest>
     <lat>57.4015409</lat>
     <lng>25.8658420</lng>
    </southwest>
    <northeast>
     <lat>57.4128070</lat>
     <lng>25.8832538</lng>
    </northeast>
   </bounds>
  </geometry>
  <place_id>ChIJ-YAN54vF60YRsGCGC9anzEw</place_id>
 </result>
 <result>
  <type>locality</type>
  <type>political</type>
  <formatted_address>Vidzeme, Pededzes pagasts, LV-4352, Latvia</formatted_address>
  <address_component>
   <long_name>Vidzeme</long_name>
   <short_name>Vidzeme</short_name>
   <type>locality</type>
   <type>political</type>
  </address_component>
  <address_component>
   <long_name>Pededzes pagasts</long_name>
   <short_name>Pededzes pagasts</short_name>
   <type>administrative_area_level_2</type>
   <type>political</type>
  </address_component>
  <address_component>
   <long_name>Alūksne Municipality</long_name>
   <short_name>Alūksne Municipality</short_name>
   <type>administrative_area_level_1</type>
   <type>political</type>
  </address_component>
  <address_component>
   <long_name>Latvia</long_name>
   <short_name>LV</short_name>
   <type>country</type>
   <type>political</type>
  </address_component>
  <address_component>
   <long_name>LV-4352</long_name>
   <short_name>LV-4352</short_name>
   <type>postal_code</type>
  </address_component>
  <geometry>
   <location>
    <lat>57.4708410</lat>
    <lng>27.4396789</lng>
   </location>
   <location_type>APPROXIMATE</location_type>
   <viewport>
    <southwest>
     <lat>57.4694920</lat>
     <lng>27.4383299</lng>
    </southwest>
    <northeast>
     <lat>57.4721900</lat>
     <lng>27.4410279</lng>
    </northeast>
   </viewport>
  </geometry>
  <place_id>ChIJB49demJ76kYRoO8ghHm14VE</place_id>
 </result>
</GeocodeResponse>
