<?xml version="1.0" encoding="UTF-8"?>
<GeocodeResponse>
 <status>OK</status>
 <result>
  <type>administrative_area_level_1</type>
  <type>political</type>
  <formatted_address>North West, South Africa</formatted_address>
  <address_component>
   <long_name>North West</long_name>
   <short_name>NW</short_name>
   <type>administrative_area_level_1</type>
   <type>political</type>
  </address_component>
  <address_component>
   <long_name>South Africa</long_name>
   <short_name>ZA</short_name>
   <type>country</type>
   <type>political</type>
  </address_component>
  <geometry>
   <location>
    <lat>-26.6638599</lat>
    <lng>25.2837585</lng>
   </location>
   <location_type>APPROXIMATE</location_type>
   <viewport>
    <southwest>
     <lat>-28.1132199</lat>
     <lng>22.6290299</lng>
    </southwest>
    <northeast>
     <lat>-24.6366288</lat>
     <lng>28.2983488</lng>
    </northeast>
   </viewport>
   <bounds>
    <southwest>
     <lat>-28.1132199</lat>
     <lng>22.6290299</lng>
    </southwest>
    <northeast>
     <lat>-24.6366288</lat>
     <lng>28.2983488</lng>
    </northeast>
   </bounds>
  </geometry>
  <partial_match>true</partial_match>
  <place_id>ChIJ612A6EIKmB4R_5BkMf6qLUc</place_id>
 </result>
 <result>
  <type>administrative_area_level_1</type>
  <type>political</type>
  <formatted_address>North Western Province, Sri Lanka</formatted_address>
  <address_component>
   <long_name>North Western Province</long_name>
   <short_name>North Western Province</short_name>
   <type>administrative_area_level_1</type>
   <type>political</type>
  </address_component>
  <address_component>
   <long_name>Sri Lanka</long_name>
   <short_name>LK</short_name>
   <type>country</type>
   <type>political</type>
  </address_component>
  <geometry>
   <location>
    <lat>7.7584091</lat>
    <lng>80.1875065</lng>
   </location>
   <location_type>APPROXIMATE</location_type>
   <viewport>
    <southwest>
     <lat>7.2503401</lat>
     <lng>79.6983871</lng>
    </southwest>
    <northeast>
     <lat>8.5597331</lat>
     <lng>80.5921550</lng>
    </northeast>
   </viewport>
   <bounds>
    <southwest>
     <lat>7.2503401</lat>
     <lng>79.6983871</lng>
    </southwest>
    <northeast>
     <lat>8.5597331</lat>
     <lng>80.5921550</lng>
    </northeast>
   </bounds>
  </geometry>
  <partial_match>true</partial_match>
  <place_id>ChIJ_ZZG2h064zoR6E-BSOFiXYQ</place_id>
 </result>
 <result>
  <type>administrative_area_level_1</type>
  <type>political</type>
  <formatted_address>North-Western, Zambia</formatted_address>
  <address_component>
   <long_name>North-Western</long_name>
   <short_name>North-Western</short_name>
   <type>administrative_area_level_1</type>
   <type>political</type>
  </address_component>
  <address_component>
   <long_name>Zambia</long_name>
   <short_name>ZM</short_name>
   <type>country</type>
   <type>political</type>
  </address_component>
  <geometry>
   <location>
    <lat>-13.0050258</lat>
    <lng>24.9042208</lng>
   </location>
   <location_type>APPROXIMATE</location_type>
   <viewport>
    <southwest>
     <lat>-14.7275900</lat>
     <lng>21.9998990</lng>
    </southwest>
    <northeast>
     <lat>-10.8851520</lat>
     <lng>27.6016581</lng>
    </northeast>
   </viewport>
   <bounds>
    <southwest>
     <lat>-14.7275900</lat>
     <lng>21.9998990</lng>
    </southwest>
    <northeast>
     <lat>-10.8851520</lat>
     <lng>27.6016581</lng>
    </northeast>
   </bounds>
  </geometry>
  <partial_match>true</partial_match>
  <place_id>ChIJFd4FqkdDZBkRM1MvApyhKpc</place_id>
 </result>
 <result>
  <type>administrative_area_level_1</type>
  <type>political</type>
  <formatted_address>Northwest Territories, Canada</formatted_address>
  <address_component>
   <long_name>Northwest Territories</long_name>
   <short_name>NT</short_name>
   <type>administrative_area_level_1</type>
   <type>political</type>
  </address_component>
  <address_component>
   <long_name>Canada</long_name>
   <short_name>CA</short_name>
   <type>country</type>
   <type>political</type>
  </address_component>
  <geometry>
   <location>
    <lat>64.8255441</lat>
    <lng>-124.8457334</lng>
   </location>
   <location_type>APPROXIMATE</location_type>
   <viewport>
    <southwest>
     <lat>59.9999540</lat>
     <lng>-136.4687053</lng>
    </southwest>
    <northeast>
     <lat>78.7613421</lat>
     <lng>-101.9999990</lng>
    </northeast>
   </viewport>
   <bounds>
    <southwest>
     <lat>59.9999540</lat>
     <lng>-136.4687053</lng>
    </southwest>
    <northeast>
     <lat>78.7613421</lat>
     <lng>-101.9999990</lng>
    </northeast>
   </bounds>
  </geometry>
  <partial_match>true</partial_match>
  <place_id>ChIJDcHTs_Q4EVERjVnGRNguMhk</place_id>
 </result>
 <result>
  <type>administrative_area_level_1</type>
  <type>political</type>
  <formatted_address>Northwest, Cameroon</formatted_address>
  <address_component>
   <long_name>Northwest</long_name>
   <short_name>Northwest</short_name>
   <type>administrative_area_level_1</type>
   <type>political</type>
  </address_component>
  <address_component>
   <long_name>Cameroon</long_name>
   <short_name>CM</short_name>
   <type>country</type>
   <type>political</type>
  </address_component>
  <geometry>
   <location>
    <lat>6.4703739</lat>
    <lng>10.4396560</lng>
   </location>
   <location_type>APPROXIMATE</location_type>
   <viewport>
    <southwest>
     <lat>5.7337610</lat>
     <lng>9.6307759</lng>
    </southwest>
    <northeast>
     <lat>7.1616911</lat>
     <lng>11.1949670</lng>
    </northeast>
   </viewport>
   <bounds>
    <southwest>
     <lat>5.7337610</lat>
     <lng>9.6307759</lng>
    </southwest>
    <northeast>
     <lat>7.1616911</lat>
     <lng>11.1949670</lng>
    </northeast>
   </bounds>
  </geometry>
  <partial_match>true</partial_match>
  <place_id>ChIJqzsR-j0WXxAR-_gnaMmyA28</place_id>
 </result>
 <result>
  <type>administrative_area_level_1</type>
  <type>political</type>
  <formatted_address>Nord-Ouest, Haiti</formatted_address>
  <address_component>
   <long_name>Nord-Ouest</long_name>
   <short_name>Nord-Ouest</short_name>
   <type>administrative_area_level_1</type>
   <type>political</type>
  </address_component>
  <address_component>
   <long_name>Haiti</long_name>
   <short_name>HT</short_name>
   <type>country</type>
   <type>political</type>
  </address_component>
  <geometry>
   <location>
    <lat>19.8374009</lat>
    <lng>-73.0405277</lng>
   </location>
   <location_type>APPROXIMATE</location_type>
   <viewport>
    <southwest>
     <lat>19.6254310</lat>
     <lng>-73.4514690</lng>
    </southwest>
    <northeast>
     <lat>20.0878220</lat>
     <lng>-72.5657550</lng>
    </northeast>
   </viewport>
   <bounds>
    <southwest>
     <lat>19.6254310</lat>
     <lng>-73.4514690</lng>
    </southwest>
    <northeast>
     <lat>20.0878220</lat>
     <lng>-72.5657550</lng>
    </northeast>
   </bounds>
  </geometry>
  <partial_match>true</partial_match>
  <place_id>ChIJDz6EaOphto4RW89-GB7XZi8</place_id>
 </result>
</GeocodeResponse>
